[
{
"Name": "Canillo",
"Code": "02",
"PostCode": "AD100",
"Provinces": [
{
"PostCode": "AD100",
"Communities": [
{
"Places": [
{
"Name": "Canillo",
"PostCode": "AD100",
"Location": {
"Latitude": 42.5833,
"Longitude": 1.6667
}
}
],
"PostCode": "AD100"
}
]
}
]
},
{
"Name": "Encamp",
"Code": "03",
"PostCode": "AD200",
"Provinces": [
{
"PostCode": "AD200",
"Communities": [
{
"Places": [
{
"Name": "Encamp",
"PostCode": "AD200",
"Location": {
"Latitude": 42.5333,
"Longitude": 1.6333
}
}
],
"PostCode": "AD200"
}
]
}
]
},
{
"Name": "La Massana",
"Code": "04",
"PostCode": "AD400",
"Provinces": [
{
"PostCode": "AD400",
"Communities": [
{
"Places": [
{
"Name": "La Massana",
"PostCode": "AD400",
"Location": {
"Latitude": 42.5667,
"Longitude": 1.4833
}
}
],
"PostCode": "AD400"
}
]
}
]
},
{
"Name": "Ordino",
"Code": "05",
"PostCode": "AD300",
"Provinces": [
{
"PostCode": "AD300",
"Communities": [
{
"Places": [
{
"Name": "Ordino",
"PostCode": "AD300",
"Location": {
"Latitude": 42.6,
"Longitude": 1.55
}
}
],
"PostCode": "AD300"
}
]
}
]
},
{
"Name": "Sant Julià de Lòria",
"Code": "06",
"PostCode": "AD600",
"Provinces": [
{
"PostCode": "AD600",
"Communities": [
{
"Places": [
{
"Name": "Sant Julià de Lòria",
"PostCode": "AD600",
"Location": {
"Latitude": 42.4667,
"Longitude": 1.5
}
}
],
"PostCode": "AD600"
}
]
}
]
},
{
"Name": "Andorra la Vella",
"Code": "07",
"PostCode": "AD500",
"Provinces": [
{
"PostCode": "AD500",
"Communities": [
{
"Places": [
{
"Name": "Andorra la Vella",
"PostCode": "AD500",
"Location": {
"Latitude": 42.5,
"Longitude": 1.5
}
}
],
"PostCode": "AD500"
}
]
}
]
},
{
"Name": "Escaldes-Engordany",
"Code": "08",
"PostCode": "AD700",
"Provinces": [
{
"PostCode": "AD700",
"Communities": [
{
"Places": [
{
"Name": "Escaldes-Engordany",
"PostCode": "AD700",
"Location": {
"Latitude": 42.5,
"Longitude": 1.5667
}
}
],
"PostCode": "AD700"
}
]
}
]
}
]