[
{
"Name": "Devonshire Parish",
"Code": "01",
"Provinces": [
{
"Communities": [
{
"Places": [
{
"Name": "Devonshire",
"PostCode": "DV 01",
"Location": {
"Latitude": 32.3028,
"Longitude": -64.7558
}
},
{
"Name": "Devonshire",
"PostCode": "DV 02",
"Location": {
"Latitude": 32.3028,
"Longitude": -64.7558
}
},
{
"Name": "Devonshire",
"PostCode": "DV 03",
"Location": {
"Latitude": 32.3028,
"Longitude": -64.7558
}
},
{
"Name": "Devonshire",
"PostCode": "DV 04",
"Location": {
"Latitude": 32.3028,
"Longitude": -64.7558
}
},
{
"Name": "Devonshire",
"PostCode": "DV 05",
"Location": {
"Latitude": 32.3028,
"Longitude": -64.7558
}
},
{
"Name": "Devonshire",
"PostCode": "DV 06",
"Location": {
"Latitude": 32.3028,
"Longitude": -64.7558
}
},
{
"Name": "Devonshire",
"PostCode": "DV 07",
"Location": {
"Latitude": 32.3028,
"Longitude": -64.7558
}
},
{
"Name": "Devonshire",
"PostCode": "DV 08",
"Location": {
"Latitude": 32.3028,
"Longitude": -64.7558
}
},
{
"Name": "Devonshire",
"PostCode": "FL 01",
"Location": {
"Latitude": 32.3264,
"Longitude": -64.7411
}
},
{
"Name": "Devonshire",
"PostCode": "FL 02",
"Location": {
"Latitude": 32.3264,
"Longitude": -64.7411
}
},
{
"Name": "Devonshire",
"PostCode": "FL 03",
"Location": {
"Latitude": 32.3264,
"Longitude": -64.7411
}
},
{
"Name": "Devonshire",
"PostCode": "FL 05",
"Location": {
"Latitude": 32.3264,
"Longitude": -64.7411
}
},
{
"Name": "Devonshire",
"PostCode": "HM 14",
"Location": {
"Latitude": 32.3002,
"Longitude": -64.792
}
},
{
"Name": "Devonshire",
"PostCode": "HM 15",
"Location": {
"Latitude": 32.3002,
"Longitude": -64.792
}
},
{
"Name": "Devonshire",
"PostCode": "HM 16",
"Location": {
"Latitude": 32.3002,
"Longitude": -64.792
}
},
{
"Name": "Devonshire",
"PostCode": "HM 18",
"Location": {
"Latitude": 32.3002,
"Longitude": -64.792
}
},
{
"Name": "Devonshire",
"PostCode": "HM 19",
"Location": {
"Latitude": 32.2975,
"Longitude": -64.7875
}
},
{
"Name": "Devonshire",
"PostCode": "HM 20",
"Location": {
"Latitude": 32.3002,
"Longitude": -64.792
}
}
]
}
]
}
]
},
{
"Name": "Hamilton",
"Code": "02",
"Provinces": [
{
"Communities": [
{
"Places": [
{
"Name": "City of Hamilton",
"PostCode": "HM 08",
"Location": {
"Latitude": 32.2949,
"Longitude": -64.783
}
},
{
"Name": "City of Hamilton",
"PostCode": "HM 09",
"Location": {
"Latitude": 32.2949,
"Longitude": -64.783
}
},
{
"Name": "City of Hamilton",
"PostCode": "HM 10",
"Location": {
"Latitude": 32.2949,
"Longitude": -64.783
}
},
{
"Name": "City of Hamilton",
"PostCode": "HM 11",
"Location": {
"Latitude": 32.2949,
"Longitude": -64.783
}
},
{
"Name": "City of Hamilton",
"PostCode": "HM 12",
"Location": {
"Latitude": 32.2949,
"Longitude": -64.783
}
},
{
"Name": "City of Hamilton",
"PostCode": "HM 17",
"Location": {
"Latitude": 32.2949,
"Longitude": -64.783
}
},
{
"Name": "City of Hamilton",
"PostCode": "HM 19",
"Location": {
"Latitude": 32.2949,
"Longitude": -64.783
}
},
{
"Name": "Hamilton Parish",
"PostCode": "CR 01",
"Location": {
"Latitude": 32.3264,
"Longitude": -64.7411
}
},
{
"Name": "Hamilton Parish",
"PostCode": "CR 02",
"Location": {
"Latitude": 32.3264,
"Longitude": -64.7411
}
},
{
"Name": "Hamilton Parish",
"PostCode": "CR 03",
"Location": {
"Latitude": 32.3264,
"Longitude": -64.7411
}
},
{
"Name": "Hamilton Parish",
"PostCode": "CR 04",
"Location": {
"Latitude": 32.3264,
"Longitude": -64.7411
}
},
{
"Name": "Hamilton Parish",
"PostCode": "FL 04",
"Location": {
"Latitude": 32.3264,
"Longitude": -64.7411
}
},
{
"Name": "Hamilton Parish",
"PostCode": "HS 02",
"Location": {
"Latitude": 32.3264,
"Longitude": -64.7411
}
}
]
}
]
}
]
},
{
"Name": "Paget Parish",
"Code": "04",
"Provinces": [
{
"Communities": [
{
"Places": [
{
"Name": "Paget",
"PostCode": "DV 03",
"Location": {
"Latitude": 32.2783,
"Longitude": -64.7817
}
},
{
"Name": "Paget",
"PostCode": "DV 04",
"Location": {
"Latitude": 32.2783,
"Longitude": -64.7817
}
},
{
"Name": "Paget",
"PostCode": "PG 01",
"Location": {
"Latitude": 32.2783,
"Longitude": -64.7817
}
},
{
"Name": "Paget",
"PostCode": "PG 02",
"Location": {
"Latitude": 32.2783,
"Longitude": -64.7817
}
},
{
"Name": "Paget",
"PostCode": "PG 03",
"Location": {
"Latitude": 32.2783,
"Longitude": -64.7817
}
},
{
"Name": "Paget",
"PostCode": "PG 04",
"Location": {
"Latitude": 32.2783,
"Longitude": -64.7817
}
},
{
"Name": "Paget",
"PostCode": "PG 05",
"Location": {
"Latitude": 32.2783,
"Longitude": -64.7817
}
},
{
"Name": "Paget",
"PostCode": "PG 06",
"Location": {
"Latitude": 32.2783,
"Longitude": -64.7817
}
}
]
}
]
}
]
},
{
"Name": "Pembroke Parish",
"Code": "05",
"Provinces": [
{
"Communities": [
{
"Places": [
{
"Name": "Pembroke",
"PostCode": "HM 01",
"Location": {
"Latitude": 32.3002,
"Longitude": -64.792
}
},
{
"Name": "Pembroke",
"PostCode": "HM 02",
"Location": {
"Latitude": 32.3002,
"Longitude": -64.792
}
},
{
"Name": "Pembroke",
"PostCode": "HM 03",
"Location": {
"Latitude": 32.3002,
"Longitude": -64.792
}
},
{
"Name": "Pembroke",
"PostCode": "HM 04",
"Location": {
"Latitude": 32.3002,
"Longitude": -64.792
}
},
{
"Name": "Pembroke",
"PostCode": "HM 05",
"Location": {
"Latitude": 32.3002,
"Longitude": -64.792
}
},
{
"Name": "Pembroke",
"PostCode": "HM 06",
"Location": {
"Latitude": 32.3002,
"Longitude": -64.792
}
},
{
"Name": "Pembroke",
"PostCode": "HM 07",
"Location": {
"Latitude": 32.3002,
"Longitude": -64.792
}
},
{
"Name": "Pembroke",
"PostCode": "HM 08",
"Location": {
"Latitude": 32.3002,
"Longitude": -64.792
}
},
{
"Name": "Pembroke",
"PostCode": "HM 09",
"Location": {
"Latitude": 32.3002,
"Longitude": -64.792
}
},
{
"Name": "Pembroke",
"PostCode": "HM 13",
"Location": {
"Latitude": 32.3002,
"Longitude": -64.792
}
},
{
"Name": "Pembroke",
"PostCode": "HM 14",
"Location": {
"Latitude": 32.3002,
"Longitude": -64.792
}
},
{
"Name": "Pembroke",
"PostCode": "HM 15",
"Location": {
"Latitude": 32.3002,
"Longitude": -64.792
}
},
{
"Name": "Pembroke",
"PostCode": "HM 16",
"Location": {
"Latitude": 32.3002,
"Longitude": -64.792
}
},
{
"Name": "Pembroke",
"PostCode": "HM 17",
"Location": {
"Latitude": 32.3002,
"Longitude": -64.792
}
},
{
"Name": "Pembroke",
"PostCode": "HM 18",
"Location": {
"Latitude": 32.3002,
"Longitude": -64.792
}
},
{
"Name": "Pembroke",
"PostCode": "HM 19",
"Location": {
"Latitude": 32.3002,
"Longitude": -64.792
}
},
{
"Name": "Pembroke",
"PostCode": "HM 20",
"Location": {
"Latitude": 32.3002,
"Longitude": -64.792
}
}
]
}
]
}
]
},
{
"Name": "Saint George",
"Code": "06",
"Provinces": [
{
"Communities": [
{
"Places": [
{
"Name": "St. George",
"PostCode": "HS 02",
"Location": {
"Latitude": 32.3817,
"Longitude": -64.6781
}
},
{
"Name": "Town of St. George",
"PostCode": "GE 02",
"Location": {
"Latitude": 32.3842,
"Longitude": -64.6764
}
},
{
"Name": "Town of St. George",
"PostCode": "GE 03",
"Location": {
"Latitude": 32.3842,
"Longitude": -64.6764
}
},
{
"Name": "Town of St. George",
"PostCode": "GE 04",
"Location": {
"Latitude": 32.3842,
"Longitude": -64.6764
}
},
{
"Name": "Town of St. George",
"PostCode": "GE 05",
"Location": {
"Latitude": 32.3842,
"Longitude": -64.6764
}
}
]
}
]
}
]
},
{
"Name": "Saint George’s Parish",
"Code": "07",
"Provinces": [
{
"Communities": [
{
"Places": [
{
"Name": "St. George's",
"PostCode": "CR 04",
"Location": {
"Latitude": 32.3264,
"Longitude": -64.7411
}
},
{
"Name": "St. George's",
"PostCode": "DD 01",
"Location": {
"Latitude": 32.3726,
"Longitude": -64.6944
}
},
{
"Name": "St. George's",
"PostCode": "DD 02",
"Location": {
"Latitude": 32.3726,
"Longitude": -64.6944
}
},
{
"Name": "St. George's",
"PostCode": "DD 03",
"Location": {
"Latitude": 32.3726,
"Longitude": -64.6944
}
},
{
"Name": "St. George's",
"PostCode": "GE 01",
"Location": {
"Latitude": 32.3726,
"Longitude": -64.6944
}
},
{
"Name": "St. George's",
"PostCode": "GE 02",
"Location": {
"Latitude": 32.3726,
"Longitude": -64.6944
}
},
{
"Name": "St. George's",
"PostCode": "GE 03",
"Location": {
"Latitude": 32.3726,
"Longitude": -64.6944
}
},
{
"Name": "St. George's",
"PostCode": "GE 04",
"Location": {
"Latitude": 32.3726,
"Longitude": -64.6944
}
},
{
"Name": "St. George's",
"PostCode": "GE 05",
"Location": {
"Latitude": 32.3726,
"Longitude": -64.6944
}
},
{
"Name": "St. George's",
"PostCode": "GE CX",
"Location": {
"Latitude": 32.3726,
"Longitude": -64.6944
}
},
{
"Name": "St. George's",
"PostCode": "HS 02",
"Location": {
"Latitude": 32.354,
"Longitude": -64.7096
}
}
]
}
]
}
]
},
{
"Name": "Sandys Parish",
"Code": "08",
"Provinces": [
{
"Communities": [
{
"Places": [
{
"Name": "Sandys",
"PostCode": "MA 01",
"Location": {
"Latitude": 32.2934,
"Longitude": -64.8683
}
},
{
"Name": "Sandys",
"PostCode": "MA 02",
"Location": {
"Latitude": 32.2934,
"Longitude": -64.8683
}
},
{
"Name": "Sandys",
"PostCode": "MA 03",
"Location": {
"Latitude": 32.2934,
"Longitude": -64.8683
}
},
{
"Name": "Sandys",
"PostCode": "MA 04",
"Location": {
"Latitude": 32.2934,
"Longitude": -64.8683
}
},
{
"Name": "Sandys",
"PostCode": "MA 05",
"Location": {
"Latitude": 32.2934,
"Longitude": -64.8683
}
},
{
"Name": "Sandys",
"PostCode": "MA 06",
"Location": {
"Latitude": 32.2934,
"Longitude": -64.8683
}
},
{
"Name": "Sandys",
"PostCode": "SB 01",
"Location": {
"Latitude": 32.2934,
"Longitude": -64.8683
}
},
{
"Name": "Sandys",
"PostCode": "SB 02",
"Location": {
"Latitude": 32.2934,
"Longitude": -64.8683
}
},
{
"Name": "Sandys",
"PostCode": "SB 03",
"Location": {
"Latitude": 32.2934,
"Longitude": -64.8683
}
}
]
}
]
}
]
},
{
"Name": "Smith’s Parish",
"Code": "09",
"Provinces": [
{
"Communities": [
{
"Places": [
{
"Name": "Smith’s",
"PostCode": "FL 01",
"Location": {
"Latitude": 32.3264,
"Longitude": -64.7411
}
},
{
"Name": "Smith’s",
"PostCode": "FL 02",
"Location": {
"Latitude": 32.3264,
"Longitude": -64.7411
}
},
{
"Name": "Smith’s",
"PostCode": "FL 03",
"Location": {
"Latitude": 32.3264,
"Longitude": -64.7411
}
},
{
"Name": "Smith’s",
"PostCode": "FL 04",
"Location": {
"Latitude": 32.3264,
"Longitude": -64.7411
}
},
{
"Name": "Smith’s",
"PostCode": "FL 05",
"Location": {
"Latitude": 32.3264,
"Longitude": -64.7411
}
},
{
"Name": "Smith’s",
"PostCode": "FL 06",
"Location": {
"Latitude": 32.3264,
"Longitude": -64.7411
}
},
{
"Name": "Smith’s",
"PostCode": "FL 07",
"Location": {
"Latitude": 32.3264,
"Longitude": -64.7411
}
},
{
"Name": "Smith’s",
"PostCode": "FL 08",
"Location": {
"Latitude": 32.3264,
"Longitude": -64.7411
}
},
{
"Name": "Smith’s",
"PostCode": "HS 01",
"Location": {
"Latitude": 32.354,
"Longitude": -64.7096
}
},
{
"Name": "Smith’s",
"PostCode": "HS 02",
"Location": {
"Latitude": 32.354,
"Longitude": -64.7096
}
}
]
}
]
}
]
},
{
"Name": "Southampton Parish",
"Code": "10",
"Provinces": [
{
"Communities": [
{
"Places": [
{
"Name": "Southampton",
"PostCode": "SB 02",
"Location": {
"Latitude": 32.2508,
"Longitude": -64.8564
}
},
{
"Name": "Southampton",
"PostCode": "SB 03",
"Location": {
"Latitude": 32.2508,
"Longitude": -64.8564
}
},
{
"Name": "Southampton",
"PostCode": "SB 04",
"Location": {
"Latitude": 32.2508,
"Longitude": -64.8564
}
},
{
"Name": "Southampton",
"PostCode": "SN 01",
"Location": {
"Latitude": 32.2508,
"Longitude": -64.8564
}
},
{
"Name": "Southampton",
"PostCode": "SN 02",
"Location": {
"Latitude": 32.2508,
"Longitude": -64.8564
}
},
{
"Name": "Southampton",
"PostCode": "SN 03",
"Location": {
"Latitude": 32.2508,
"Longitude": -64.8564
}
},
{
"Name": "Southampton",
"PostCode": "SN 04",
"Location": {
"Latitude": 32.2508,
"Longitude": -64.8564
}
},
{
"Name": "Southampton",
"PostCode": "WK 01",
"Location": {
"Latitude": 32.2508,
"Longitude": -64.8564
}
},
{
"Name": "Southampton",
"PostCode": "WK 03",
"Location": {
"Latitude": 32.2508,
"Longitude": -64.8564
}
}
]
}
]
}
]
},
{
"Name": "Warwick Parish",
"Code": "11",
"Provinces": [
{
"Communities": [
{
"Places": [
{
"Name": "Warwick",
"PostCode": "PG 01",
"Location": {
"Latitude": 32.2658,
"Longitude": -64.8072
}
},
{
"Name": "Warwick",
"PostCode": "PG 04",
"Location": {
"Latitude": 32.2658,
"Longitude": -64.8072
}
},
{
"Name": "Warwick",
"PostCode": "WK 01",
"Location": {
"Latitude": 32.2658,
"Longitude": -64.8072
}
},
{
"Name": "Warwick",
"PostCode": "WK 02",
"Location": {
"Latitude": 32.2658,
"Longitude": -64.8072
}
},
{
"Name": "Warwick",
"PostCode": "WK 03",
"Location": {
"Latitude": 32.2658,
"Longitude": -64.8072
}
},
{
"Name": "Warwick",
"PostCode": "WK 04",
"Location": {
"Latitude": 32.2658,
"Longitude": -64.8072
}
},
{
"Name": "Warwick",
"PostCode": "WK 05",
"Location": {
"Latitude": 32.2658,
"Longitude": -64.8072
}
},
{
"Name": "Warwick",
"PostCode": "WK 06",
"Location": {
"Latitude": 32.2658,
"Longitude": -64.8072
}
},
{
"Name": "Warwick",
"PostCode": "WK 07",
"Location": {
"Latitude": 32.2658,
"Longitude": -64.8072
}
},
{
"Name": "Warwick",
"PostCode": "WK 08",
"Location": {
"Latitude": 32.2658,
"Longitude": -64.8072
}
},
{
"Name": "Warwick",
"PostCode": "WK 09",
"Location": {
"Latitude": 32.2658,
"Longitude": -64.8072
}
},
{
"Name": "Warwick",
"PostCode": "WK 10",
"Location": {
"Latitude": 32.2658,
"Longitude": -64.8072
}
}
]
}
]
}
]
}
]