[
{
"Name": "Provincia de Alajuela",
"Code": "01",
"Provinces": [
{
"Name": "Alajuela",
"Code": "201",
"Communities": [
{
"Name": "Alajuela",
"Code": "20101",
"Places": [
{
"Name": "Alajuela",
"PostCode": "20101",
"Latitude": 10.0241,
"Longitude": -84.2061
}
]
},
{
"Name": "San José",
"Code": "20102",
"Places": [
{
"Name": "San José",
"PostCode": "20102",
"Latitude": 10.0075,
"Longitude": -84.2475
}
]
},
{
"Name": "Carrizal",
"Code": "20103",
"Places": [
{
"Name": "Carrizal",
"PostCode": "20103",
"Latitude": 10.0856,
"Longitude": -84.1742
}
]
},
{
"Name": "San Antonio",
"Code": "20104",
"Places": [
{
"Name": "San Antonio",
"PostCode": "20104",
"Latitude": 9.9894,
"Longitude": -84.2443
}
]
},
{
"Name": "Guácima",
"Code": "20105",
"Places": [
{
"Name": "Guácima",
"PostCode": "20105",
"Latitude": 9.9593,
"Longitude": -84.2606
}
]
},
{
"Name": "San Isidro",
"Code": "20106",
"Places": [
{
"Name": "San Isidro",
"PostCode": "20106",
"Latitude": 10.0882,
"Longitude": -84.1937
}
]
},
{
"Name": "Sabanilla",
"Code": "20107",
"Places": [
{
"Name": "Sabanilla",
"PostCode": "20107",
"Latitude": 10.0732,
"Longitude": -84.2143
}
]
},
{
"Name": "San Rafael",
"Code": "20108",
"Places": [
{
"Name": "San Rafael",
"PostCode": "20108",
"Latitude": 9.9598,
"Longitude": -84.2278
}
]
},
{
"Name": "Río Segundo",
"Code": "20109",
"Places": [
{
"Name": "Río Segundo",
"PostCode": "20109",
"Latitude": 10.0003,
"Longitude": -84.1951
}
]
},
{
"Name": "Desamparados",
"Code": "20110",
"Places": [
{
"Name": "Desamparados",
"PostCode": "20110",
"Latitude": 10.0275,
"Longitude": -84.185
}
]
},
{
"Name": "Turrúcares",
"Code": "20111",
"Places": [
{
"Name": "Turrúcares",
"PostCode": "20111",
"Latitude": 9.9441,
"Longitude": -84.3253
}
]
},
{
"Name": "Tambor",
"Code": "20112",
"Places": [
{
"Name": "Tambor",
"PostCode": "20112",
"Latitude": 10.0281,
"Longitude": -84.2573
}
]
},
{
"Name": "Garita",
"Code": "20113",
"Places": [
{
"Name": "Garita",
"PostCode": "20113",
"Latitude": 9.9875,
"Longitude": -84.3035
}
]
},
{
"Name": "Sarapiquí",
"Code": "20114",
"Places": [
{
"Name": "Sarapiquí",
"PostCode": "20114",
"Latitude": 10.2655,
"Longitude": -84.1878
}
]
}
]
},
{
"Name": "San Ramón",
"Code": "202",
"Communities": [
{
"Name": "San Ramón",
"Code": "20201",
"Places": [
{
"Name": "San Ramón",
"PostCode": "20201",
"Latitude": 10.0873,
"Longitude": -84.4699
}
]
},
{
"Name": "Santiago",
"Code": "20202",
"Places": [
{
"Name": "Santiago",
"PostCode": "20202",
"Latitude": 10.0384,
"Longitude": -84.5285
}
]
},
{
"Name": "San Juan",
"Code": "20203",
"Places": [
{
"Name": "San Juan",
"PostCode": "20203",
"Latitude": 10.1061,
"Longitude": -84.4622
}
]
},
{
"Name": "Piedades Norte",
"Code": "20204",
"Places": [
{
"Name": "Piedades Norte",
"PostCode": "20204",
"Latitude": 10.1473,
"Longitude": -84.5373
}
]
},
{
"Name": "Piedades Sur",
"Code": "20205",
"Places": [
{
"Name": "Piedades Sur",
"PostCode": "20205",
"Latitude": 10.0942,
"Longitude": -84.5738
}
]
},
{
"Name": "San Rafael",
"Code": "20206",
"Places": [
{
"Name": "San Rafael",
"PostCode": "20206",
"Latitude": 10.0267,
"Longitude": -84.4748
}
]
},
{
"Name": "San Isidro",
"Code": "20207",
"Places": [
{
"Name": "San Isidro",
"PostCode": "20207",
"Latitude": 10.0869,
"Longitude": -84.4501
}
]
},
{
"Name": "Ángeles",
"Code": "20208",
"Places": [
{
"Name": "Ángeles",
"PostCode": "20208",
"Latitude": 10.2521,
"Longitude": -84.5929
}
]
},
{
"Name": "Alfaro",
"Code": "20209",
"Places": [
{
"Name": "Alfaro",
"PostCode": "20209",
"Latitude": 10.0885,
"Longitude": -84.503
}
]
},
{
"Name": "Volio",
"Code": "20210",
"Places": [
{
"Name": "Volio",
"PostCode": "20210",
"Latitude": 10.1509,
"Longitude": -84.4526
}
]
},
{
"Name": "Concepción",
"Code": "20211",
"Places": [
{
"Name": "Concepción",
"PostCode": "20211",
"Latitude": 10.1279,
"Longitude": -84.436
}
]
},
{
"Name": "Zapotal",
"Code": "20212",
"Places": [
{
"Name": "Zapotal",
"PostCode": "20212",
"Latitude": 10.1445,
"Longitude": -84.6379
}
]
},
{
"Name": "Peñas Blancas",
"Code": "20213",
"Places": [
{
"Name": "Peñas Blancas",
"PostCode": "20213",
"Latitude": 10.3787,
"Longitude": -84.6787
}
]
}
]
},
{
"Name": "Grecia",
"Code": "203",
"Communities": [
{
"Name": "Grecia",
"Code": "20301",
"Places": [
{
"Name": "Grecia",
"PostCode": "20301",
"Latitude": 10.0697,
"Longitude": -84.3131
}
]
},
{
"Name": "San Isidro",
"Code": "20302",
"Places": [
{
"Name": "San Isidro",
"PostCode": "20302",
"Latitude": 10.1245,
"Longitude": -84.2683
}
]
},
{
"Name": "San José",
"Code": "20303",
"Places": [
{
"Name": "San José",
"PostCode": "20303",
"Latitude": 10.0887,
"Longitude": -84.2758
}
]
},
{
"Name": "San Roque",
"Code": "20304",
"Places": [
{
"Name": "San Roque",
"PostCode": "20304",
"Latitude": 10.1229,
"Longitude": -84.2876
}
]
},
{
"Name": "Tacares",
"Code": "20305",
"Places": [
{
"Name": "Tacares",
"PostCode": "20305",
"Latitude": 10.0276,
"Longitude": -84.3094
}
]
},
{
"Name": "Río Cuarto",
"Code": "20306",
"Places": [
{
"Name": "Río Cuarto",
"PostCode": "20306",
"Latitude": 10.4085,
"Longitude": -84.2094
}
]
},
{
"Name": "Puente de Piedra",
"Code": "20307",
"Places": [
{
"Name": "Puente de Piedra",
"PostCode": "20307",
"Latitude": 10.0354,
"Longitude": -84.3358
}
]
},
{
"Name": "Bolívar",
"Code": "20308",
"Places": [
{
"Name": "Bolívar",
"PostCode": "20308",
"Latitude": 10.1363,
"Longitude": -84.2983
}
]
}
]
},
{
"Name": "San Mateo",
"Code": "204",
"Communities": [
{
"Name": "San Mateo",
"Code": "20401",
"Places": [
{
"Name": "San Mateo",
"PostCode": "20401",
"Latitude": 9.9669,
"Longitude": -84.5313
}
]
},
{
"Name": "Desmonte",
"Code": "20402",
"Places": [
{
"Name": "Desmonte",
"PostCode": "20402",
"Latitude": 9.9656,
"Longitude": -84.4766
}
]
},
{
"Name": "Jesús María",
"Code": "20403",
"Places": [
{
"Name": "Jesús María",
"PostCode": "20403",
"Latitude": 9.9452,
"Longitude": -84.6097
}
]
}
]
},
{
"Name": "Atenas",
"Code": "205",
"Communities": [
{
"Name": "Atenas",
"Code": "20501",
"Places": [
{
"Name": "Atenas",
"PostCode": "20501",
"Latitude": 9.9808,
"Longitude": -84.3696
}
]
},
{
"Name": "Jesús",
"Code": "20502",
"Places": [
{
"Name": "Jesús",
"PostCode": "20502",
"Latitude": 9.97,
"Longitude": -84.4342
}
]
},
{
"Name": "Mercedes",
"Code": "20503",
"Places": [
{
"Name": "Mercedes",
"PostCode": "20503",
"Latitude": 9.9867,
"Longitude": -84.3994
}
]
},
{
"Name": "San Isidro",
"Code": "20504",
"Places": [
{
"Name": "San Isidro",
"PostCode": "20504",
"Latitude": 9.9955,
"Longitude": -84.4332
}
]
},
{
"Name": "Concepción",
"Code": "20505",
"Places": [
{
"Name": "Concepción",
"PostCode": "20505",
"Latitude": 9.9538,
"Longitude": -84.3714
}
]
},
{
"Name": "San José",
"Code": "20506",
"Places": [
{
"Name": "San José",
"PostCode": "20506",
"Latitude": 10.0146,
"Longitude": -84.4042
}
]
},
{
"Name": "Santa Eulalia",
"Code": "20507",
"Places": [
{
"Name": "Santa Eulalia",
"PostCode": "20507",
"Latitude": 10.0149,
"Longitude": -84.3753
}
]
},
{
"Name": "Escobal",
"Code": "20508",
"Places": [
{
"Name": "Escobal",
"PostCode": "20508",
"Latitude": 9.9442,
"Longitude": -84.4241
}
]
}
]
},
{
"Name": "Naranjo",
"Code": "206",
"Communities": [
{
"Name": "Naranjo",
"Code": "20601",
"Places": [
{
"Name": "Naranjo",
"PostCode": "20601",
"Latitude": 10.101,
"Longitude": -84.3908
}
]
},
{
"Name": "San Miguel",
"Code": "20602",
"Places": [
{
"Name": "San Miguel",
"PostCode": "20602",
"Latitude": 10.0714,
"Longitude": -84.395
}
]
},
{
"Name": "San José",
"Code": "20603",
"Places": [
{
"Name": "San José",
"PostCode": "20603",
"Latitude": 10.1517,
"Longitude": -84.4044
}
]
},
{
"Name": "Cirrí Sur",
"Code": "20604",
"Places": [
{
"Name": "Cirrí Sur",
"PostCode": "20604",
"Latitude": 10.1524,
"Longitude": -84.3657
}
]
},
{
"Name": "San Jerónimo",
"Code": "20605",
"Places": [
{
"Name": "San Jerónimo",
"PostCode": "20605",
"Latitude": 10.1241,
"Longitude": -84.355
}
]
},
{
"Name": "San Juan",
"Code": "20606",
"Places": [
{
"Name": "San Juan",
"PostCode": "20606",
"Latitude": 10.1198,
"Longitude": -84.4155
}
]
},
{
"Name": "El Rosario",
"Code": "20607",
"Places": [
{
"Name": "El Rosario",
"PostCode": "20607",
"Latitude": 10.0488,
"Longitude": -84.3783
}
]
},
{
"Name": "Palmitos",
"Code": "20608",
"Places": [
{
"Name": "Palmitos",
"PostCode": "20608",
"Latitude": 10.0973,
"Longitude": -84.4248
}
]
}
]
},
{
"Name": "Palmares",
"Code": "207",
"Communities": [
{
"Name": "Palmares",
"Code": "20701",
"Places": [
{
"Name": "Palmares",
"PostCode": "20701",
"Latitude": 10.0541,
"Longitude": -84.4329
}
]
},
{
"Name": "Zaragoza",
"Code": "20702",
"Places": [
{
"Name": "Zaragoza",
"PostCode": "20702",
"Latitude": 10.0375,
"Longitude": -84.4438
}
]
},
{
"Name": "Buenos Aires",
"Code": "20703",
"Places": [
{
"Name": "Buenos Aires",
"PostCode": "20703",
"Latitude": 10.0719,
"Longitude": -84.4347
}
]
},
{
"Name": "Santiago",
"Code": "20704",
"Places": [
{
"Name": "Santiago",
"PostCode": "20704",
"Latitude": 10.021,
"Longitude": -84.4473
}
]
},
{
"Name": "Candelaria",
"Code": "20705",
"Places": [
{
"Name": "Candelaria",
"PostCode": "20705",
"Latitude": 10.0283,
"Longitude": -84.4231
}
]
},
{
"Name": "Esquipulas",
"Code": "20706",
"Places": [
{
"Name": "Esquipulas",
"PostCode": "20706",
"Latitude": 10.0585,
"Longitude": -84.4185
}
]
},
{
"Name": "La Granja",
"Code": "20707",
"Places": [
{
"Name": "La Granja",
"PostCode": "20707",
"Latitude": 10.0527,
"Longitude": -84.4492
}
]
}
]
},
{
"Name": "Poás",
"Code": "208",
"Communities": [
{
"Name": "San Pedro",
"Code": "20801",
"Places": [
{
"Name": "San Pedro",
"PostCode": "20801",
"Latitude": 10.0775,
"Longitude": -84.2453
}
]
},
{
"Name": "San Juan",
"Code": "20802",
"Places": [
{
"Name": "San Juan",
"PostCode": "20802",
"Latitude": 10.1333,
"Longitude": -84.2357
}
]
},
{
"Name": "San Rafael",
"Code": "20803",
"Places": [
{
"Name": "San Rafael",
"PostCode": "20803",
"Latitude": 10.0985,
"Longitude": -84.2578
}
]
},
{
"Name": "Carrillos",
"Code": "20804",
"Places": [
{
"Name": "Carrillos",
"PostCode": "20804",
"Latitude": 10.0363,
"Longitude": -84.2732
}
]
},
{
"Name": "Sabana Redonda",
"Code": "20805",
"Places": [
{
"Name": "Sabana Redonda",
"PostCode": "20805",
"Latitude": 10.1427,
"Longitude": -84.2144
}
]
}
]
},
{
"Name": "Orotina",
"Code": "209",
"Communities": [
{
"Name": "Orotina",
"Code": "20901",
"Places": [
{
"Name": "Orotina",
"PostCode": "20901",
"Latitude": 9.904,
"Longitude": -84.5274
}
]
},
{
"Name": "El Mastate",
"Code": "20902",
"Places": [
{
"Name": "El Mastate",
"PostCode": "20902",
"Latitude": 9.9164,
"Longitude": -84.5593
}
]
},
{
"Name": "Hacienda Vieja",
"Code": "20903",
"Places": [
{
"Name": "Hacienda Vieja",
"PostCode": "20903",
"Latitude": 9.9261,
"Longitude": -84.4882
}
]
},
{
"Name": "Coyolar",
"Code": "20904",
"Places": [
{
"Name": "Coyolar",
"PostCode": "20904",
"Latitude": 9.8711,
"Longitude": -84.5731
}
]
},
{
"Name": "La Ceiba",
"Code": "20905",
"Places": [
{
"Name": "La Ceiba",
"PostCode": "20905",
"Latitude": 9.8975,
"Longitude": -84.6268
}
]
}
]
},
{
"Name": "San Carlos",
"Code": "210",
"Communities": [
{
"Name": "Quesada",
"Code": "21001",
"Places": [
{
"Name": "Quesada",
"PostCode": "21001",
"Latitude": 10.3262,
"Longitude": -84.4126
}
]
},
{
"Name": "Florencia",
"Code": "21002",
"Places": [
{
"Name": "Florencia",
"PostCode": "21002",
"Latitude": 10.3936,
"Longitude": -84.4892
}
]
},
{
"Name": "Buenavista",
"Code": "21003",
"Places": [
{
"Name": "Buenavista",
"PostCode": "21003",
"Latitude": 10.2772,
"Longitude": -84.4782
}
]
},
{
"Name": "Aguas Zarcas",
"Code": "21004",
"Places": [
{
"Name": "Aguas Zarcas",
"PostCode": "21004",
"Latitude": 10.4652,
"Longitude": -84.3491
}
]
},
{
"Name": "Venecia",
"Code": "21005",
"Places": [
{
"Name": "Venecia",
"PostCode": "21005",
"Latitude": 10.3349,
"Longitude": -84.2893
}
]
},
{
"Name": "Pital",
"Code": "21006",
"Places": [
{
"Name": "Pital",
"PostCode": "21006",
"Latitude": 10.5832,
"Longitude": -84.2413
}
]
},
{
"Name": "La Fortuna",
"Code": "21007",
"Places": [
{
"Name": "La Fortuna",
"PostCode": "21007",
"Latitude": 10.4666,
"Longitude": -84.6639
}
]
},
{
"Name": "La Tigra",
"Code": "21008",
"Places": [
{
"Name": "La Tigra",
"PostCode": "21008",
"Latitude": 10.3501,
"Longitude": -84.5882
}
]
},
{
"Name": "La Palmera",
"Code": "21009",
"Places": [
{
"Name": "La Palmera",
"PostCode": "21009",
"Latitude": 10.3982,
"Longitude": -84.3844
}
]
},
{
"Name": "Venado",
"Code": "21010",
"Places": [
{
"Name": "Venado",
"PostCode": "21010",
"Latitude": 10.566,
"Longitude": -84.7645
}
]
},
{
"Name": "Cutris",
"Code": "21011",
"Places": [
{
"Name": "Cutris",
"PostCode": "21011",
"Latitude": 10.7105,
"Longitude": -84.3437
}
]
},
{
"Name": "Monterrey",
"Code": "21012",
"Places": [
{
"Name": "Monterrey",
"PostCode": "21012",
"Latitude": 10.5647,
"Longitude": -84.6325
}
]
},
{
"Name": "Pocosol",
"Code": "21013",
"Places": [
{
"Name": "Pocosol",
"PostCode": "21013",
"Latitude": 10.7564,
"Longitude": -84.4727
}
]
}
]
},
{
"Name": "Zarcero",
"Code": "211",
"Communities": [
{
"Name": "Zarcero",
"Code": "21101",
"Places": [
{
"Name": "Zarcero",
"PostCode": "21101",
"Latitude": 10.1896,
"Longitude": -84.3796
}
]
},
{
"Name": "Laguna",
"Code": "21102",
"Places": [
{
"Name": "Laguna",
"PostCode": "21102",
"Latitude": 10.2131,
"Longitude": -84.4446
}
]
},
{
"Name": "Tapesco",
"Code": "21103",
"Places": [
{
"Name": "Tapesco",
"PostCode": "21103",
"Latitude": 10.2188,
"Longitude": -84.4062
}
]
},
{
"Name": "Guadalupe",
"Code": "21104",
"Places": [
{
"Name": "Guadalupe",
"PostCode": "21104",
"Latitude": 10.1869,
"Longitude": -84.4352
}
]
},
{
"Name": "Palmira",
"Code": "21105",
"Places": [
{
"Name": "Palmira",
"PostCode": "21105",
"Latitude": 10.2103,
"Longitude": -84.349
}
]
},
{
"Name": "Zapote",
"Code": "21106",
"Places": [
{
"Name": "Zapote",
"PostCode": "21106",
"Latitude": 10.2435,
"Longitude": -84.4519
}
]
},
{
"Name": "Brisas",
"Code": "21107",
"Places": [
{
"Name": "Brisas",
"PostCode": "21107",
"Latitude": 10.2424,
"Longitude": -84.3873
}
]
}
]
},
{
"Name": "Valverde Vega",
"Code": "212",
"Communities": [
{
"Name": "Sarchí Norte",
"Code": "21201",
"Places": [
{
"Name": "Sarchí Norte",
"PostCode": "21201",
"Latitude": 10.1403,
"Longitude": -84.3273
}
]
},
{
"Name": "Sarchí Sur",
"Code": "21202",
"Places": [
{
"Name": "Sarchí Sur",
"PostCode": "21202",
"Latitude": 10.0772,
"Longitude": -84.3438
}
]
},
{
"Name": "Toro Amarillo",
"Code": "21203",
"Places": [
{
"Name": "Toro Amarillo",
"PostCode": "21203",
"Latitude": 10.2218,
"Longitude": -84.2864
}
]
},
{
"Name": "San Pedro",
"Code": "21204",
"Places": [
{
"Name": "San Pedro",
"PostCode": "21204",
"Latitude": 10.1102,
"Longitude": -84.3288
}
]
},
{
"Name": "Rodríguez",
"Code": "21205",
"Places": [
{
"Name": "Rodríguez",
"PostCode": "21205",
"Latitude": 10.1175,
"Longitude": -84.3482
}
]
}
]
},
{
"Name": "Upala",
"Code": "213",
"Communities": [
{
"Name": "Upala",
"Code": "21301",
"Places": [
{
"Name": "Upala",
"PostCode": "21301",
"Latitude": 10.8443,
"Longitude": -85.0197
}
]
},
{
"Name": "Aguas Claras",
"Code": "21302",
"Places": [
{
"Name": "Aguas Claras",
"PostCode": "21302",
"Latitude": 10.8486,
"Longitude": -85.2413
}
]
},
{
"Name": "San José o Pizote",
"Code": "21303",
"Places": [
{
"Name": "San José o Pizote",
"PostCode": "21303",
"Latitude": 10.9617,
"Longitude": -85.1734
}
]
},
{
"Name": "Bijagua",
"Code": "21304",
"Places": [
{
"Name": "Bijagua",
"PostCode": "21304",
"Latitude": 10.7494,
"Longitude": -85.0459
}
]
},
{
"Name": "Delicias",
"Code": "21305",
"Places": [
{
"Name": "Delicias",
"PostCode": "21305",
"Latitude": 10.9635,
"Longitude": -85.0647
}
]
},
{
"Name": "Dos Ríos",
"Code": "21306",
"Places": [
{
"Name": "Dos Ríos",
"PostCode": "21306",
"Latitude": 10.9454,
"Longitude": -85.3578
}
]
},
{
"Name": "Yolillal",
"Code": "21307",
"Places": [
{
"Name": "Yolillal",
"PostCode": "21307",
"Latitude": 10.9042,
"Longitude": -84.9391
}
]
}
]
},
{
"Name": "Los Chiles",
"Code": "214",
"Communities": [
{
"Name": "Los Chiles",
"Code": "21401",
"Places": [
{
"Name": "Los Chiles",
"PostCode": "21401",
"Latitude": 10.9627,
"Longitude": -84.6042
}
]
},
{
"Name": "Caño Negro",
"Code": "21402",
"Places": [
{
"Name": "Caño Negro",
"PostCode": "21402",
"Latitude": 10.9254,
"Longitude": -84.81
}
]
},
{
"Name": "El Amparo",
"Code": "21403",
"Places": [
{
"Name": "El Amparo",
"PostCode": "21403",
"Latitude": 10.8311,
"Longitude": -84.6658
}
]
},
{
"Name": "San Jorge",
"Code": "21404",
"Places": [
{
"Name": "San Jorge",
"PostCode": "21404",
"Latitude": 10.7187,
"Longitude": -84.6101
}
]
}
]
},
{
"Name": "Guatuso",
"Code": "215",
"Communities": [
{
"Name": "San Rafael",
"Code": "21501",
"Places": [
{
"Name": "San Rafael",
"PostCode": "21501",
"Latitude": 10.6806,
"Longitude": -84.7883
}
]
},
{
"Name": "Buenavista",
"Code": "21502",
"Places": [
{
"Name": "Buenavista",
"PostCode": "21502",
"Latitude": 10.7759,
"Longitude": -84.8158
}
]
},
{
"Name": "Cote",
"Code": "21503",
"Places": [
{
"Name": "Cote",
"PostCode": "21503",
"Latitude": 10.6202,
"Longitude": -84.9027
}
]
},
{
"Name": "Katira",
"Code": "21504",
"Places": [
{
"Name": "Katira",
"PostCode": "21504",
"Latitude": 10.7458,
"Longitude": -84.9183
}
]
}
]
}
]
},
{
"Name": "Provincia de Cartago",
"Code": "02",
"Provinces": [
{
"Name": "Cartago",
"Code": "301",
"Communities": [
{
"Name": "Oriental",
"Code": "30101",
"Places": [
{
"Name": "Oriental",
"PostCode": "30101",
"Latitude": 9.8618,
"Longitude": -83.916
}
]
},
{
"Name": "Occidental",
"Code": "30102",
"Places": [
{
"Name": "Occidental",
"PostCode": "30102",
"Latitude": 9.8619,
"Longitude": -83.9275
}
]
},
{
"Name": "Carmen",
"Code": "30103",
"Places": [
{
"Name": "Carmen",
"PostCode": "30103",
"Latitude": 9.8794,
"Longitude": -83.9145
}
]
},
{
"Name": "San Nicolás",
"Code": "30104",
"Places": [
{
"Name": "San Nicolás",
"PostCode": "30104",
"Latitude": 9.8953,
"Longitude": -83.9403
}
]
},
{
"Name": "Aguacaliente o San Francisco",
"Code": "30105",
"Places": [
{
"Name": "Aguacaliente o San Francisco",
"PostCode": "30105",
"Latitude": 9.7475,
"Longitude": -83.8778
}
]
},
{
"Name": "Guadalupe o Arenilla",
"Code": "30106",
"Places": [
{
"Name": "Guadalupe o Arenilla",
"PostCode": "30106",
"Latitude": 9.8626,
"Longitude": -83.961
}
]
},
{
"Name": "Corralillo",
"Code": "30107",
"Places": [
{
"Name": "Corralillo",
"PostCode": "30107",
"Latitude": 9.789,
"Longitude": -84.0508
}
]
},
{
"Name": "Tierra Blanca",
"Code": "30108",
"Places": [
{
"Name": "Tierra Blanca",
"PostCode": "30108",
"Latitude": 9.9258,
"Longitude": -83.8918
}
]
},
{
"Name": "Dulce Nombre",
"Code": "30109",
"Places": [
{
"Name": "Dulce Nombre",
"PostCode": "30109",
"Latitude": 9.8116,
"Longitude": -83.8864
}
]
},
{
"Name": "Llano Grande",
"Code": "30110",
"Places": [
{
"Name": "Llano Grande",
"PostCode": "30110",
"Latitude": 9.9405,
"Longitude": -83.9176
}
]
},
{
"Name": "Quebradilla",
"Code": "30111",
"Places": [
{
"Name": "Quebradilla",
"PostCode": "30111",
"Latitude": 9.8492,
"Longitude": -84.0012
}
]
}
]
},
{
"Name": "Paraíso",
"Code": "302",
"Communities": [
{
"Name": "Paraíso",
"Code": "30201",
"Places": [
{
"Name": "Paraíso",
"PostCode": "30201",
"Latitude": 9.8421,
"Longitude": -83.8504
}
]
},
{
"Name": "Santiago",
"Code": "30202",
"Places": [
{
"Name": "Santiago",
"PostCode": "30202",
"Latitude": 9.8655,
"Longitude": -83.8102
}
]
},
{
"Name": "Orosi",
"Code": "30203",
"Places": [
{
"Name": "Orosi",
"PostCode": "30203",
"Latitude": 9.6827,
"Longitude": -83.7511
}
]
},
{
"Name": "Cachí",
"Code": "30204",
"Places": [
{
"Name": "Cachí",
"PostCode": "30204",
"Latitude": 9.8293,
"Longitude": -83.7941
}
]
},
{
"Name": "Llanos de Santa Lucía",
"Code": "30205",
"Places": [
{
"Name": "Llanos de Santa Lucía",
"PostCode": "30205",
"Latitude": 9.8479,
"Longitude": -83.8802
}
]
}
]
},
{
"Name": "La Unión",
"Code": "303",
"Communities": [
{
"Name": "Tres Ríos",
"Code": "30301",
"Places": [
{
"Name": "Tres Ríos",
"PostCode": "30301",
"Latitude": 9.9077,
"Longitude": -83.9885
}
]
},
{
"Name": "San Diego",
"Code": "30302",
"Places": [
{
"Name": "San Diego",
"PostCode": "30302",
"Latitude": 9.8929,
"Longitude": -83.9956
}
]
},
{
"Name": "San Juan",
"Code": "30303",
"Places": [
{
"Name": "San Juan",
"PostCode": "30303",
"Latitude": 9.9116,
"Longitude": -84.0063
}
]
},
{
"Name": "San Rafael",
"Code": "30304",
"Places": [
{
"Name": "San Rafael",
"PostCode": "30304",
"Latitude": 9.9055,
"Longitude": -83.9689
}
]
},
{
"Name": "Concepción",
"Code": "30305",
"Places": [
{
"Name": "Concepción",
"PostCode": "30305",
"Latitude": 9.9264,
"Longitude": -83.9925
}
]
},
{
"Name": "Dulce Nombre",
"Code": "30306",
"Places": [
{
"Name": "Dulce Nombre",
"PostCode": "30306",
"Latitude": 9.9315,
"Longitude": -83.9684
}
]
},
{
"Name": "San Ramón",
"Code": "30307",
"Places": [
{
"Name": "San Ramón",
"PostCode": "30307",
"Latitude": 9.938,
"Longitude": -83.9899
}
]
},
{
"Name": "Río Azul",
"Code": "30308",
"Places": [
{
"Name": "Río Azul",
"PostCode": "30308",
"Latitude": 9.8882,
"Longitude": -84.02
}
]
}
]
},
{
"Name": "Jiménez",
"Code": "304",
"Communities": [
{
"Name": "Juan Viñas",
"Code": "30401",
"Places": [
{
"Name": "Juan Viñas",
"PostCode": "30401",
"Latitude": 9.9017,
"Longitude": -83.7465
}
]
},
{
"Name": "Tucurrique",
"Code": "30402",
"Places": [
{
"Name": "Tucurrique",
"PostCode": "30402",
"Latitude": 9.8436,
"Longitude": -83.734
}
]
},
{
"Name": "Pejibaye",
"Code": "30403",
"Places": [
{
"Name": "Pejibaye",
"PostCode": "30403",
"Latitude": 9.7759,
"Longitude": -83.6857
}
]
}
]
},
{
"Name": "Turrialba",
"Code": "305",
"Communities": [
{
"Name": "Turrialba",
"Code": "30501",
"Places": [
{
"Name": "Turrialba",
"PostCode": "30501",
"Latitude": 9.8872,
"Longitude": -83.6861
}
]
},
{
"Name": "La Suiza",
"Code": "30502",
"Places": [
{
"Name": "La Suiza",
"PostCode": "30502",
"Latitude": 9.7881,
"Longitude": -83.6166
}
]
},
{
"Name": "Peralta",
"Code": "30503",
"Places": [
{
"Name": "Peralta",
"PostCode": "30503",
"Latitude": 9.9668,
"Longitude": -83.6224
}
]
},
{
"Name": "Santa Cruz",
"Code": "30504",
"Places": [
{
"Name": "Santa Cruz",
"PostCode": "30504",
"Latitude": 10.0086,
"Longitude": -83.7555
}
]
},
{
"Name": "Santa Teresita",
"Code": "30505",
"Places": [
{
"Name": "Santa Teresita",
"PostCode": "30505",
"Latitude": 9.9879,
"Longitude": -83.6658
}
]
},
{
"Name": "Pavones",
"Code": "30506",
"Places": [
{
"Name": "Pavones",
"PostCode": "30506",
"Latitude": 9.9157,
"Longitude": -83.6198
}
]
},
{
"Name": "Tuis",
"Code": "30507",
"Places": [
{
"Name": "Tuis",
"PostCode": "30507",
"Latitude": 9.8528,
"Longitude": -83.5663
}
]
},
{
"Name": "Tayutic",
"Code": "30508",
"Places": [
{
"Name": "Tayutic",
"PostCode": "30508",
"Latitude": 9.8083,
"Longitude": -83.5477
}
]
},
{
"Name": "Santa Rosa",
"Code": "30509",
"Places": [
{
"Name": "Santa Rosa",
"PostCode": "30509",
"Latitude": 9.9418,
"Longitude": -83.7127
}
]
},
{
"Name": "Tres Equis",
"Code": "30510",
"Places": [
{
"Name": "Tres Equis",
"PostCode": "30510",
"Latitude": 9.9547,
"Longitude": -83.5737
}
]
},
{
"Name": "La Isabel",
"Code": "30511",
"Places": [
{
"Name": "La Isabel",
"PostCode": "30511",
"Latitude": 9.9289,
"Longitude": -83.6621
}
]
},
{
"Name": "Chirripó",
"Code": "30512",
"Places": [
{
"Name": "Chirripó",
"PostCode": "30512",
"Latitude": 9.772,
"Longitude": -83.4831
}
]
}
]
},
{
"Name": "Alvarado",
"Code": "306",
"Communities": [
{
"Name": "Pacayas",
"Code": "30601",
"Places": [
{
"Name": "Pacayas",
"PostCode": "30601",
"Latitude": 9.9397,
"Longitude": -83.8191
}
]
},
{
"Name": "Cervantes",
"Code": "30602",
"Places": [
{
"Name": "Cervantes",
"PostCode": "30602",
"Latitude": 9.8925,
"Longitude": -83.804
}
]
},
{
"Name": "Capellades",
"Code": "30603",
"Places": [
{
"Name": "Capellades",
"PostCode": "30603",
"Latitude": 9.9555,
"Longitude": -83.7929
}
]
}
]
},
{
"Name": "Oreamuno",
"Code": "307",
"Communities": [
{
"Name": "San Rafael",
"Code": "30701",
"Places": [
{
"Name": "San Rafael",
"PostCode": "30701",
"Latitude": 9.8713,
"Longitude": -83.8958
}
]
},
{
"Name": "Cot",
"Code": "30702",
"Places": [
{
"Name": "Cot",
"PostCode": "30702",
"Latitude": 9.8893,
"Longitude": -83.8697
}
]
},
{
"Name": "Potrero Cerrado",
"Code": "30703",
"Places": [
{
"Name": "Potrero Cerrado",
"PostCode": "30703",
"Latitude": 9.9319,
"Longitude": -83.8729
}
]
},
{
"Name": "Cipreses",
"Code": "30704",
"Places": [
{
"Name": "Cipreses",
"PostCode": "30704",
"Latitude": 9.893,
"Longitude": -83.8422
}
]
},
{
"Name": "Santa Rosa",
"Code": "30705",
"Places": [
{
"Name": "Santa Rosa",
"PostCode": "30705",
"Latitude": 10.0453,
"Longitude": -83.864
}
]
}
]
},
{
"Name": "El Guarco",
"Code": "308",
"Communities": [
{
"Name": "El Tejar",
"Code": "30801",
"Places": [
{
"Name": "El Tejar",
"PostCode": "30801",
"Latitude": 9.8437,
"Longitude": -83.9475
}
]
},
{
"Name": "San Isidro",
"Code": "30802",
"Places": [
{
"Name": "San Isidro",
"PostCode": "30802",
"Latitude": 9.7284,
"Longitude": -83.9133
}
]
},
{
"Name": "Tobosi",
"Code": "30803",
"Places": [
{
"Name": "Tobosi",
"PostCode": "30803",
"Latitude": 9.8218,
"Longitude": -83.9942
}
]
},
{
"Name": "Patio de Agua",
"Code": "30804",
"Places": [
{
"Name": "Patio de Agua",
"PostCode": "30804",
"Latitude": 9.7901,
"Longitude": -84.0106
}
]
}
]
}
]
},
{
"Name": "Provincia de Guanacaste",
"Code": "03",
"Provinces": [
{
"Name": "Liberia",
"Code": "501",
"Communities": [
{
"Name": "Liberia",
"Code": "50101",
"Places": [
{
"Name": "Liberia",
"PostCode": "50101",
"Latitude": 10.5866,
"Longitude": -85.4504
}
]
},
{
"Name": "Cañas Dulces",
"Code": "50102",
"Places": [
{
"Name": "Cañas Dulces",
"PostCode": "50102",
"Latitude": 10.7602,
"Longitude": -85.4504
}
]
},
{
"Name": "Mayorga",
"Code": "50103",
"Places": [
{
"Name": "Mayorga",
"PostCode": "50103",
"Latitude": 10.8632,
"Longitude": -85.4924
}
]
},
{
"Name": "Nacascolo",
"Code": "50104",
"Places": [
{
"Name": "Nacascolo",
"PostCode": "50104",
"Latitude": 10.7228,
"Longitude": -85.6001
}
]
},
{
"Name": "Curubandé",
"Code": "50105",
"Places": [
{
"Name": "Curubandé",
"PostCode": "50105",
"Latitude": 10.701599999999999,
"Longitude": -85.4362
}
]
}
]
},
{
"Name": "Nicoya",
"Code": "502",
"Communities": [
{
"Name": "Nicoya",
"Code": "50201",
"Places": [
{
"Name": "Nicoya",
"PostCode": "50201",
"Latitude": 10.1183,
"Longitude": -85.5052
}
]
},
{
"Name": "Mansión",
"Code": "50202",
"Places": [
{
"Name": "Mansión",
"PostCode": "50202",
"Latitude": 10.1082,
"Longitude": -85.3183
}
]
},
{
"Name": "San Antonio",
"Code": "50203",
"Places": [
{
"Name": "San Antonio",
"PostCode": "50203",
"Latitude": 10.2594,
"Longitude": -85.4006
}
]
},
{
"Name": "Quebrada Honda",
"Code": "50204",
"Places": [
{
"Name": "Quebrada Honda",
"PostCode": "50204",
"Latitude": 10.1943,
"Longitude": -85.2871
}
]
},
{
"Name": "Sámara",
"Code": "50205",
"Places": [
{
"Name": "Sámara",
"PostCode": "50205",
"Latitude": 9.9109,
"Longitude": -85.538
}
]
},
{
"Name": "Nosara",
"Code": "50206",
"Places": [
{
"Name": "Nosara",
"PostCode": "50206",
"Latitude": 9.9756,
"Longitude": -85.6254
}
]
},
{
"Name": "Belén de Nosarita",
"Code": "50207",
"Places": [
{
"Name": "Belén de Nosarita",
"PostCode": "50207",
"Latitude": 9.9932,
"Longitude": -85.5154
}
]
}
]
},
{
"Name": "Santa Cruz",
"Code": "503",
"Communities": [
{
"Name": "Santa Cruz",
"Code": "50301",
"Places": [
{
"Name": "Santa Cruz",
"PostCode": "50301",
"Latitude": 10.2388,
"Longitude": -85.5991
}
]
},
{
"Name": "Bolsón",
"Code": "50302",
"Places": [
{
"Name": "Bolsón",
"PostCode": "50302",
"Latitude": 10.3485,
"Longitude": -85.4534
}
]
},
{
"Name": "Veintisiete de Abril",
"Code": "50303",
"Places": [
{
"Name": "Veintisiete de Abril",
"PostCode": "50303",
"Latitude": 10.2002,
"Longitude": -85.722
}
]
},
{
"Name": "Tempate",
"Code": "50304",
"Places": [
{
"Name": "Tempate",
"PostCode": "50304",
"Latitude": 10.3972,
"Longitude": -85.7365
}
]
},
{
"Name": "Cartagena",
"Code": "50305",
"Places": [
{
"Name": "Cartagena",
"PostCode": "50305",
"Latitude": 10.3628,
"Longitude": -85.6761
}
]
},
{
"Name": "Cuajiniquil",
"Code": "50306",
"Places": [
{
"Name": "Cuajiniquil",
"PostCode": "50306",
"Latitude": 10.0723,
"Longitude": -85.6954
}
]
},
{
"Name": "Diriá",
"Code": "50307",
"Places": [
{
"Name": "Diriá",
"PostCode": "50307",
"Latitude": 10.2823,
"Longitude": -85.5229
}
]
},
{
"Name": "Cabo Velas",
"Code": "50308",
"Places": [
{
"Name": "Cabo Velas",
"PostCode": "50308",
"Latitude": 10.3734,
"Longitude": -85.8143
}
]
},
{
"Name": "Tamarindo",
"Code": "50309",
"Places": [
{
"Name": "Tamarindo",
"PostCode": "50309",
"Latitude": 10.2859,
"Longitude": -85.7964
}
]
}
]
},
{
"Name": "Bagaces",
"Code": "504",
"Communities": [
{
"Name": "Bagaces",
"Code": "50401",
"Places": [
{
"Name": "Bagaces",
"PostCode": "50401",
"Latitude": 10.4655,
"Longitude": -85.2828
}
]
},
{
"Name": "La Fortuna",
"Code": "50402",
"Places": [
{
"Name": "La Fortuna",
"PostCode": "50402",
"Latitude": 10.6614,
"Longitude": -85.1688
}
]
},
{
"Name": "Mogote",
"Code": "50403",
"Places": [
{
"Name": "Mogote",
"PostCode": "50403",
"Latitude": 10.6954,
"Longitude": -85.2719
}
]
},
{
"Name": "Río Naranjo",
"Code": "50404",
"Places": [
{
"Name": "Río Naranjo",
"PostCode": "50404",
"Latitude": 10.6754,
"Longitude": -85.106
}
]
}
]
},
{
"Name": "Carrillo",
"Code": "505",
"Communities": [
{
"Name": "Filadelfia",
"Code": "50501",
"Places": [
{
"Name": "Filadelfia",
"PostCode": "50501",
"Latitude": 10.4075,
"Longitude": -85.4681
}
]
},
{
"Name": "Palmira",
"Code": "50502",
"Places": [
{
"Name": "Palmira",
"PostCode": "50502",
"Latitude": 10.5492,
"Longitude": -85.5912
}
]
},
{
"Name": "Sardinal",
"Code": "50503",
"Places": [
{
"Name": "Sardinal",
"PostCode": "50503",
"Latitude": 10.5179,
"Longitude": -85.6751
}
]
},
{
"Name": "Belén",
"Code": "50504",
"Places": [
{
"Name": "Belén",
"PostCode": "50504",
"Latitude": 10.3974,
"Longitude": -85.5921
}
]
}
]
},
{
"Name": "Cañas",
"Code": "506",
"Communities": [
{
"Name": "Cañas",
"Code": "50601",
"Places": [
{
"Name": "Cañas",
"PostCode": "50601",
"Latitude": 10.4502,
"Longitude": -85.0903
}
]
},
{
"Name": "Palmira",
"Code": "50602",
"Places": [
{
"Name": "Palmira",
"PostCode": "50602",
"Latitude": 10.5955,
"Longitude": -85.0828
}
]
},
{
"Name": "San Miguel",
"Code": "50603",
"Places": [
{
"Name": "San Miguel",
"PostCode": "50603",
"Latitude": 10.3438,
"Longitude": -85.0659
}
]
},
{
"Name": "Bebedero",
"Code": "50604",
"Places": [
{
"Name": "Bebedero",
"PostCode": "50604",
"Latitude": 10.3742,
"Longitude": -85.155
}
]
},
{
"Name": "Porozal",
"Code": "50605",
"Places": [
{
"Name": "Porozal",
"PostCode": "50605",
"Latitude": 10.2803,
"Longitude": -85.183
}
]
}
]
},
{
"Name": "Abangares",
"Code": "507",
"Communities": [
{
"Name": "Las Juntas",
"Code": "50701",
"Places": [
{
"Name": "Las Juntas",
"PostCode": "50701",
"Latitude": 10.2486,
"Longitude": -84.9969
}
]
},
{
"Name": "Sierra",
"Code": "50702",
"Places": [
{
"Name": "Sierra",
"PostCode": "50702",
"Latitude": 10.3222,
"Longitude": -84.8996
}
]
},
{
"Name": "San Juan",
"Code": "50703",
"Places": [
{
"Name": "San Juan",
"PostCode": "50703",
"Latitude": 10.2303,
"Longitude": -84.9226
}
]
},
{
"Name": "Colorado",
"Code": "50704",
"Places": [
{
"Name": "Colorado",
"PostCode": "50704",
"Latitude": 10.2141,
"Longitude": -85.1173
}
]
}
]
},
{
"Name": "Tilarán",
"Code": "508",
"Communities": [
{
"Name": "Tilarán",
"Code": "50801",
"Places": [
{
"Name": "Tilarán",
"PostCode": "50801",
"Latitude": 10.4574,
"Longitude": -84.9641
}
]
},
{
"Name": "Quebrada Grande",
"Code": "50802",
"Places": [
{
"Name": "Quebrada Grande",
"PostCode": "50802",
"Latitude": 10.3887,
"Longitude": -84.8865
}
]
},
{
"Name": "Tronadora",
"Code": "50803",
"Places": [
{
"Name": "Tronadora",
"PostCode": "50803",
"Latitude": 10.4243,
"Longitude": -84.8356
}
]
},
{
"Name": "Santa Rosa",
"Code": "50804",
"Places": [
{
"Name": "Santa Rosa",
"PostCode": "50804",
"Latitude": 10.5062,
"Longitude": -85.0004
}
]
},
{
"Name": "Líbano",
"Code": "50805",
"Places": [
{
"Name": "Líbano",
"PostCode": "50805",
"Latitude": 10.4033,
"Longitude": -84.9862
}
]
},
{
"Name": "Tierras Morenas",
"Code": "50806",
"Places": [
{
"Name": "Tierras Morenas",
"PostCode": "50806",
"Latitude": 10.582,
"Longitude": -84.9998
}
]
},
{
"Name": "Arenal",
"Code": "50807",
"Places": [
{
"Name": "Arenal",
"PostCode": "50807",
"Latitude": 10.5203,
"Longitude": -84.8519
}
]
}
]
},
{
"Name": "Nandayure",
"Code": "509",
"Communities": [
{
"Name": "Carmona",
"Code": "50901",
"Places": [
{
"Name": "Carmona",
"PostCode": "50901",
"Latitude": 9.9889,
"Longitude": -85.2599
}
]
},
{
"Name": "Santa Rita",
"Code": "50902",
"Places": [
{
"Name": "Santa Rita",
"PostCode": "50902",
"Latitude": 10.0392,
"Longitude": -85.2838
}
]
},
{
"Name": "Zapotal",
"Code": "50903",
"Places": [
{
"Name": "Zapotal",
"PostCode": "50903",
"Latitude": 9.9959,
"Longitude": -85.3018
}
]
},
{
"Name": "San Pablo",
"Code": "50904",
"Places": [
{
"Name": "San Pablo",
"PostCode": "50904",
"Latitude": 10.018,
"Longitude": -85.203
}
]
},
{
"Name": "Porvenir",
"Code": "50905",
"Places": [
{
"Name": "Porvenir",
"PostCode": "50905",
"Latitude": 9.9168,
"Longitude": -85.2797
}
]
},
{
"Name": "Bejuco",
"Code": "50906",
"Places": [
{
"Name": "Bejuco",
"PostCode": "50906",
"Latitude": 9.8379,
"Longitude": -85.2755
}
]
}
]
},
{
"Name": "La Cruz",
"Code": "510",
"Communities": [
{
"Name": "La Cruz",
"Code": "51001",
"Places": [
{
"Name": "La Cruz",
"PostCode": "51001",
"Latitude": 11.0704,
"Longitude": -85.6213
}
]
},
{
"Name": "Santa Cecilia",
"Code": "51002",
"Places": [
{
"Name": "Santa Cecilia",
"PostCode": "51002",
"Latitude": 11.0489,
"Longitude": -85.372
}
]
},
{
"Name": "La Garita",
"Code": "51003",
"Places": [
{
"Name": "La Garita",
"PostCode": "51003",
"Latitude": 11.0739,
"Longitude": -85.5076
}
]
},
{
"Name": "Santa Elena",
"Code": "51004",
"Places": [
{
"Name": "Santa Elena",
"PostCode": "51004",
"Latitude": 10.8938,
"Longitude": -85.6968
}
]
}
]
},
{
"Name": "Hojancha",
"Code": "511",
"Communities": [
{
"Name": "Hojancha",
"Code": "51101",
"Places": [
{
"Name": "Hojancha",
"PostCode": "51101",
"Latitude": 10.0452,
"Longitude": -85.4257
}
]
},
{
"Name": "Monte Romo",
"Code": "51102",
"Places": [
{
"Name": "Monte Romo",
"PostCode": "51102",
"Latitude": 9.9645,
"Longitude": -85.3892
}
]
},
{
"Name": "Puerto Carrillo",
"Code": "51103",
"Places": [
{
"Name": "Puerto Carrillo",
"PostCode": "51103",
"Latitude": 9.9277,
"Longitude": -85.4478
}
]
},
{
"Name": "Huacas",
"Code": "51104",
"Places": [
{
"Name": "Huacas",
"PostCode": "51104",
"Latitude": 10.0303,
"Longitude": -85.3614
}
]
}
]
}
]
},
{
"Name": "Provincia de Heredia",
"Code": "04",
"Provinces": [
{
"Name": "Heredia",
"Code": "401",
"Communities": [
{
"Name": "Heredia",
"Code": "40101",
"Places": [
{
"Name": "Heredia",
"PostCode": "40101",
"Latitude": 9.9981,
"Longitude": -84.117
}
]
},
{
"Name": "Mercedes",
"Code": "40102",
"Places": [
{
"Name": "Mercedes",
"PostCode": "40102",
"Latitude": 10.0052,
"Longitude": -84.1318
}
]
},
{
"Name": "San Francisco",
"Code": "40103",
"Places": [
{
"Name": "San Francisco",
"PostCode": "40103",
"Latitude": 9.9925,
"Longitude": -84.1312
}
]
},
{
"Name": "Ulloa",
"Code": "40104",
"Places": [
{
"Name": "Ulloa",
"PostCode": "40104",
"Latitude": 9.9762,
"Longitude": -84.1366
}
]
},
{
"Name": "Varablanca",
"Code": "40105",
"Places": [
{
"Name": "Varablanca",
"PostCode": "40105",
"Latitude": 10.1654,
"Longitude": -84.069
}
]
}
]
},
{
"Name": "Barva",
"Code": "402",
"Communities": [
{
"Name": "Barva",
"Code": "40201",
"Places": [
{
"Name": "Barva",
"PostCode": "40201",
"Latitude": 10.0204,
"Longitude": -84.1236
}
]
},
{
"Name": "San Pedro",
"Code": "40202",
"Places": [
{
"Name": "San Pedro",
"PostCode": "40202",
"Latitude": 10.0435,
"Longitude": -84.1316
}
]
},
{
"Name": "San Pablo",
"Code": "40203",
"Places": [
{
"Name": "San Pablo",
"PostCode": "40203",
"Latitude": 10.0421,
"Longitude": -84.1145
}
]
},
{
"Name": "San Roque",
"Code": "40204",
"Places": [
{
"Name": "San Roque",
"PostCode": "40204",
"Latitude": 10.0153,
"Longitude": -84.1367
}
]
},
{
"Name": "Santa Lucía",
"Code": "40205",
"Places": [
{
"Name": "Santa Lucía",
"PostCode": "40205",
"Latitude": 10.0237,
"Longitude": -84.1129
}
]
},
{
"Name": "San José de la Montaña",
"Code": "40206",
"Places": [
{
"Name": "San José de la Montaña",
"PostCode": "40206",
"Latitude": 10.0955,
"Longitude": -84.1106
}
]
}
]
},
{
"Name": "Santo Domingo",
"Code": "403",
"Communities": [
{
"Name": "Santo Domingo",
"Code": "40301",
"Places": [
{
"Name": "Santo Domingo",
"PostCode": "40301",
"Latitude": 9.9798,
"Longitude": -84.0908
}
]
},
{
"Name": "San Vicente",
"Code": "40302",
"Places": [
{
"Name": "San Vicente",
"PostCode": "40302",
"Latitude": 9.9899,
"Longitude": -84.08
}
]
},
{
"Name": "San Miguel",
"Code": "40303",
"Places": [
{
"Name": "San Miguel",
"PostCode": "40303",
"Latitude": 9.9812,
"Longitude": -84.0549
}
]
},
{
"Name": "Paracito",
"Code": "40304",
"Places": [
{
"Name": "Paracito",
"PostCode": "40304",
"Latitude": 10.0004,
"Longitude": -84.0273
}
]
},
{
"Name": "Santo Tomás",
"Code": "40305",
"Places": [
{
"Name": "Santo Tomás",
"PostCode": "40305",
"Latitude": 9.9795,
"Longitude": -84.0763
}
]
},
{
"Name": "Santa Rosa",
"Code": "40306",
"Places": [
{
"Name": "Santa Rosa",
"PostCode": "40306",
"Latitude": 9.9707,
"Longitude": -84.1002
}
]
},
{
"Name": "Tures",
"Code": "40307",
"Places": [
{
"Name": "Tures",
"PostCode": "40307",
"Latitude": 9.9933,
"Longitude": -84.0568
}
]
},
{
"Name": "Pará",
"Code": "40308",
"Places": [
{
"Name": "Pará",
"PostCode": "40308",
"Latitude": 10.0048,
"Longitude": -84.0346
}
]
}
]
},
{
"Name": "Santa Bárbara",
"Code": "404",
"Communities": [
{
"Name": "Santa Bárbara",
"Code": "40401",
"Places": [
{
"Name": "Santa Bárbara",
"PostCode": "40401",
"Latitude": 10.0376,
"Longitude": -84.1587
}
]
},
{
"Name": "San Pedro",
"Code": "40402",
"Places": [
{
"Name": "San Pedro",
"PostCode": "40402",
"Latitude": 10.032,
"Longitude": -84.1682
}
]
},
{
"Name": "San Juan",
"Code": "40403",
"Places": [
{
"Name": "San Juan",
"PostCode": "40403",
"Latitude": 10.0213,
"Longitude": -84.159
}
]
},
{
"Name": "Jesús",
"Code": "40404",
"Places": [
{
"Name": "Jesús",
"PostCode": "40404",
"Latitude": 10.0573,
"Longitude": -84.1426
}
]
},
{
"Name": "Santo Domingo",
"Code": "40405",
"Places": [
{
"Name": "Santo Domingo",
"PostCode": "40405",
"Latitude": 10.113,
"Longitude": -84.1485
}
]
},
{
"Name": "Purabá",
"Code": "40406",
"Places": [
{
"Name": "Purabá",
"PostCode": "40406",
"Latitude": 10.0647,
"Longitude": -84.1543
}
]
}
]
},
{
"Name": "San Rafael",
"Code": "405",
"Communities": [
{
"Name": "San Rafael",
"Code": "40501",
"Places": [
{
"Name": "San Rafael",
"PostCode": "40501",
"Latitude": 10.0161,
"Longitude": -84.0994
}
]
},
{
"Name": "San Josecito",
"Code": "40502",
"Places": [
{
"Name": "San Josecito",
"PostCode": "40502",
"Latitude": 10.0113,
"Longitude": -84.1113
}
]
},
{
"Name": "Santiago",
"Code": "40503",
"Places": [
{
"Name": "Santiago",
"PostCode": "40503",
"Latitude": 10.0068,
"Longitude": -84.1008
}
]
},
{
"Name": "Ángeles",
"Code": "40504",
"Places": [
{
"Name": "Ángeles",
"PostCode": "40504",
"Latitude": 10.06,
"Longitude": -84.0874
}
]
},
{
"Name": "Concepción",
"Code": "40505",
"Places": [
{
"Name": "Concepción",
"PostCode": "40505",
"Latitude": 10.0442,
"Longitude": -84.0664
}
]
}
]
},
{
"Name": "San Isidro",
"Code": "406",
"Communities": [
{
"Name": "San Isidro",
"Code": "40601",
"Places": [
{
"Name": "San Isidro",
"PostCode": "40601",
"Latitude": 10.0125,
"Longitude": -84.0533
}
]
},
{
"Name": "San José",
"Code": "40602",
"Places": [
{
"Name": "San José",
"PostCode": "40602",
"Latitude": 10.0293,
"Longitude": -84.0275
}
]
},
{
"Name": "Concepción",
"Code": "40603",
"Places": [
{
"Name": "Concepción",
"PostCode": "40603",
"Latitude": 10.0416,
"Longitude": -84.0394
}
]
},
{
"Name": "San Francisco",
"Code": "40604",
"Places": [
{
"Name": "San Francisco",
"PostCode": "40604",
"Latitude": 10.0091,
"Longitude": -84.0661
}
]
}
]
},
{
"Name": "Belén",
"Code": "407",
"Communities": [
{
"Name": "San Antonio",
"Code": "40701",
"Places": [
{
"Name": "San Antonio",
"PostCode": "40701",
"Latitude": 9.9782,
"Longitude": -84.1861
}
]
},
{
"Name": "La Ribera",
"Code": "40702",
"Places": [
{
"Name": "La Ribera",
"PostCode": "40702",
"Latitude": 9.9932,
"Longitude": -84.1815
}
]
},
{
"Name": "La Asunción",
"Code": "40703",
"Places": [
{
"Name": "La Asunción",
"PostCode": "40703",
"Latitude": 9.9778,
"Longitude": -84.1669
}
]
}
]
},
{
"Name": "Flores",
"Code": "408",
"Communities": [
{
"Name": "San Joaquín",
"Code": "40801",
"Places": [
{
"Name": "San Joaquín",
"PostCode": "40801",
"Latitude": 10.0064,
"Longitude": -84.1556
}
]
},
{
"Name": "Barrantes",
"Code": "40802",
"Places": [
{
"Name": "Barrantes",
"PostCode": "40802",
"Latitude": 10.0137,
"Longitude": -84.1518
}
]
},
{
"Name": "Llorente",
"Code": "40803",
"Places": [
{
"Name": "Llorente",
"PostCode": "40803",
"Latitude": 9.9983,
"Longitude": -84.1612
}
]
}
]
},
{
"Name": "San Pablo",
"Code": "409",
"Communities": [
{
"Name": "San Pablo",
"Code": "40901",
"Places": [
{
"Name": "San Pablo",
"PostCode": "40901",
"Latitude": 9.9994,
"Longitude": -84.0905
}
]
},
{
"Name": "Rincón de Sabanilla",
"Code": "40902",
"Places": [
{
"Name": "Rincón de Sabanilla",
"PostCode": "40902",
"Latitude": 9.9838,
"Longitude": -84.1048
}
]
}
]
},
{
"Name": "Sarapiquí",
"Code": "410",
"Communities": [
{
"Name": "Puerto Viejo",
"Code": "41001",
"Places": [
{
"Name": "Puerto Viejo",
"PostCode": "41001",
"Latitude": 10.4609,
"Longitude": -84.0052
}
]
},
{
"Name": "La Virgen",
"Code": "41002",
"Places": [
{
"Name": "La Virgen",
"PostCode": "41002",
"Latitude": 10.4385,
"Longitude": -84.0914
}
]
},
{
"Name": "Las Horquetas",
"Code": "41003",
"Places": [
{
"Name": "Las Horquetas",
"PostCode": "41003",
"Latitude": 10.3132,
"Longitude": -83.9572
}
]
},
{
"Name": "Llanuras del Gaspar",
"Code": "41004",
"Places": [
{
"Name": "Llanuras del Gaspar",
"PostCode": "41004",
"Latitude": 10.6766,
"Longitude": -83.8432
}
]
},
{
"Name": "Cureña",
"Code": "41005",
"Places": [
{
"Name": "Cureña",
"PostCode": "41005",
"Latitude": 10.6906,
"Longitude": -84.0753
}
]
}
]
}
]
},
{
"Name": "Provincia de Limón",
"Code": "06",
"Provinces": [
{
"Name": "Limón",
"Code": "701",
"Communities": [
{
"Name": "Limón",
"Code": "70101",
"Places": [
{
"Name": "Limón",
"PostCode": "70101",
"Latitude": 9.9803,
"Longitude": -83.0708
}
]
},
{
"Name": "Valle La Estrella",
"Code": "70102",
"Places": [
{
"Name": "Valle La Estrella",
"PostCode": "70102",
"Latitude": 9.7151,
"Longitude": -83.1652
}
]
},
{
"Name": "Río Blanco",
"Code": "70103",
"Places": [
{
"Name": "Río Blanco",
"PostCode": "70103",
"Latitude": 9.9754,
"Longitude": -83.1565
}
]
},
{
"Name": "Matama",
"Code": "70104",
"Places": [
{
"Name": "Matama",
"PostCode": "70104",
"Latitude": 9.869,
"Longitude": -83.1211
}
]
}
]
},
{
"Name": "Pococí",
"Code": "702",
"Communities": [
{
"Name": "Guápiles",
"Code": "70201",
"Places": [
{
"Name": "Guápiles",
"PostCode": "70201",
"Latitude": 10.1917,
"Longitude": -83.8467
}
]
},
{
"Name": "Jiménez",
"Code": "70202",
"Places": [
{
"Name": "Jiménez",
"PostCode": "70202",
"Latitude": 10.1869,
"Longitude": -83.7573
}
]
},
{
"Name": "Rita",
"Code": "70203",
"Places": [
{
"Name": "Rita",
"PostCode": "70203",
"Latitude": 10.4626,
"Longitude": -83.7753
}
]
},
{
"Name": "Roxana",
"Code": "70204",
"Places": [
{
"Name": "Roxana",
"PostCode": "70204",
"Latitude": 10.3665,
"Longitude": -83.6588
}
]
},
{
"Name": "Cariari",
"Code": "70205",
"Places": [
{
"Name": "Cariari",
"PostCode": "70205",
"Latitude": 10.4312,
"Longitude": -83.6804
}
]
},
{
"Name": "Colorado",
"Code": "70206",
"Places": [
{
"Name": "Colorado",
"PostCode": "70206",
"Latitude": 10.575,
"Longitude": -83.5943
}
]
}
]
},
{
"Name": "Siquirres",
"Code": "703",
"Communities": [
{
"Name": "Siquirres",
"Code": "70301",
"Places": [
{
"Name": "Siquirres",
"PostCode": "70301",
"Latitude": 10.1589,
"Longitude": -83.4546
}
]
},
{
"Name": "Pacuarito",
"Code": "70302",
"Places": [
{
"Name": "Pacuarito",
"PostCode": "70302",
"Latitude": 10.1031,
"Longitude": -83.4211
}
]
},
{
"Name": "Florida",
"Code": "70303",
"Places": [
{
"Name": "Florida",
"PostCode": "70303",
"Latitude": 10.0437,
"Longitude": -83.6261
}
]
},
{
"Name": "Germania",
"Code": "70304",
"Places": [
{
"Name": "Germania",
"PostCode": "70304",
"Latitude": 10.1649,
"Longitude": -83.5643
}
]
},
{
"Name": "El Cairo",
"Code": "70305",
"Places": [
{
"Name": "El Cairo",
"PostCode": "70305",
"Latitude": 10.2005,
"Longitude": -83.5076
}
]
},
{
"Name": "Alegría",
"Code": "70306",
"Places": [
{
"Name": "Alegría",
"PostCode": "70306",
"Latitude": 10.1168,
"Longitude": -83.5913
}
]
}
]
},
{
"Name": "Talamanca",
"Code": "704",
"Communities": [
{
"Name": "Bratsi",
"Code": "70401",
"Places": [
{
"Name": "Bratsi",
"PostCode": "70401",
"Latitude": 9.6054,
"Longitude": -82.9595
}
]
},
{
"Name": "Sixaola",
"Code": "70402",
"Places": [
{
"Name": "Sixaola",
"PostCode": "70402",
"Latitude": 9.5628,
"Longitude": -82.6645
}
]
},
{
"Name": "Cahuita",
"Code": "70403",
"Places": [
{
"Name": "Cahuita",
"PostCode": "70403",
"Latitude": 9.669,
"Longitude": -82.8046
}
]
},
{
"Name": "Telire",
"Code": "70404",
"Places": [
{
"Name": "Telire",
"PostCode": "70404",
"Latitude": 9.4392,
"Longitude": -83.1596
}
]
}
]
},
{
"Name": "Matina",
"Code": "705",
"Communities": [
{
"Name": "Matina",
"Code": "70501",
"Places": [
{
"Name": "Matina",
"PostCode": "70501",
"Latitude": 9.9618,
"Longitude": -83.2933
}
]
},
{
"Name": "Batán",
"Code": "70502",
"Places": [
{
"Name": "Batán",
"PostCode": "70502",
"Latitude": 10.0929,
"Longitude": -83.3516
}
]
},
{
"Name": "Carrandi",
"Code": "70503",
"Places": [
{
"Name": "Carrandi",
"PostCode": "70503",
"Latitude": 10.0295,
"Longitude": -83.2289
}
]
}
]
},
{
"Name": "Guácimo",
"Code": "706",
"Communities": [
{
"Name": "Guácimo",
"Code": "70601",
"Places": [
{
"Name": "Guácimo",
"PostCode": "70601",
"Latitude": 10.175,
"Longitude": -83.7034
}
]
},
{
"Name": "Mercedes",
"Code": "70602",
"Places": [
{
"Name": "Mercedes",
"PostCode": "70602",
"Latitude": 10.1401,
"Longitude": -83.6549
}
]
},
{
"Name": "Pocora",
"Code": "70603",
"Places": [
{
"Name": "Pocora",
"PostCode": "70603",
"Latitude": 10.134,
"Longitude": -83.6222
}
]
},
{
"Name": "Río Jiménez",
"Code": "70604",
"Places": [
{
"Name": "Río Jiménez",
"PostCode": "70604",
"Latitude": 10.2613,
"Longitude": -83.5624
}
]
},
{
"Name": "Duacarí",
"Code": "70605",
"Places": [
{
"Name": "Duacarí",
"PostCode": "70605",
"Latitude": 10.3214,
"Longitude": -83.6171
}
]
}
]
}
]
},
{
"Name": "Provincia de Puntarenas",
"Code": "07",
"Provinces": [
{
"Name": "Puntarenas",
"Code": "601",
"Communities": [
{
"Name": "Puntarenas",
"Code": "60101",
"Places": [
{
"Name": "Puntarenas",
"PostCode": "60101",
"Latitude": 9.978,
"Longitude": -84.8344
}
]
},
{
"Name": "Pitahaya",
"Code": "60102",
"Places": [
{
"Name": "Pitahaya",
"PostCode": "60102",
"Latitude": 10.0432,
"Longitude": -84.8304
}
]
},
{
"Name": "Chomes",
"Code": "60103",
"Places": [
{
"Name": "Chomes",
"PostCode": "60103",
"Latitude": 10.0951,
"Longitude": -84.9103
}
]
},
{
"Name": "Lepanto",
"Code": "60104",
"Places": [
{
"Name": "Lepanto",
"PostCode": "60104",
"Latitude": 9.9023,
"Longitude": -85.1297
}
]
},
{
"Name": "Paquera",
"Code": "60105",
"Places": [
{
"Name": "Paquera",
"PostCode": "60105",
"Latitude": 9.8199,
"Longitude": -84.9923
}
]
},
{
"Name": "Manzanillo",
"Code": "60106",
"Places": [
{
"Name": "Manzanillo",
"PostCode": "60106",
"Latitude": 10.1408,
"Longitude": -85.012
}
]
},
{
"Name": "Guacimal",
"Code": "60107",
"Places": [
{
"Name": "Guacimal",
"PostCode": "60107",
"Latitude": 10.2191,
"Longitude": -84.831
}
]
},
{
"Name": "Barranca",
"Code": "60108",
"Places": [
{
"Name": "Barranca",
"PostCode": "60108",
"Latitude": 10.0071,
"Longitude": -84.7079
}
]
},
{
"Name": "Monte Verde",
"Code": "60109",
"Places": [
{
"Name": "Monte Verde",
"PostCode": "60109",
"Latitude": 10.2914,
"Longitude": -84.8248
}
]
},
{
"Name": "Isla Del Coco",
"Code": "60110",
"Places": [
{
"Name": "Isla Del Coco",
"PostCode": "60110",
"Latitude": 5.5287,
"Longitude": -87.0614
}
]
},
{
"Name": "Cóbano",
"Code": "60111",
"Places": [
{
"Name": "Cóbano",
"PostCode": "60111",
"Latitude": 9.6951,
"Longitude": -85.1247
}
]
},
{
"Name": "Chacarita",
"Code": "60112",
"Places": [
{
"Name": "Chacarita",
"PostCode": "60112",
"Latitude": 9.9843,
"Longitude": -84.769
}
]
},
{
"Name": "Chira",
"Code": "60113",
"Places": [
{
"Name": "Chira",
"PostCode": "60113",
"Latitude": 10.0988,
"Longitude": -85.151
}
]
},
{
"Name": "Acapulco",
"Code": "60114",
"Places": [
{
"Name": "Acapulco",
"PostCode": "60114",
"Latitude": 10.1618,
"Longitude": -84.8064
}
]
},
{
"Name": "El Roble",
"Code": "60115",
"Places": [
{
"Name": "El Roble",
"PostCode": "60115",
"Latitude": 9.9827,
"Longitude": -84.7419
}
]
},
{
"Name": "Arancibia",
"Code": "60116",
"Places": [
{
"Name": "Arancibia",
"PostCode": "60116",
"Latitude": 10.2312,
"Longitude": -84.7184
}
]
}
]
},
{
"Name": "Esparza",
"Code": "602",
"Communities": [
{
"Name": "Espíritu Santo",
"Code": "60201",
"Places": [
{
"Name": "Espíritu Santo",
"PostCode": "60201",
"Latitude": 9.9682,
"Longitude": -84.6977
}
]
},
{
"Name": "San Juan Grande",
"Code": "60202",
"Places": [
{
"Name": "San Juan Grande",
"PostCode": "60202",
"Latitude": 9.9313,
"Longitude": -84.6793
}
]
},
{
"Name": "Macacona",
"Code": "60203",
"Places": [
{
"Name": "Macacona",
"PostCode": "60203",
"Latitude": 10.0138,
"Longitude": -84.6162
}
]
},
{
"Name": "San Rafael",
"Code": "60204",
"Places": [
{
"Name": "San Rafael",
"PostCode": "60204",
"Latitude": 9.981,
"Longitude": -84.6013
}
]
},
{
"Name": "San Jerónimo",
"Code": "60205",
"Places": [
{
"Name": "San Jerónimo",
"PostCode": "60205",
"Latitude": 10.0634,
"Longitude": -84.6562
}
]
}
]
},
{
"Name": "Buenos Aires",
"Code": "603",
"Communities": [
{
"Name": "Buenos Aires",
"Code": "60301",
"Places": [
{
"Name": "Buenos Aires",
"PostCode": "60301",
"Latitude": 9.2025,
"Longitude": -83.2772
}
]
},
{
"Name": "Volcán",
"Code": "60302",
"Places": [
{
"Name": "Volcán",
"PostCode": "60302",
"Latitude": 9.2485,
"Longitude": -83.4508
}
]
},
{
"Name": "Potrero Grande",
"Code": "60303",
"Places": [
{
"Name": "Potrero Grande",
"PostCode": "60303",
"Latitude": 9.1027,
"Longitude": -83.1459
}
]
},
{
"Name": "Boruca",
"Code": "60304",
"Places": [
{
"Name": "Boruca",
"PostCode": "60304",
"Latitude": 9.0109,
"Longitude": -83.3253
}
]
},
{
"Name": "Pilas",
"Code": "60305",
"Places": [
{
"Name": "Pilas",
"PostCode": "60305",
"Latitude": 9.0929,
"Longitude": -83.4233
}
]
},
{
"Name": "Colinas",
"Code": "60306",
"Places": [
{
"Name": "Colinas",
"PostCode": "60306",
"Latitude": 9.0351,
"Longitude": -83.4536
}
]
},
{
"Name": "Chánguena",
"Code": "60307",
"Places": [
{
"Name": "Chánguena",
"PostCode": "60307",
"Latitude": 8.8916,
"Longitude": -83.1808
}
]
},
{
"Name": "Biolley",
"Code": "60308",
"Places": [
{
"Name": "Biolley",
"PostCode": "60308",
"Latitude": 9.0454,
"Longitude": -83.0362
}
]
},
{
"Name": "Brunka",
"Code": "60309",
"Places": [
{
"Name": "Brunka",
"PostCode": "60309",
"Latitude": 9.2361,
"Longitude": -83.3825
}
]
}
]
},
{
"Name": "Montes de Oro",
"Code": "604",
"Communities": [
{
"Name": "Miramar",
"Code": "60401",
"Places": [
{
"Name": "Miramar",
"PostCode": "60401",
"Latitude": 10.1124,
"Longitude": -84.7394
}
]
},
{
"Name": "La Unión",
"Code": "60402",
"Places": [
{
"Name": "La Unión",
"PostCode": "60402",
"Latitude": 10.1909,
"Longitude": -84.7058
}
]
},
{
"Name": "San Isidro",
"Code": "60403",
"Places": [
{
"Name": "San Isidro",
"PostCode": "60403",
"Latitude": 10.053,
"Longitude": -84.7213
}
]
}
]
},
{
"Name": "Osa",
"Code": "605",
"Communities": [
{
"Name": "Puerto Cortés",
"Code": "60501",
"Places": [
{
"Name": "Puerto Cortés",
"PostCode": "60501",
"Latitude": 9.0226,
"Longitude": -83.5767
}
]
},
{
"Name": "Palmar",
"Code": "60502",
"Places": [
{
"Name": "Palmar",
"PostCode": "60502",
"Latitude": 8.95,
"Longitude": -83.43
}
]
},
{
"Name": "Sierpe",
"Code": "60503",
"Places": [
{
"Name": "Sierpe",
"PostCode": "60503",
"Latitude": 8.75,
"Longitude": -83.5377
}
]
},
{
"Name": "Bahía Ballena",
"Code": "60504",
"Places": [
{
"Name": "Bahía Ballena",
"PostCode": "60504",
"Latitude": 9.1755,
"Longitude": -83.7266
}
]
},
{
"Name": "Piedras Blancas",
"Code": "60505",
"Places": [
{
"Name": "Piedras Blancas",
"PostCode": "60505",
"Latitude": 8.8142,
"Longitude": -83.2633
}
]
}
]
},
{
"Name": "Quepos",
"Code": "606",
"Communities": [
{
"Name": "Quepos",
"Code": "60601",
"Places": [
{
"Name": "Quepos",
"PostCode": "60601",
"Latitude": 9.4596,
"Longitude": -84.1376
}
]
},
{
"Name": "Savegre",
"Code": "60602",
"Places": [
{
"Name": "Savegre",
"PostCode": "60602",
"Latitude": 9.3562,
"Longitude": -83.9455
}
]
},
{
"Name": "Naranjito",
"Code": "60603",
"Places": [
{
"Name": "Naranjito",
"PostCode": "60603",
"Latitude": 9.4787,
"Longitude": -84.0812
}
]
}
]
},
{
"Name": "Golfito",
"Code": "607",
"Communities": [
{
"Name": "Golfito",
"Code": "60701",
"Places": [
{
"Name": "Golfito",
"PostCode": "60701",
"Latitude": 8.6542,
"Longitude": -83.1755
}
]
},
{
"Name": "Puerto Jiménez",
"Code": "60702",
"Places": [
{
"Name": "Puerto Jiménez",
"PostCode": "60702",
"Latitude": 8.5182,
"Longitude": -83.4477
}
]
},
{
"Name": "Guaycará",
"Code": "60703",
"Places": [
{
"Name": "Guaycará",
"PostCode": "60703",
"Latitude": 8.7126,
"Longitude": -83.0762
}
]
},
{
"Name": "Pavón",
"Code": "60704",
"Places": [
{
"Name": "Pavón",
"PostCode": "60704",
"Latitude": 8.3834,
"Longitude": -83.0968
}
]
}
]
},
{
"Name": "Coto Brus",
"Code": "608",
"Communities": [
{
"Name": "San Vito",
"Code": "60801",
"Places": [
{
"Name": "San Vito",
"PostCode": "60801",
"Latitude": 8.8653,
"Longitude": -82.95
}
]
},
{
"Name": "Sabalito",
"Code": "60802",
"Places": [
{
"Name": "Sabalito",
"PostCode": "60802",
"Latitude": 8.8165,
"Longitude": -82.9015
}
]
},
{
"Name": "Aguabuena",
"Code": "60803",
"Places": [
{
"Name": "Aguabuena",
"PostCode": "60803",
"Latitude": 8.7379,
"Longitude": -82.945
}
]
},
{
"Name": "Limoncito",
"Code": "60804",
"Places": [
{
"Name": "Limoncito",
"PostCode": "60804",
"Latitude": 8.8464,
"Longitude": -83.0467
}
]
},
{
"Name": "Pittier",
"Code": "60805",
"Places": [
{
"Name": "Pittier",
"PostCode": "60805",
"Latitude": 8.9797,
"Longitude": -82.9593
}
]
}
]
},
{
"Name": "Parrita",
"Code": "609",
"Communities": [
{
"Name": "Parrita",
"Code": "60901",
"Places": [
{
"Name": "Parrita",
"PostCode": "60901",
"Latitude": 9.562,
"Longitude": -84.317
}
]
}
]
},
{
"Name": "Corredores",
"Code": "610",
"Communities": [
{
"Name": "Corredor",
"Code": "61001",
"Places": [
{
"Name": "Corredor",
"PostCode": "61001",
"Latitude": 8.6242,
"Longitude": -82.9438
}
]
},
{
"Name": "La Cuesta",
"Code": "61002",
"Places": [
{
"Name": "La Cuesta",
"PostCode": "61002",
"Latitude": 8.4794,
"Longitude": -82.8681
}
]
},
{
"Name": "Canoas",
"Code": "61003",
"Places": [
{
"Name": "Canoas",
"PostCode": "61003",
"Latitude": 8.5542,
"Longitude": -82.8796
}
]
},
{
"Name": "Laurel",
"Code": "61004",
"Places": [
{
"Name": "Laurel",
"PostCode": "61004",
"Latitude": 8.4499,
"Longitude": -82.9688
}
]
}
]
},
{
"Name": "Garabito",
"Code": "611",
"Communities": [
{
"Name": "Jacó",
"Code": "61101",
"Places": [
{
"Name": "Jacó",
"PostCode": "61101",
"Latitude": 9.6275,
"Longitude": -84.601
}
]
},
{
"Name": "Tárcoles",
"Code": "61102",
"Places": [
{
"Name": "Tárcoles",
"PostCode": "61102",
"Latitude": 9.7868,
"Longitude": -84.6181
}
]
}
]
}
]
},
{
"Name": "Provincia de San José",
"Code": "08",
"Provinces": [
{
"Name": "San José",
"Code": "101",
"Communities": [
{
"Name": "Carmen",
"Code": "10101",
"Places": [
{
"Name": "Carmen",
"PostCode": "10101",
"Latitude": 9.9364,
"Longitude": -84.0693
}
]
},
{
"Name": "Merced",
"Code": "10102",
"Places": [
{
"Name": "Merced",
"PostCode": "10102",
"Latitude": 9.9397,
"Longitude": -84.0884
}
]
},
{
"Name": "Hospital",
"Code": "10103",
"Places": [
{
"Name": "Hospital",
"PostCode": "10103",
"Latitude": 9.9277,
"Longitude": -84.0887
}
]
},
{
"Name": "Catedral",
"Code": "10104",
"Places": [
{
"Name": "Catedral",
"PostCode": "10104",
"Latitude": 9.9262,
"Longitude": -84.0731
}
]
},
{
"Name": "Zapote",
"Code": "10105",
"Places": [
{
"Name": "Zapote",
"PostCode": "10105",
"Latitude": 9.9205,
"Longitude": -84.0598
}
]
},
{
"Name": "San Francisco de Dos Ríos",
"Code": "10106",
"Places": [
{
"Name": "San Francisco de Dos Ríos",
"PostCode": "10106",
"Latitude": 9.9082,
"Longitude": -84.0592
}
]
},
{
"Name": "Uruca",
"Code": "10107",
"Places": [
{
"Name": "Uruca",
"PostCode": "10107",
"Latitude": 9.9567,
"Longitude": -84.1229
}
]
},
{
"Name": "Mata Redonda",
"Code": "10108",
"Places": [
{
"Name": "Mata Redonda",
"PostCode": "10108",
"Latitude": 9.9351,
"Longitude": -84.1073
}
]
},
{
"Name": "Pavas",
"Code": "10109",
"Places": [
{
"Name": "Pavas",
"PostCode": "10109",
"Latitude": 9.9499,
"Longitude": -84.1366
}
]
},
{
"Name": "Hatillo",
"Code": "10110",
"Places": [
{
"Name": "Hatillo",
"PostCode": "10110",
"Latitude": 9.9184,
"Longitude": -84.1025
}
]
},
{
"Name": "San Sebastián",
"Code": "10111",
"Places": [
{
"Name": "San Sebastián",
"PostCode": "10111",
"Latitude": 9.9106,
"Longitude": -84.0823
}
]
}
]
},
{
"Name": "Escazú",
"Code": "102",
"Communities": [
{
"Name": "Escazú",
"Code": "10201",
"Places": [
{
"Name": "Escazú",
"PostCode": "10201",
"Latitude": 9.9183,
"Longitude": -84.1493
}
]
},
{
"Name": "San Antonio",
"Code": "10202",
"Places": [
{
"Name": "San Antonio",
"PostCode": "10202",
"Latitude": 9.894,
"Longitude": -84.14
}
]
},
{
"Name": "San Rafael",
"Code": "10203",
"Places": [
{
"Name": "San Rafael",
"PostCode": "10203",
"Latitude": 9.9405,
"Longitude": -84.1507
}
]
}
]
},
{
"Name": "Desamparados",
"Code": "103",
"Communities": [
{
"Name": "Desamparados",
"Code": "10301",
"Places": [
{
"Name": "Desamparados",
"PostCode": "10301",
"Latitude": 9.8974,
"Longitude": -84.0705
}
]
},
{
"Name": "San Miguel",
"Code": "10302",
"Places": [
{
"Name": "San Miguel",
"PostCode": "10302",
"Latitude": 9.8393,
"Longitude": -84.0517
}
]
},
{
"Name": "San Juan de Dios",
"Code": "10303",
"Places": [
{
"Name": "San Juan de Dios",
"PostCode": "10303",
"Latitude": 9.878,
"Longitude": -84.0886
}
]
},
{
"Name": "San Rafael Arriba",
"Code": "10304",
"Places": [
{
"Name": "San Rafael Arriba",
"PostCode": "10304",
"Latitude": 9.8759,
"Longitude": -84.0735
}
]
},
{
"Name": "San Antonio",
"Code": "10305",
"Places": [
{
"Name": "San Antonio",
"PostCode": "10305",
"Latitude": 9.899,
"Longitude": -84.0464
}
]
},
{
"Name": "Frailes",
"Code": "10306",
"Places": [
{
"Name": "Frailes",
"PostCode": "10306",
"Latitude": 9.7546,
"Longitude": -84.0651
}
]
},
{
"Name": "Patarrá",
"Code": "10307",
"Places": [
{
"Name": "Patarrá",
"PostCode": "10307",
"Latitude": 9.8657,
"Longitude": -84.025
}
]
},
{
"Name": "San Cristóbal",
"Code": "10308",
"Places": [
{
"Name": "San Cristóbal",
"PostCode": "10308",
"Latitude": 9.7544,
"Longitude": -83.9985
}
]
},
{
"Name": "Rosario",
"Code": "10309",
"Places": [
{
"Name": "Rosario",
"PostCode": "10309",
"Latitude": 9.8005,
"Longitude": -84.0856
}
]
},
{
"Name": "Damas",
"Code": "10310",
"Places": [
{
"Name": "Damas",
"PostCode": "10310",
"Latitude": 9.8887,
"Longitude": -84.045
}
]
},
{
"Name": "San Rafael Abajo",
"Code": "10311",
"Places": [
{
"Name": "San Rafael Abajo",
"PostCode": "10311",
"Latitude": 9.8952,
"Longitude": -84.0829
}
]
},
{
"Name": "Gravilias",
"Code": "10312",
"Places": [
{
"Name": "Gravilias",
"PostCode": "10312",
"Latitude": 9.886,
"Longitude": -84.0575
}
]
},
{
"Name": "Los Guido",
"Code": "10313",
"Places": [
{
"Name": "Los Guido",
"PostCode": "10313",
"Latitude": 9.8709,
"Longitude": -84.0483
}
]
}
]
},
{
"Name": "Puriscal",
"Code": "104",
"Communities": [
{
"Name": "Santiago",
"Code": "10401",
"Places": [
{
"Name": "Santiago",
"PostCode": "10401",
"Latitude": 9.8202,
"Longitude": -84.3063
}
]
},
{
"Name": "Mercedes Sur",
"Code": "10402",
"Places": [
{
"Name": "Mercedes Sur",
"PostCode": "10402",
"Latitude": 9.7739,
"Longitude": -84.4098
}
]
},
{
"Name": "Barbacoas",
"Code": "10403",
"Places": [
{
"Name": "Barbacoas",
"PostCode": "10403",
"Latitude": 9.8549,
"Longitude": -84.3625
}
]
},
{
"Name": "Grifo Alto",
"Code": "10404",
"Places": [
{
"Name": "Grifo Alto",
"PostCode": "10404",
"Latitude": 9.8774,
"Longitude": -84.3949
}
]
},
{
"Name": "San Rafael",
"Code": "10405",
"Places": [
{
"Name": "San Rafael",
"PostCode": "10405",
"Latitude": 9.8259,
"Longitude": -84.2783
}
]
},
{
"Name": "Candelarita",
"Code": "10406",
"Places": [
{
"Name": "Candelarita",
"PostCode": "10406",
"Latitude": 9.7895,
"Longitude": -84.3358
}
]
},
{
"Name": "Desamparaditos",
"Code": "10407",
"Places": [
{
"Name": "Desamparaditos",
"PostCode": "10407",
"Latitude": 9.8798,
"Longitude": -84.3407
}
]
},
{
"Name": "San Antonio",
"Code": "10408",
"Places": [
{
"Name": "San Antonio",
"PostCode": "10408",
"Latitude": 9.8636,
"Longitude": -84.3015
}
]
},
{
"Name": "Chires",
"Code": "10409",
"Places": [
{
"Name": "Chires",
"PostCode": "10409",
"Latitude": 9.6576,
"Longitude": -84.4018
}
]
}
]
},
{
"Name": "Tarrazú",
"Code": "105",
"Communities": [
{
"Name": "San Marcos",
"Code": "10501",
"Places": [
{
"Name": "San Marcos",
"PostCode": "10501",
"Latitude": 9.6724,
"Longitude": -84.0048
}
]
},
{
"Name": "San Lorenzo",
"Code": "10502",
"Places": [
{
"Name": "San Lorenzo",
"PostCode": "10502",
"Latitude": 9.5591,
"Longitude": -84.0333
}
]
},
{
"Name": "San Carlos",
"Code": "10503",
"Places": [
{
"Name": "San Carlos",
"PostCode": "10503",
"Latitude": 9.6097,
"Longitude": -84.1129
}
]
}
]
},
{
"Name": "Aserrí",
"Code": "106",
"Communities": [
{
"Name": "Aserrí",
"Code": "10601",
"Places": [
{
"Name": "Aserrí",
"PostCode": "10601",
"Latitude": 9.855,
"Longitude": -84.1084
}
]
},
{
"Name": "Tarbaca",
"Code": "10602",
"Places": [
{
"Name": "Tarbaca",
"PostCode": "10602",
"Latitude": 9.8228,
"Longitude": -84.1179
}
]
},
{
"Name": "Vuelta de Jorco",
"Code": "10603",
"Places": [
{
"Name": "Vuelta de Jorco",
"PostCode": "10603",
"Latitude": 9.7742,
"Longitude": -84.1377
}
]
},
{
"Name": "San Gabriel",
"Code": "10604",
"Places": [
{
"Name": "San Gabriel",
"PostCode": "10604",
"Latitude": 9.7861,
"Longitude": -84.1101
}
]
},
{
"Name": "Legua",
"Code": "10605",
"Places": [
{
"Name": "Legua",
"PostCode": "10605",
"Latitude": 9.6767,
"Longitude": -84.1625
}
]
},
{
"Name": "Monterrey",
"Code": "10606",
"Places": [
{
"Name": "Monterrey",
"PostCode": "10606",
"Latitude": 9.7568,
"Longitude": -84.111
}
]
},
{
"Name": "Salitrillos",
"Code": "10607",
"Places": [
{
"Name": "Salitrillos",
"PostCode": "10607",
"Latitude": 9.8446,
"Longitude": -84.0828
}
]
}
]
},
{
"Name": "Mora",
"Code": "107",
"Communities": [
{
"Name": "Colón",
"Code": "10701",
"Places": [
{
"Name": "Colón",
"PostCode": "10701",
"Latitude": 9.9009,
"Longitude": -84.256
}
]
},
{
"Name": "Guayabo",
"Code": "10702",
"Places": [
{
"Name": "Guayabo",
"PostCode": "10702",
"Latitude": 9.8616,
"Longitude": -84.2639
}
]
},
{
"Name": "Tabarcia",
"Code": "10703",
"Places": [
{
"Name": "Tabarcia",
"PostCode": "10703",
"Latitude": 9.8486,
"Longitude": -84.2192
}
]
},
{
"Name": "Piedras Negras",
"Code": "10704",
"Places": [
{
"Name": "Piedras Negras",
"PostCode": "10704",
"Latitude": 9.8976,
"Longitude": -84.3115
}
]
},
{
"Name": "Picagres",
"Code": "10705",
"Places": [
{
"Name": "Picagres",
"PostCode": "10705",
"Latitude": 9.9094,
"Longitude": -84.371
}
]
}
]
},
{
"Name": "Goicoechea",
"Code": "108",
"Communities": [
{
"Name": "Guadalupe",
"Code": "10801",
"Places": [
{
"Name": "Guadalupe",
"PostCode": "10801",
"Latitude": 9.9486,
"Longitude": -84.0511
}
]
},
{
"Name": "San Francisco",
"Code": "10802",
"Places": [
{
"Name": "San Francisco",
"PostCode": "10802",
"Latitude": 9.9417,
"Longitude": -84.0728
}
]
},
{
"Name": "Calle Blancos",
"Code": "10803",
"Places": [
{
"Name": "Calle Blancos",
"PostCode": "10803",
"Latitude": 9.9486,
"Longitude": -84.0667
}
]
},
{
"Name": "Mata de Plátano",
"Code": "10804",
"Places": [
{
"Name": "Mata de Plátano",
"PostCode": "10804",
"Latitude": 9.9552,
"Longitude": -83.9978
}
]
},
{
"Name": "Ipís",
"Code": "10805",
"Places": [
{
"Name": "Ipís",
"PostCode": "10805",
"Latitude": 9.9645,
"Longitude": -84.0197
}
]
},
{
"Name": "Rancho Redondo",
"Code": "10806",
"Places": [
{
"Name": "Rancho Redondo",
"PostCode": "10806",
"Latitude": 9.9631,
"Longitude": -83.9418
}
]
},
{
"Name": "Purral",
"Code": "10807",
"Places": [
{
"Name": "Purral",
"PostCode": "10807",
"Latitude": 9.9593,
"Longitude": -84.0181
}
]
}
]
},
{
"Name": "Santa Ana",
"Code": "109",
"Communities": [
{
"Name": "Santa Ana",
"Code": "10901",
"Places": [
{
"Name": "Santa Ana",
"PostCode": "10901",
"Latitude": 9.931,
"Longitude": -84.1759
}
]
},
{
"Name": "Salitral",
"Code": "10902",
"Places": [
{
"Name": "Salitral",
"PostCode": "10902",
"Latitude": 9.8922,
"Longitude": -84.1705
}
]
},
{
"Name": "Pozos",
"Code": "10903",
"Places": [
{
"Name": "Pozos",
"PostCode": "10903",
"Latitude": 9.9526,
"Longitude": -84.1919
}
]
},
{
"Name": "Uruca",
"Code": "10904",
"Places": [
{
"Name": "Uruca",
"PostCode": "10904",
"Latitude": 9.9269,
"Longitude": -84.1952
}
]
},
{
"Name": "Piedades",
"Code": "10905",
"Places": [
{
"Name": "Piedades",
"PostCode": "10905",
"Latitude": 9.9174,
"Longitude": -84.208
}
]
},
{
"Name": "Brasil",
"Code": "10906",
"Places": [
{
"Name": "Brasil",
"PostCode": "10906",
"Latitude": 9.9388,
"Longitude": -84.2289
}
]
}
]
},
{
"Name": "Alajuelita",
"Code": "110",
"Communities": [
{
"Name": "Alajuelita",
"Code": "11001",
"Places": [
{
"Name": "Alajuelita",
"PostCode": "11001",
"Latitude": 9.9029,
"Longitude": -84.1004
}
]
},
{
"Name": "San Josecito",
"Code": "11002",
"Places": [
{
"Name": "San Josecito",
"PostCode": "11002",
"Latitude": 9.8897,
"Longitude": -84.1043
}
]
},
{
"Name": "San Antonio",
"Code": "11003",
"Places": [
{
"Name": "San Antonio",
"PostCode": "11003",
"Latitude": 9.874,
"Longitude": -84.1238
}
]
},
{
"Name": "Concepción",
"Code": "11004",
"Places": [
{
"Name": "Concepción",
"PostCode": "11004",
"Latitude": 9.8896,
"Longitude": -84.093
}
]
},
{
"Name": "San Felipe",
"Code": "11005",
"Places": [
{
"Name": "San Felipe",
"PostCode": "11005",
"Latitude": 9.9093,
"Longitude": -84.1149
}
]
}
]
},
{
"Name": "Vázquez de Coronado",
"Code": "111",
"Communities": [
{
"Name": "San Isidro",
"Code": "11101",
"Places": [
{
"Name": "San Isidro",
"PostCode": "11101",
"Latitude": 9.9726,
"Longitude": -83.9922
}
]
},
{
"Name": "San Rafael",
"Code": "11102",
"Places": [
{
"Name": "San Rafael",
"PostCode": "11102",
"Latitude": 9.9785,
"Longitude": -83.9515
}
]
},
{
"Name": "Dulce Nombre de Jesús",
"Code": "11103",
"Places": [
{
"Name": "Dulce Nombre de Jesús",
"PostCode": "11103",
"Latitude": 10.0889,
"Longitude": -83.9798
}
]
},
{
"Name": "Patalillo",
"Code": "11104",
"Places": [
{
"Name": "Patalillo",
"PostCode": "11104",
"Latitude": 9.9747,
"Longitude": -84.0223
}
]
},
{
"Name": "Cascajal",
"Code": "11105",
"Places": [
{
"Name": "Cascajal",
"PostCode": "11105",
"Latitude": 10.0324,
"Longitude": -83.9289
}
]
}
]
},
{
"Name": "Acosta",
"Code": "112",
"Communities": [
{
"Name": "San Ignacio",
"Code": "11201",
"Places": [
{
"Name": "San Ignacio",
"PostCode": "11201",
"Latitude": 9.7993,
"Longitude": -84.1632
}
]
},
{
"Name": "Guaitil",
"Code": "11202",
"Places": [
{
"Name": "Guaitil",
"PostCode": "11202",
"Latitude": 9.7895,
"Longitude": -84.2375
}
]
},
{
"Name": "Palmichal",
"Code": "11203",
"Places": [
{
"Name": "Palmichal",
"PostCode": "11203",
"Latitude": 9.8336,
"Longitude": -84.177
}
]
},
{
"Name": "Cangrejal",
"Code": "11204",
"Places": [
{
"Name": "Cangrejal",
"PostCode": "11204",
"Latitude": 9.7439,
"Longitude": -84.1898
}
]
},
{
"Name": "Sabanillas",
"Code": "11205",
"Places": [
{
"Name": "Sabanillas",
"PostCode": "11205",
"Latitude": 9.702,
"Longitude": -84.2647
}
]
}
]
},
{
"Name": "Tibás",
"Code": "113",
"Communities": [
{
"Name": "San Juan",
"Code": "11301",
"Places": [
{
"Name": "San Juan",
"PostCode": "11301",
"Latitude": 9.9634,
"Longitude": -84.076
}
]
},
{
"Name": "Cinco Esquinas",
"Code": "11302",
"Places": [
{
"Name": "Cinco Esquinas",
"PostCode": "11302",
"Latitude": 9.9465,
"Longitude": -84.0823
}
]
},
{
"Name": "Anselmo Llorente",
"Code": "11303",
"Places": [
{
"Name": "Anselmo Llorente",
"PostCode": "11303",
"Latitude": 9.9567,
"Longitude": -84.0704
}
]
},
{
"Name": "León XIII",
"Code": "11304",
"Places": [
{
"Name": "León XIII",
"PostCode": "11304",
"Latitude": 9.9599,
"Longitude": -84.1007
}
]
},
{
"Name": "Colima",
"Code": "11305",
"Places": [
{
"Name": "Colima",
"PostCode": "11305",
"Latitude": 9.9554,
"Longitude": -84.0891
}
]
}
]
},
{
"Name": "Moravia",
"Code": "114",
"Communities": [
{
"Name": "San Vicente",
"Code": "11401",
"Places": [
{
"Name": "San Vicente",
"PostCode": "11401",
"Latitude": 9.9636,
"Longitude": -84.0486
}
]
},
{
"Name": "San Jerónimo",
"Code": "11402",
"Places": [
{
"Name": "San Jerónimo",
"PostCode": "11402",
"Latitude": 10.0313,
"Longitude": -84.0055
}
]
},
{
"Name": "La Trinidad",
"Code": "11403",
"Places": [
{
"Name": "La Trinidad",
"PostCode": "11403",
"Latitude": 9.9809,
"Longitude": -84.0342
}
]
}
]
},
{
"Name": "Montes de Oca",
"Code": "115",
"Communities": [
{
"Name": "San Pedro",
"Code": "11501",
"Places": [
{
"Name": "San Pedro",
"PostCode": "11501",
"Latitude": 9.9337,
"Longitude": -84.046
}
]
},
{
"Name": "Sabanilla",
"Code": "11502",
"Places": [
{
"Name": "Sabanilla",
"PostCode": "11502",
"Latitude": 9.9442,
"Longitude": -84.0319
}
]
},
{
"Name": "Mercedes",
"Code": "11503",
"Places": [
{
"Name": "Mercedes",
"PostCode": "11503",
"Latitude": 9.9424,
"Longitude": -84.0489
}
]
},
{
"Name": "San Rafael",
"Code": "11504",
"Places": [
{
"Name": "San Rafael",
"PostCode": "11504",
"Latitude": 9.9465,
"Longitude": -83.9934
}
]
}
]
},
{
"Name": "Turrubares",
"Code": "116",
"Communities": [
{
"Name": "San Pablo",
"Code": "11601",
"Places": [
{
"Name": "San Pablo",
"PostCode": "11601",
"Latitude": 9.9073,
"Longitude": -84.4508
}
]
},
{
"Name": "San Pedro",
"Code": "11602",
"Places": [
{
"Name": "San Pedro",
"PostCode": "11602",
"Latitude": 9.8751,
"Longitude": -84.4491
}
]
},
{
"Name": "San Juan de Mata",
"Code": "11603",
"Places": [
{
"Name": "San Juan de Mata",
"PostCode": "11603",
"Latitude": 9.8242,
"Longitude": -84.5248
}
]
},
{
"Name": "San Luis",
"Code": "11604",
"Places": [
{
"Name": "San Luis",
"PostCode": "11604",
"Latitude": 9.8354,
"Longitude": -84.4664
}
]
},
{
"Name": "Carara",
"Code": "11605",
"Places": [
{
"Name": "Carara",
"PostCode": "11605",
"Latitude": 9.6819,
"Longitude": -84.5245
}
]
}
]
},
{
"Name": "Dota",
"Code": "117",
"Communities": [
{
"Name": "Santa María",
"Code": "11701",
"Places": [
{
"Name": "Santa María",
"PostCode": "11701",
"Latitude": 9.5874,
"Longitude": -83.9699
}
]
},
{
"Name": "Jardín",
"Code": "11702",
"Places": [
{
"Name": "Jardín",
"PostCode": "11702",
"Latitude": 9.6926,
"Longitude": -83.9513
}
]
},
{
"Name": "Copey",
"Code": "11703",
"Places": [
{
"Name": "Copey",
"PostCode": "11703",
"Latitude": 9.5746,
"Longitude": -83.8897
}
]
}
]
},
{
"Name": "Curridabat",
"Code": "118",
"Communities": [
{
"Name": "Curridabat",
"Code": "11801",
"Places": [
{
"Name": "Curridabat",
"PostCode": "11801",
"Latitude": 9.9165,
"Longitude": -84.0374
}
]
},
{
"Name": "Granadilla",
"Code": "11802",
"Places": [
{
"Name": "Granadilla",
"PostCode": "11802",
"Latitude": 9.9311,
"Longitude": -84.0212
}
]
},
{
"Name": "Sánchez",
"Code": "11803",
"Places": [
{
"Name": "Sánchez",
"PostCode": "11803",
"Latitude": 9.9146,
"Longitude": -84.0179
}
]
},
{
"Name": "Tirrases",
"Code": "11804",
"Places": [
{
"Name": "Tirrases",
"PostCode": "11804",
"Latitude": 9.9018,
"Longitude": -84.033
}
]
}
]
},
{
"Name": "Pérez Zeledón",
"Code": "119",
"Communities": [
{
"Name": "San Isidro de El General",
"Code": "11901",
"Places": [
{
"Name": "San Isidro de El General",
"PostCode": "11901",
"Latitude": 9.3215,
"Longitude": -83.7195
}
]
},
{
"Name": "El General",
"Code": "11902",
"Places": [
{
"Name": "El General",
"PostCode": "11902",
"Latitude": 9.3721,
"Longitude": -83.6273
}
]
},
{
"Name": "Daniel Flores",
"Code": "11903",
"Places": [
{
"Name": "Daniel Flores",
"PostCode": "11903",
"Latitude": 9.3014,
"Longitude": -83.6644
}
]
},
{
"Name": "Rivas",
"Code": "11904",
"Places": [
{
"Name": "Rivas",
"PostCode": "11904",
"Latitude": 9.4842,
"Longitude": -83.6045
}
]
},
{
"Name": "San Pedro",
"Code": "11905",
"Places": [
{
"Name": "San Pedro",
"PostCode": "11905",
"Latitude": 9.3267,
"Longitude": -83.5132
}
]
},
{
"Name": "Platanares",
"Code": "11906",
"Places": [
{
"Name": "Platanares",
"PostCode": "11906",
"Latitude": 9.1995,
"Longitude": -83.638
}
]
},
{
"Name": "Pejibaye",
"Code": "11907",
"Places": [
{
"Name": "Pejibaye",
"PostCode": "11907",
"Latitude": 9.1542,
"Longitude": -83.5492
}
]
},
{
"Name": "Cajón",
"Code": "11908",
"Places": [
{
"Name": "Cajón",
"PostCode": "11908",
"Latitude": 9.3312,
"Longitude": -83.5859
}
]
},
{
"Name": "Barú",
"Code": "11909",
"Places": [
{
"Name": "Barú",
"PostCode": "11909",
"Latitude": 9.3199,
"Longitude": -83.8181
}
]
},
{
"Name": "Río Nuevo",
"Code": "11910",
"Places": [
{
"Name": "Río Nuevo",
"PostCode": "11910",
"Latitude": 9.4437,
"Longitude": -83.8622
}
]
},
{
"Name": "Páramo",
"Code": "11911",
"Places": [
{
"Name": "Páramo",
"PostCode": "11911",
"Latitude": 9.4984,
"Longitude": -83.7561
}
]
}
]
},
{
"Name": "León Cortés",
"Code": "120",
"Communities": [
{
"Name": "San Pablo",
"Code": "12001",
"Places": [
{
"Name": "San Pablo",
"PostCode": "12001",
"Latitude": 9.6847,
"Longitude": -84.0464
}
]
},
{
"Name": "San Andrés",
"Code": "12002",
"Places": [
{
"Name": "San Andrés",
"PostCode": "12002",
"Latitude": 9.7223,
"Longitude": -84.0782
}
]
},
{
"Name": "Llano Bonito",
"Code": "12003",
"Places": [
{
"Name": "Llano Bonito",
"PostCode": "12003",
"Latitude": 9.6723,
"Longitude": -84.1177
}
]
},
{
"Name": "San Isidro",
"Code": "12004",
"Places": [
{
"Name": "San Isidro",
"PostCode": "12004",
"Latitude": 9.6771,
"Longitude": -84.082
}
]
},
{
"Name": "Santa Cruz",
"Code": "12005",
"Places": [
{
"Name": "Santa Cruz",
"PostCode": "12005",
"Latitude": 9.7253,
"Longitude": -84.0129
}
]
},
{
"Name": "San Antonio",
"Code": "12006",
"Places": [
{
"Name": "San Antonio",
"PostCode": "12006",
"Latitude": 9.7233,
"Longitude": -84.0521
}
]
}
]
}
]
}
]