[
{
"Provinces": [
{
"Communities": [
{
"Places": [
{
"Name": "Æduvik",
"PostCode": "645",
"Location": {
"Latitude": 62.0667,
"Longitude": -6.6833
}
},
{
"Name": "Akrar",
"PostCode": "927",
"Location": {
"Latitude": 61.45,
"Longitude": -6.75
}
},
{
"Name": "Ánir",
"PostCode": "726",
"Location": {
"Latitude": 62.25,
"Longitude": -6.5667
}
},
{
"Name": "Argir",
"PostCode": "160",
"Location": {
"Latitude": 61.9833,
"Longitude": -6.75
}
},
{
"Name": "Argir",
"PostCode": "165",
"Location": {
"Latitude": 61.9833,
"Longitude": -6.75
}
},
{
"Name": "Árnafjørdur",
"PostCode": "727",
"Location": {
"Latitude": 62.25,
"Longitude": -6.5167
}
},
{
"Name": "Bøur",
"PostCode": "386",
"Location": {
"Latitude": 62.0833,
"Longitude": -7.35
}
},
{
"Name": "Dalur",
"PostCode": "235",
"Location": {
"Latitude": 61.7833,
"Longitude": -6.6667
}
},
{
"Name": "Depil",
"PostCode": "735",
"Location": {
"Latitude": 62.2833,
"Longitude": -6.5167
}
},
{
"Name": "Eidi",
"PostCode": "470",
"Location": {
"Latitude": 62.3,
"Longitude": -7.0833
}
},
{
"Name": "Elduvik",
"PostCode": "478",
"Location": {
"Latitude": 62.2833,
"Longitude": -6.9
}
},
{
"Name": "Fámjin",
"PostCode": "870",
"Location": {
"Latitude": 61.5167,
"Longitude": -6.8667
}
},
{
"Name": "Frodba",
"PostCode": "825",
"Location": {
"Latitude": 61.55,
"Longitude": -6.7667
}
},
{
"Name": "Fuglafjørdur",
"PostCode": "530",
"Location": {
"Latitude": 62.244,
"Longitude": -6.8139
}
},
{
"Name": "Fuglafjørdur",
"PostCode": "535",
"Location": {
"Latitude": 62.244,
"Longitude": -6.8139
}
},
{
"Name": "Funningsfjørdur",
"PostCode": "477",
"Location": {
"Latitude": 62.2333,
"Longitude": -6.9167
}
},
{
"Name": "Funningur",
"PostCode": "475",
"Location": {
"Latitude": 62.2833,
"Longitude": -6.95
}
},
{
"Name": "Gásadalur",
"PostCode": "387",
"Location": {
"Latitude": 62.1167,
"Longitude": -7.4333
}
},
{
"Name": "Gjógv",
"PostCode": "476",
"Location": {
"Latitude": 62.3167,
"Longitude": -6.9333
}
},
{
"Name": "Glyvrar",
"PostCode": "625",
"Location": {
"Latitude": 62.1333,
"Longitude": -6.7167
}
},
{
"Name": "Gøta",
"PostCode": "510",
"Location": {
"Latitude": 62.2,
"Longitude": -6.7333
}
},
{
"Name": "Gøta",
"PostCode": "515",
"Location": {
"Latitude": 62.2,
"Longitude": -6.7333
}
},
{
"Name": "Gøtueidi",
"PostCode": "666",
"Location": {
"Latitude": 62.1833,
"Longitude": -6.7667
}
},
{
"Name": "Gøtugjógv",
"PostCode": "511",
"Location": {
"Latitude": 62.1833,
"Longitude": -6.7333
}
},
{
"Name": "Haldarsvik",
"PostCode": "440",
"Location": {
"Latitude": 62.2833,
"Longitude": -7.0833
}
},
{
"Name": "Haraldssund",
"PostCode": "785",
"Location": {
"Latitude": 62.2667,
"Longitude": -6.6
}
},
{
"Name": "Hattarvik",
"PostCode": "767",
"Location": {
"Latitude": 62.3333,
"Longitude": -6.25
}
},
{
"Name": "Hellur",
"PostCode": "695",
"Location": {
"Latitude": 62.2667,
"Longitude": -6.8333
}
},
{
"Name": "Hestur",
"PostCode": "280",
"Location": {
"Latitude": 61.95,
"Longitude": -6.8667
}
},
{
"Name": "Hósvik",
"PostCode": "420",
"Location": {
"Latitude": 62.15,
"Longitude": -6.9333
}
},
{
"Name": "Hov",
"PostCode": "960",
"Location": {
"Latitude": 61.5167,
"Longitude": -6.7333
}
},
{
"Name": "Hoyvik",
"PostCode": "188",
"Location": {
"Latitude": 62.0341,
"Longitude": -6.7813
}
},
{
"Name": "Húsar",
"PostCode": "796",
"Location": {
"Latitude": 62.2667,
"Longitude": -6.6833
}
},
{
"Name": "Húsavik",
"PostCode": "230",
"Location": {
"Latitude": 61.8,
"Longitude": -6.6667
}
},
{
"Name": "Hvalba",
"PostCode": "850",
"Location": {
"Latitude": 61.6,
"Longitude": -6.95
}
},
{
"Name": "Hvalvik",
"PostCode": "430",
"Location": {
"Latitude": 62.1833,
"Longitude": -7.0167
}
},
{
"Name": "Hvannasund",
"PostCode": "740",
"Location": {
"Latitude": 62.3,
"Longitude": -6.5
}
},
{
"Name": "Hvitanes",
"PostCode": "187",
"Location": {
"Latitude": 62.05,
"Longitude": -6.7667
}
},
{
"Name": "Innan Glyvur",
"PostCode": "494",
"Location": {
"Latitude": 62.1333,
"Longitude": -6.75
}
},
{
"Name": "Kaldbak",
"PostCode": "180",
"Location": {
"Latitude": 62.05,
"Longitude": -6.8167
}
},
{
"Name": "Kaldbaksbotnur",
"PostCode": "185",
"Location": {
"Latitude": 62.046,
"Longitude": -6.7995
}
},
{
"Name": "Kirkja",
"PostCode": "766",
"Location": {
"Latitude": 62.3167,
"Longitude": -6.3
}
},
{
"Name": "Kirkjubøur",
"PostCode": "175",
"Location": {
"Latitude": 61.95,
"Longitude": -6.7833
}
},
{
"Name": "Klaksvik",
"PostCode": "700",
"Location": {
"Latitude": 62.2265,
"Longitude": -6.589
}
},
{
"Name": "Klaksvík",
"PostCode": "710",
"Location": {
"Latitude": 62.2265,
"Longitude": -6.589
}
},
{
"Name": "Kolbanargjógv",
"PostCode": "495",
"Location": {
"Latitude": 62.1,
"Longitude": -6.7833
}
},
{
"Name": "Kollafjørdur",
"PostCode": "410",
"Location": {
"Latitude": 62.1167,
"Longitude": -6.9
}
},
{
"Name": "Koltur",
"PostCode": "285",
"Location": {
"Latitude": 61.9833,
"Longitude": -6.95
}
},
{
"Name": "Kunoy",
"PostCode": "780",
"Location": {
"Latitude": 62.2833,
"Longitude": -6.6667
}
},
{
"Name": "Kvivik",
"PostCode": "340",
"Location": {
"Latitude": 62.1167,
"Longitude": -7.0667
}
},
{
"Name": "Lambareidi",
"PostCode": "626",
"Location": {
"Latitude": 62.1333,
"Longitude": -6.7167
}
},
{
"Name": "Lambi",
"PostCode": "627",
"Location": {
"Latitude": 62.1333,
"Longitude": -6.6833
}
},
{
"Name": "Langasandur",
"PostCode": "438",
"Location": {
"Latitude": 62.2333,
"Longitude": -7.0333
}
},
{
"Name": "Leirvik",
"PostCode": "520",
"Location": {
"Latitude": 62.2167,
"Longitude": -6.6833
}
},
{
"Name": "Leynar",
"PostCode": "335",
"Location": {
"Latitude": 62.1167,
"Longitude": -7.0333
}
},
{
"Name": "Ljósá",
"PostCode": "466",
"Location": {
"Latitude": 62.2667,
"Longitude": -7.05
}
},
{
"Name": "Lopra",
"PostCode": "926",
"Location": {
"Latitude": 61.4333,
"Longitude": -6.7667
}
},
{
"Name": "Midvágur",
"PostCode": "370",
"Location": {
"Latitude": 62.0511,
"Longitude": -7.1939
}
},
{
"Name": "Midvágur",
"PostCode": "375",
"Location": {
"Latitude": 62.0511,
"Longitude": -7.1939
}
},
{
"Name": "Mikladalur",
"PostCode": "797",
"Location": {
"Latitude": 62.3333,
"Longitude": -6.75
}
},
{
"Name": "Morskranes",
"PostCode": "496",
"Location": {
"Latitude": 62.1333,
"Longitude": -6.8333
}
},
{
"Name": "Múli",
"PostCode": "737",
"Location": {
"Latitude": 62.35,
"Longitude": -6.5667
}
},
{
"Name": "Mykines",
"PostCode": "388",
"Location": {
"Latitude": 62.1,
"Longitude": -7.6333
}
},
{
"Name": "Nes, Eysturoy",
"PostCode": "655",
"Location": {
"Latitude": 62.0833,
"Longitude": -6.7167
}
},
{
"Name": "Nes, Vágur",
"PostCode": "925",
"Location": {
"Latitude": 61.4389,
"Longitude": -6.7444
}
},
{
"Name": "Nesvik",
"PostCode": "437",
"Location": {
"Latitude": 62.2167,
"Longitude": -7.0167
}
},
{
"Name": "Nólsoy",
"PostCode": "270",
"Location": {
"Latitude": 62.0167,
"Longitude": -6.6667
}
},
{
"Name": "Norddepil",
"PostCode": "730",
"Location": {
"Latitude": 62.3,
"Longitude": -6.5167
}
},
{
"Name": "Nordoyri",
"PostCode": "725",
"Location": {
"Latitude": 62.2167,
"Longitude": -6.5333
}
},
{
"Name": "Nordradalur",
"PostCode": "178",
"Location": {
"Latitude": 62.0333,
"Longitude": -6.9167
}
},
{
"Name": "Nordragøta",
"PostCode": "512",
"Location": {
"Latitude": 62.2007,
"Longitude": -6.7419
}
},
{
"Name": "Nordskáli",
"PostCode": "460",
"Location": {
"Latitude": 62.2167,
"Longitude": -7.0
}
},
{
"Name": "Nordtoftir",
"PostCode": "736",
"Location": {
"Latitude": 62.2667,
"Longitude": -6.5
}
},
{
"Name": "Øravik",
"PostCode": "827",
"Location": {
"Latitude": 61.5333,
"Longitude": -6.8
}
},
{
"Name": "Oyndarfjørdur",
"PostCode": "690",
"Location": {
"Latitude": 62.2833,
"Longitude": -6.8333
}
},
{
"Name": "Oyrarbakki",
"PostCode": "400",
"Location": {
"Latitude": 62.2,
"Longitude": -6.9833
}
},
{
"Name": "Oyrarbakki",
"PostCode": "405",
"Location": {
"Latitude": 62.2,
"Longitude": -6.9833
}
},
{
"Name": "Oyrareingir",
"PostCode": "415",
"Location": {
"Latitude": 62.1,
"Longitude": -6.95
}
},
{
"Name": "Oyri",
"PostCode": "450",
"Location": {
"Latitude": 62.1833,
"Longitude": -6.9667
}
},
{
"Name": "Porkeri",
"PostCode": "950",
"Location": {
"Latitude": 61.4833,
"Longitude": -6.7333
}
},
{
"Name": "Rituvik",
"PostCode": "640",
"Location": {
"Latitude": 62.1,
"Longitude": -6.6667
}
},
{
"Name": "Runavik",
"PostCode": "620",
"Location": {
"Latitude": 62.1167,
"Longitude": -6.7167
}
},
{
"Name": "Saksun",
"PostCode": "436",
"Location": {
"Latitude": 62.25,
"Longitude": -7.1667
}
},
{
"Name": "Saltangará",
"PostCode": "600",
"Location": {
"Latitude": 62.1167,
"Longitude": -6.7167
}
},
{
"Name": "Saltangará",
"PostCode": "610",
"Location": {
"Latitude": 62.1167,
"Longitude": -6.7167
}
},
{
"Name": "Saltnes",
"PostCode": "656",
"Location": {
"Latitude": 62.1,
"Longitude": -6.7333
}
},
{
"Name": "Sandavágur",
"PostCode": "360",
"Location": {
"Latitude": 62.05,
"Longitude": -7.1333
}
},
{
"Name": "Sandur",
"PostCode": "210",
"Location": {
"Latitude": 61.8425,
"Longitude": -6.8078
}
},
{
"Name": "Sandur",
"PostCode": "215",
"Location": {
"Latitude": 61.8425,
"Longitude": -6.8078
}
},
{
"Name": "Sandvik",
"PostCode": "860",
"Location": {
"Latitude": 61.6333,
"Longitude": -6.9167
}
},
{
"Name": "Selatrad",
"PostCode": "497",
"Location": {
"Latitude": 62.15,
"Longitude": -6.85
}
},
{
"Name": "Signabøur",
"PostCode": "416",
"Location": {
"Latitude": 62.1,
"Longitude": -6.9
}
},
{
"Name": "Skællingur",
"PostCode": "336",
"Location": {
"Latitude": 62.1167,
"Longitude": -7.0333
}
},
{
"Name": "Skálafjørdur",
"PostCode": "485",
"Location": {
"Latitude": 62.2,
"Longitude": -6.85
}
},
{
"Name": "Skálavik",
"PostCode": "220",
"Location": {
"Latitude": 61.8333,
"Longitude": -6.65
}
},
{
"Name": "Skáli",
"PostCode": "480",
"Location": {
"Latitude": 62.15,
"Longitude": -6.7667
}
},
{
"Name": "Skarvanes",
"PostCode": "236",
"Location": {
"Latitude": 61.8,
"Longitude": -6.7333
}
},
{
"Name": "Skipanes",
"PostCode": "665",
"Location": {
"Latitude": 62.1667,
"Longitude": -6.75
}
},
{
"Name": "Skopun",
"PostCode": "240",
"Location": {
"Latitude": 61.9,
"Longitude": -6.8667
}
},
{
"Name": "Skúvoy",
"PostCode": "260",
"Location": {
"Latitude": 61.7667,
"Longitude": -6.8
}
},
{
"Name": "Søldarfjørdur",
"PostCode": "660",
"Location": {
"Latitude": 62.15,
"Longitude": -6.7333
}
},
{
"Name": "Sørvágur",
"PostCode": "380",
"Location": {
"Latitude": 62.0973,
"Longitude": -7.3577
}
},
{
"Name": "Stóra Dimun",
"PostCode": "286",
"Location": {
"Latitude": 61.9667,
"Longitude": -6.9083
}
},
{
"Name": "Strendur",
"PostCode": "490",
"Location": {
"Latitude": 62.1167,
"Longitude": -6.75
}
},
{
"Name": "Streymnes",
"PostCode": "435",
"Location": {
"Latitude": 62.2,
"Longitude": -7.0167
}
},
{
"Name": "Stykkid",
"PostCode": "330",
"Location": {
"Latitude": 62.1167,
"Longitude": -7.0333
}
},
{
"Name": "Sumba",
"PostCode": "970",
"Location": {
"Latitude": 61.4,
"Longitude": -6.7
}
},
{
"Name": "Sund",
"PostCode": "186",
"Location": {
"Latitude": 62.05,
"Longitude": -6.8333
}
},
{
"Name": "Svináir",
"PostCode": "465",
"Location": {
"Latitude": 62.2333,
"Longitude": -7.0167
}
},
{
"Name": "Svinoy",
"PostCode": "765",
"Location": {
"Latitude": 62.2833,
"Longitude": -6.3333
}
},
{
"Name": "Sydradalur, Kalsoy",
"PostCode": "795",
"Location": {
"Latitude": 62.3222,
"Longitude": -6.7389
}
},
{
"Name": "Sydradalur, Streymoy",
"PostCode": "177",
"Location": {
"Latitude": 62.0167,
"Longitude": -6.9
}
},
{
"Name": "Sydrugøta",
"PostCode": "513",
"Location": {
"Latitude": 62.1833,
"Longitude": -6.7333
}
},
{
"Name": "Tjørnuvik",
"PostCode": "445",
"Location": {
"Latitude": 62.2833,
"Longitude": -7.1333
}
},
{
"Name": "Toftir",
"PostCode": "650",
"Location": {
"Latitude": 62.1,
"Longitude": -6.7333
}
},
{
"Name": "Tórshavn",
"PostCode": "100",
"Location": {
"Latitude": 62.0167,
"Longitude": -6.7667
}
},
{
"Name": "Tórshavn",
"PostCode": "110",
"Location": {
"Latitude": 62.0167,
"Longitude": -6.7667
}
},
{
"Name": "Trøllanes",
"PostCode": "798",
"Location": {
"Latitude": 62.3667,
"Longitude": -6.7833
}
},
{
"Name": "Trongisvágur",
"PostCode": "826",
"Location": {
"Latitude": 61.5667,
"Longitude": -6.8333
}
},
{
"Name": "Tvøroyri",
"PostCode": "800",
"Location": {
"Latitude": 61.5556,
"Longitude": -6.8111
}
},
{
"Name": "Tvøroyri",
"PostCode": "810",
"Location": {
"Latitude": 61.5556,
"Longitude": -6.8111
}
},
{
"Name": "Vágur",
"PostCode": "900",
"Location": {
"Latitude": 61.4732,
"Longitude": -6.8118
}
},
{
"Name": "Vágur",
"PostCode": "910",
"Location": {
"Latitude": 61.4732,
"Longitude": -6.8118
}
},
{
"Name": "Válur",
"PostCode": "358",
"Location": {
"Latitude": 62.1333,
"Longitude": -7.1333
}
},
{
"Name": "Vatnsoyrar",
"PostCode": "385",
"Location": {
"Latitude": 62.0667,
"Longitude": -7.2333
}
},
{
"Name": "Velbastadur",
"PostCode": "176",
"Location": {
"Latitude": 61.9833,
"Longitude": -6.8333
}
},
{
"Name": "Vestmanna",
"PostCode": "350",
"Location": {
"Latitude": 62.1564,
"Longitude": -7.1664
}
},
{
"Name": "Vestmanna",
"PostCode": "355",
"Location": {
"Latitude": 62.1564,
"Longitude": -7.1664
}
},
{
"Name": "Vidareidi",
"PostCode": "750",
"Location": {
"Latitude": 62.3667,
"Longitude": -6.5333
}
},
{
"Name": "Vikarbyrgi",
"PostCode": "928",
"Location": {
"Latitude": 61.4333,
"Longitude": -6.7167
}
}
]
}
]
}
]
}
]