[
{
"Name": "Guyane",
"Code": "GF",
"Provinces": [
{
"Name": "Guyane",
"Code": "973",
"Communities": [
{
"Name": "Arrondissement de Cayenne",
"Code": "9731",
"Places": [
{
"Name": "Camopi",
"PostCode": "97330",
"Latitude": 3.1689,
"Longitude": -52.3353
},
{
"Name": "Cayenne",
"PostCode": "97300",
"Latitude": 4.9333,
"Longitude": -52.3333
},
{
"Name": "Cayenne",
"PostCode": "97305 CEDEX",
"Latitude": 4.9333,
"Longitude": -52.3333
},
{
"Name": "Cayenne",
"PostCode": "97306 CEDEX",
"Latitude": 4.9333,
"Longitude": -52.3333
},
{
"Name": "Cayenne",
"PostCode": "97307 CEDEX",
"Latitude": 4.9333,
"Longitude": -52.3333
},
{
"Name": "Cayenne",
"PostCode": "97308 CEDEX",
"Latitude": 4.9333,
"Longitude": -52.3333
},
{
"Name": "Cayenne",
"PostCode": "97309 CEDEX",
"Latitude": 4.9333,
"Longitude": -52.3333
},
{
"Name": "Cayenne",
"PostCode": "97321 CEDEX",
"Latitude": 4.9333,
"Longitude": -52.3333
},
{
"Name": "Cayenne",
"PostCode": "97322 CEDEX",
"Latitude": 4.9333,
"Longitude": -52.3333
},
{
"Name": "Cayenne",
"PostCode": "97323 CEDEX",
"Latitude": 4.9333,
"Longitude": -52.3333
},
{
"Name": "Cayenne",
"PostCode": "97324 CEDEX",
"Latitude": 4.9333,
"Longitude": -52.3333
},
{
"Name": "Cayenne",
"PostCode": "97325 CEDEX",
"Latitude": 4.9333,
"Longitude": -52.3333
},
{
"Name": "Cayenne",
"PostCode": "97326 CEDEX",
"Latitude": 4.9333,
"Longitude": -52.3333
},
{
"Name": "Cayenne",
"PostCode": "97327 CEDEX",
"Latitude": 4.9333,
"Longitude": -52.3333
},
{
"Name": "Cayenne",
"PostCode": "97328 CEDEX",
"Latitude": 4.9333,
"Longitude": -52.3333
},
{
"Name": "Cayenne",
"PostCode": "97329 CEDEX",
"Latitude": 4.9333,
"Longitude": -52.3333
},
{
"Name": "Cayenne",
"PostCode": "97331 CEDEX",
"Latitude": 4.9333,
"Longitude": -52.3333
},
{
"Name": "Cayenne",
"PostCode": "97332 CEDEX",
"Latitude": 4.9333,
"Longitude": -52.3333
},
{
"Name": "Cayenne",
"PostCode": "97333 CEDEX",
"Latitude": 4.9333,
"Longitude": -52.3333
},
{
"Name": "Cayenne",
"PostCode": "97334 CEDEX",
"Latitude": 4.9333,
"Longitude": -52.3333
},
{
"Name": "Cayenne",
"PostCode": "97335 CEDEX",
"Latitude": 4.9333,
"Longitude": -52.3333
},
{
"Name": "Cayenne",
"PostCode": "97336 CEDEX",
"Latitude": 4.9333,
"Longitude": -52.3333
},
{
"Name": "Cayenne",
"PostCode": "97337 CEDEX",
"Latitude": 4.9333,
"Longitude": -52.3333
},
{
"Name": "Cayenne",
"PostCode": "97338 CEDEX",
"Latitude": 4.9333,
"Longitude": -52.3333
},
{
"Name": "Cayenne",
"PostCode": "97339 CEDEX",
"Latitude": 4.9333,
"Longitude": -52.3333
},
{
"Name": "Cayenne",
"PostCode": "97341 CEDEX",
"Latitude": 4.9333,
"Longitude": -52.3333
},
{
"Name": "Cayenne",
"PostCode": "97342 CEDEX",
"Latitude": 4.9333,
"Longitude": -52.3333
},
{
"Name": "Cayenne",
"PostCode": "97343 CEDEX",
"Latitude": 4.9333,
"Longitude": -52.3333
},
{
"Name": "Cayenne",
"PostCode": "97344 CEDEX",
"Latitude": 4.9333,
"Longitude": -52.3333
},
{
"Name": "Cayenne",
"PostCode": "97345 CEDEX",
"Latitude": 4.9333,
"Longitude": -52.3333
},
{
"Name": "Cayenne",
"PostCode": "97346 CEDEX",
"Latitude": 4.9333,
"Longitude": -52.3333
},
{
"Name": "Cayenne",
"PostCode": "97347 CEDEX",
"Latitude": 4.9333,
"Longitude": -52.3333
},
{
"Name": "Cayenne",
"PostCode": "97391 CEDEX 2",
"Latitude": 4.9333,
"Longitude": -52.3333
},
{
"Name": "Cayenne",
"PostCode": "97392 CEDEX 2",
"Latitude": 4.9333,
"Longitude": -52.3333
},
{
"Name": "Cayenne",
"PostCode": "97399 CEDEX",
"Latitude": 4.9333,
"Longitude": -52.3333
},
{
"Name": "Iracoubo",
"PostCode": "97350",
"Latitude": 5.4787,
"Longitude": -53.2052
},
{
"Name": "Kourou",
"PostCode": "97310",
"Latitude": 5.1628,
"Longitude": -52.6427
},
{
"Name": "Kourou",
"PostCode": "97371 CEDEX",
"Latitude": 5.1628,
"Longitude": -52.6427
},
{
"Name": "Kourou",
"PostCode": "97372 CEDEX",
"Latitude": 5.1628,
"Longitude": -52.6427
},
{
"Name": "Kourou",
"PostCode": "97373 CEDEX",
"Latitude": 5.1628,
"Longitude": -52.6427
},
{
"Name": "Kourou",
"PostCode": "97374 CEDEX",
"Latitude": 5.1628,
"Longitude": -52.6427
},
{
"Name": "Kourou",
"PostCode": "97375 CEDEX",
"Latitude": 5.1628,
"Longitude": -52.6427
},
{
"Name": "Kourou",
"PostCode": "97376 CEDEX",
"Latitude": 5.1628,
"Longitude": -52.6427
},
{
"Name": "Kourou",
"PostCode": "97377 CEDEX",
"Latitude": 5.1628,
"Longitude": -52.6427
},
{
"Name": "Kourou",
"PostCode": "97378 CEDEX",
"Latitude": 5.1628,
"Longitude": -52.6427
},
{
"Name": "Kourou",
"PostCode": "97379 CEDEX",
"Latitude": 5.1628,
"Longitude": -52.6427
},
{
"Name": "Kourou",
"PostCode": "97381 CEDEX",
"Latitude": 5.1628,
"Longitude": -52.6427
},
{
"Name": "Kourou",
"PostCode": "97382 CEDEX",
"Latitude": 5.1628,
"Longitude": -52.6427
},
{
"Name": "Kourou",
"PostCode": "97383 CEDEX",
"Latitude": 5.1628,
"Longitude": -52.6427
},
{
"Name": "Kourou",
"PostCode": "97384 CEDEX",
"Latitude": 5.1628,
"Longitude": -52.6427
},
{
"Name": "Kourou",
"PostCode": "97387 CEDEX",
"Latitude": 5.1628,
"Longitude": -52.6427
},
{
"Name": "Kourou",
"PostCode": "97388 CEDEX",
"Latitude": 5.1628,
"Longitude": -52.6427
},
{
"Name": "Kourou",
"PostCode": "97389 CEDEX",
"Latitude": 5.1628,
"Longitude": -52.6427
},
{
"Name": "Macouria",
"PostCode": "97355",
"Latitude": 5.0136,
"Longitude": -52.4739
},
{
"Name": "Matoury",
"PostCode": "97351",
"Latitude": 4.8487,
"Longitude": -52.3257
},
{
"Name": "Matoury",
"PostCode": "97357 CEDEX",
"Latitude": 4.8487,
"Longitude": -52.3257
},
{
"Name": "Montsinéry-Tonnegrande",
"PostCode": "97356",
"Latitude": 4.9,
"Longitude": -52.5
},
{
"Name": "Ouanary",
"PostCode": "97380",
"Latitude": 4.2087,
"Longitude": -51.6741
},
{
"Name": "Régina",
"PostCode": "97353",
"Latitude": 4.313,
"Longitude": -52.1308
},
{
"Name": "Régina",
"PostCode": "97390",
"Latitude": 4.313,
"Longitude": -52.1308
},
{
"Name": "Rémire-Montjoly",
"PostCode": "97354",
"Latitude": 4.9167,
"Longitude": -52.2667
},
{
"Name": "Rémire-Montjoly",
"PostCode": "97394 CEDEX",
"Latitude": 4.9167,
"Longitude": -52.2667
},
{
"Name": "Roura",
"PostCode": "97311",
"Latitude": 4.7252,
"Longitude": -52.3262
},
{
"Name": "Roura",
"PostCode": "97352",
"Latitude": 4.7252,
"Longitude": -52.3262
},
{
"Name": "Saint-Élie",
"PostCode": "97312",
"Latitude": 4.8243,
"Longitude": -53.2882
},
{
"Name": "Saint-Georges",
"PostCode": "97313",
"Latitude": 3.9,
"Longitude": -51.8
},
{
"Name": "Sinnamary",
"PostCode": "97315",
"Latitude": 5.3768,
"Longitude": -52.9568
}
]
},
{
"Name": "Arrondissement de Saint-Laurent-du-Maroni",
"Code": "9732",
"Places": [
{
"Name": "Apatou",
"PostCode": "97317",
"Latitude": 5.1553,
"Longitude": -54.3431
},
{
"Name": "Awala-Yalimapo",
"PostCode": "97319",
"Latitude": 5.7364,
"Longitude": -53.9087
},
{
"Name": "Grand-Santi",
"PostCode": "97340",
"Latitude": 4.2729,
"Longitude": -54.3815
},
{
"Name": "Mana",
"PostCode": "97318",
"Latitude": 5.6677,
"Longitude": -53.7783
},
{
"Name": "Mana",
"PostCode": "97360",
"Latitude": 5.6677,
"Longitude": -53.7783
},
{
"Name": "Maripasoula",
"PostCode": "97370",
"Latitude": 3.6416,
"Longitude": -54.0317
},
{
"Name": "Papaïchton",
"PostCode": "97316",
"Latitude": 3.8058,
"Longitude": -54.1446
},
{
"Name": "Saint-Laurent-du-Maroni",
"PostCode": "97320",
"Latitude": 5.501,
"Longitude": -54.0294
},
{
"Name": "Saint-Laurent-du-Maroni",
"PostCode": "97393 CEDEX",
"Latitude": 5.501,
"Longitude": -54.0294
},
{
"Name": "Saül",
"PostCode": "97314",
"Latitude": 3.6231,
"Longitude": -53.2092
}
]
}
]
}
]
}
]