[
{
"Provinces": [
{
"Communities": [
{
"Places": [
{
"Name": "Aohanga",
"PostCode": "4991",
"Latitude": -40.4885,
"Longitude": 175.9457
},
{
"Name": "Berwen",
"PostCode": "9412",
"Latitude": -45.3184,
"Longitude": 170.8101
},
{
"Name": "Cliff Road",
"PostCode": "4787",
"Latitude": -39.9582,
"Longitude": 175.5461
},
{
"Name": "Haast",
"PostCode": "7844",
"Latitude": -42.3489,
"Longitude": 171.5086
},
{
"Name": "Half-moon Bay",
"PostCode": "9846",
"Latitude": -46.4024,
"Longitude": 168.4223
},
{
"Name": "Harihari",
"PostCode": "7863",
"Latitude": -42.1545,
"Longitude": 171.3757
},
{
"Name": "Katikati",
"PostCode": "3166",
"Latitude": -38.0255,
"Longitude": 176.9425
},
{
"Name": "Mahitahi",
"PostCode": "7886",
"Latitude": -42.9033,
"Longitude": 170.8867
},
{
"Name": "Market Cross",
"PostCode": "7864",
"Latitude": -42.1545,
"Longitude": 171.3757
},
{
"Name": "Maruia",
"PostCode": "7862",
"Latitude": -42.1545,
"Longitude": 171.3757
},
{
"Name": "Mataura",
"PostCode": "9356",
"Latitude": -45.0095,
"Longitude": 169.5072
},
{
"Name": "Murchison",
"PostCode": "7007",
"Latitude": -41.25,
"Longitude": 173.1
},
{
"Name": "Murchison",
"PostCode": "7049",
"Latitude": -41.2801,
"Longitude": 173.2541
},
{
"Name": "Palmerston",
"PostCode": "9430",
"Latitude": -45.1143,
"Longitude": 170.6719
},
{
"Name": "Port Motueka",
"PostCode": "7120",
"Latitude": -41.1053,
"Longitude": 173.2456
},
{
"Name": "Port Motueka",
"PostCode": "7143",
"Latitude": -41.1083,
"Longitude": 173.0958
},
{
"Name": "Punaroma",
"PostCode": "3076",
"Latitude": -38.2872,
"Longitude": 176.3389
},
{
"Name": "Roxburgh",
"PostCode": "9441",
"Latitude": -44.9399,
"Longitude": 170.5447
},
{
"Name": "Summerhill",
"PostCode": "4410",
"Latitude": -40.3525,
"Longitude": 175.6145
},
{
"Name": "Summerhill",
"PostCode": "4448",
"Latitude": -40.3603,
"Longitude": 175.6143
},
{
"Name": "Waikouaiti",
"PostCode": "9510",
"Latitude": -45.9419,
"Longitude": 169.5499
},
{
"Name": "Waikouaiti",
"PostCode": "9541",
"Latitude": -46.032,
"Longitude": 169.479
},
{
"Name": "Waioruarangi",
"PostCode": "7300",
"Latitude": -42.6475,
"Longitude": 173.0876
},
{
"Name": "Waiouru",
"PostCode": "4861",
"Latitude": -40.3394,
"Longitude": 175.4771
},
{
"Name": "Waiouru Military Camp",
"PostCode": "4825",
"Latitude": -40.4107,
"Longitude": 175.4044
},
{
"Name": "Waiouru Military Camp",
"PostCode": "4826",
"Latitude": -40.4107,
"Longitude": 175.4044
},
{
"Name": "Waitoa",
"PostCode": "3380",
"Latitude": -38.9393,
"Longitude": 175.7893
},
{
"Name": "Wharekuri",
"PostCode": "9435",
"Latitude": -45.1143,
"Longitude": 170.6719
}
]
}
]
}
]
},
{
"Name": "Auckland",
"Code": "E7",
"Provinces": [
{
"Communities": [
{
"Places": [
{
"Name": "Ahuroa",
"PostCode": "0984",
"Latitude": -36.4753,
"Longitude": 174.5542
},
{
"Name": "Albany",
"PostCode": "0752",
"Latitude": -36.7167,
"Longitude": 174.7
},
{
"Name": "Albany",
"PostCode": "0755",
"Latitude": -36.7167,
"Longitude": 174.7
},
{
"Name": "Algies Bay",
"PostCode": "0982",
"Latitude": -36.4353,
"Longitude": 174.7403
},
{
"Name": "Ararimu",
"PostCode": "2579",
"Latitude": -37.15,
"Longitude": 175.0333
},
{
"Name": "Ararimu",
"PostCode": "2675",
"Latitude": -37.15,
"Longitude": 175.0333
},
{
"Name": "Arch Hill",
"PostCode": "1021",
"Latitude": -36.8597,
"Longitude": 174.7531
},
{
"Name": "Auckland",
"PostCode": "1010",
"Latitude": -36.8485,
"Longitude": 174.7635
},
{
"Name": "Auckland",
"PostCode": "1148",
"Latitude": -36.8485,
"Longitude": 174.7635
},
{
"Name": "Auckland",
"PostCode": "1150",
"Latitude": -36.8485,
"Longitude": 174.7635
},
{
"Name": "Avondale",
"PostCode": "1348",
"Latitude": -36.8833,
"Longitude": 174.7
},
{
"Name": "Balmoral",
"PostCode": "1342",
"Latitude": -36.8882,
"Longitude": 174.7402
},
{
"Name": "Balmoral",
"PostCode": "1351",
"Latitude": -36.8882,
"Longitude": 174.7402
},
{
"Name": "Beachlands",
"PostCode": "2018",
"Latitude": -36.8833,
"Longitude": 175.0
},
{
"Name": "Beachlands",
"PostCode": "2147",
"Latitude": -36.8833,
"Longitude": 175.0
},
{
"Name": "Belmont",
"PostCode": "0622",
"Latitude": -36.8075,
"Longitude": 174.7864
},
{
"Name": "Big Omaha",
"PostCode": "0985",
"Latitude": -36.3333,
"Longitude": 174.7333
},
{
"Name": "Birkdale",
"PostCode": "0749",
"Latitude": -36.7972,
"Longitude": 174.7046
},
{
"Name": "Birkenhead",
"PostCode": "0746",
"Latitude": -36.8082,
"Longitude": 174.7202
},
{
"Name": "Blackpool",
"PostCode": "1842",
"Latitude": -36.7889,
"Longitude": 175.0144
},
{
"Name": "Blockhouse Bay",
"PostCode": "0600",
"Latitude": -36.9182,
"Longitude": 174.7002
},
{
"Name": "Blockhouse Bay",
"PostCode": "0644",
"Latitude": -36.9182,
"Longitude": 174.7002
},
{
"Name": "Bombay",
"PostCode": "2343",
"Latitude": -37.1667,
"Longitude": 174.9833
},
{
"Name": "Botany Downs",
"PostCode": "2143",
"Latitude": -36.906,
"Longitude": 174.9179
},
{
"Name": "Brighams Creek",
"PostCode": "0662",
"Latitude": -36.7833,
"Longitude": 174.6
},
{
"Name": "Browns Bay",
"PostCode": "0630",
"Latitude": -36.7193,
"Longitude": 174.7367
},
{
"Name": "Browns Bay",
"PostCode": "0753",
"Latitude": -36.7193,
"Longitude": 174.7367
},
{
"Name": "Chatswood",
"PostCode": "0626",
"Latitude": -36.8184,
"Longitude": 174.7098
},
{
"Name": "Clevedon",
"PostCode": "2248",
"Latitude": -37.0,
"Longitude": 175.05
},
{
"Name": "Clevedon",
"PostCode": "2582",
"Latitude": -37.0,
"Longitude": 175.05
},
{
"Name": "Coatesville",
"PostCode": "0793",
"Latitude": -36.7167,
"Longitude": 174.65
},
{
"Name": "Dairy Flat",
"PostCode": "0794",
"Latitude": -36.6667,
"Longitude": 174.65
},
{
"Name": "Devonport",
"PostCode": "0624",
"Latitude": -36.8282,
"Longitude": 174.7902
},
{
"Name": "Devonport",
"PostCode": "0744",
"Latitude": -36.7775,
"Longitude": 174.7399
},
{
"Name": "Drury",
"PostCode": "2247",
"Latitude": -37.1,
"Longitude": 174.95
},
{
"Name": "Drury",
"PostCode": "2577",
"Latitude": -37.1,
"Longitude": 174.95
},
{
"Name": "East Tamaki",
"PostCode": "2013",
"Latitude": -36.95,
"Longitude": 174.9
},
{
"Name": "East Tamaki",
"PostCode": "2016",
"Latitude": -36.95,
"Longitude": 174.9
},
{
"Name": "East Tamaki",
"PostCode": "2141",
"Latitude": -36.95,
"Longitude": 174.9
},
{
"Name": "East Tamaki",
"PostCode": "2142",
"Latitude": -36.95,
"Longitude": 174.9
},
{
"Name": "Eastern Beach",
"PostCode": "2012",
"Latitude": -36.8682,
"Longitude": 174.9002
},
{
"Name": "Eastern Beach",
"PostCode": "2144",
"Latitude": -36.8682,
"Longitude": 174.9002
},
{
"Name": "Ellerslie",
"PostCode": "1051",
"Latitude": -36.8982,
"Longitude": 174.8102
},
{
"Name": "Ellerslie",
"PostCode": "1542",
"Latitude": -36.8982,
"Longitude": 174.8102
},
{
"Name": "Ellerslie",
"PostCode": "1544",
"Latitude": -36.8982,
"Longitude": 174.8102
},
{
"Name": "Ellerslie",
"PostCode": "1546",
"Latitude": -36.8982,
"Longitude": 174.8102
},
{
"Name": "Epsom",
"PostCode": "1023",
"Latitude": -36.8874,
"Longitude": 174.7706
},
{
"Name": "Epsom",
"PostCode": "1024",
"Latitude": -36.8874,
"Longitude": 174.7706
},
{
"Name": "Epsom",
"PostCode": "1349",
"Latitude": -36.8874,
"Longitude": 174.7706
},
{
"Name": "Favona",
"PostCode": "2151",
"Latitude": -36.9333,
"Longitude": 174.8
},
{
"Name": "Forrest Hill",
"PostCode": "0620",
"Latitude": -36.7645,
"Longitude": 174.7477
},
{
"Name": "Forrest Hill",
"PostCode": "0743",
"Latitude": -36.7645,
"Longitude": 174.7477
},
{
"Name": "Forrest Hill",
"PostCode": "0757",
"Latitude": -36.7645,
"Longitude": 174.7477
},
{
"Name": "Freemans Bay",
"PostCode": "1144",
"Latitude": -36.8482,
"Longitude": 174.7402
},
{
"Name": "Glen Eden",
"PostCode": "0641",
"Latitude": -36.9167,
"Longitude": 174.65
},
{
"Name": "Glenbrook",
"PostCode": "2681",
"Latitude": -37.2167,
"Longitude": 174.7833
},
{
"Name": "Glendene",
"PostCode": "0645",
"Latitude": -36.8882,
"Longitude": 174.6402
},
{
"Name": "Glenfield",
"PostCode": "0745",
"Latitude": -36.7826,
"Longitude": 174.7211
},
{
"Name": "Glenfield",
"PostCode": "0751",
"Latitude": -36.7826,
"Longitude": 174.7211
},
{
"Name": "Grafton",
"PostCode": "1145",
"Latitude": -36.8603,
"Longitude": 174.7657
},
{
"Name": "Green Bay",
"PostCode": "0643",
"Latitude": -36.931,
"Longitude": 174.6749
},
{
"Name": "Greenhithe",
"PostCode": "0632",
"Latitude": -36.7667,
"Longitude": 174.6833
},
{
"Name": "Greenlane",
"PostCode": "1541",
"Latitude": -36.8906,
"Longitude": 174.7943
},
{
"Name": "Greenlane",
"PostCode": "1543",
"Latitude": -36.8906,
"Longitude": 174.7943
},
{
"Name": "Hauraki",
"PostCode": "0740",
"Latitude": -36.7996,
"Longitude": 174.778
},
{
"Name": "Helensville",
"PostCode": "0800",
"Latitude": -36.6782,
"Longitude": 174.4502
},
{
"Name": "Helensville",
"PostCode": "0840",
"Latitude": -36.6782,
"Longitude": 174.4502
},
{
"Name": "Helensville",
"PostCode": "0875",
"Latitude": -36.6782,
"Longitude": 174.4502
},
{
"Name": "Herne Bay",
"PostCode": "1011",
"Latitude": -36.8461,
"Longitude": 174.7292
},
{
"Name": "Herne Bay",
"PostCode": "1147",
"Latitude": -36.8461,
"Longitude": 174.7292
},
{
"Name": "Hillsborough",
"PostCode": "1042",
"Latitude": -36.9182,
"Longitude": 174.7502
},
{
"Name": "Hobsonville",
"PostCode": "0618",
"Latitude": -36.8,
"Longitude": 174.6667
},
{
"Name": "Homai",
"PostCode": "2240",
"Latitude": -37.0167,
"Longitude": 174.8833
},
{
"Name": "Huapai",
"PostCode": "0810",
"Latitude": -36.7667,
"Longitude": 174.55
},
{
"Name": "Huapai",
"PostCode": "0841",
"Latitude": -36.7667,
"Longitude": 174.55
},
{
"Name": "Huapai",
"PostCode": "0891",
"Latitude": -36.7667,
"Longitude": 174.55
},
{
"Name": "Huia",
"PostCode": "0604",
"Latitude": -36.9983,
"Longitude": 174.5667
},
{
"Name": "Karekare",
"PostCode": "0772",
"Latitude": -36.9833,
"Longitude": 174.4833
},
{
"Name": "Kaukapakapa",
"PostCode": "0843",
"Latitude": -36.6167,
"Longitude": 174.5
},
{
"Name": "Kaukapakapa",
"PostCode": "0871",
"Latitude": -36.6167,
"Longitude": 174.5
},
{
"Name": "Kelston",
"PostCode": "0602",
"Latitude": -36.8982,
"Longitude": 174.6602
},
{
"Name": "Kohimarama",
"PostCode": "1071",
"Latitude": -36.8582,
"Longitude": 174.8402
},
{
"Name": "Kumeu",
"PostCode": "0892",
"Latitude": -36.7667,
"Longitude": 174.5667
},
{
"Name": "Leigh",
"PostCode": "0920",
"Latitude": -36.2833,
"Longitude": 174.8167
},
{
"Name": "Leigh",
"PostCode": "0947",
"Latitude": -36.2833,
"Longitude": 174.8167
},
{
"Name": "Lynfield",
"PostCode": "1443",
"Latitude": -36.9282,
"Longitude": 174.7202
},
{
"Name": "Mairangi Bay",
"PostCode": "0754",
"Latitude": -36.7381,
"Longitude": 174.752
},
{
"Name": "Mairangi Bay",
"PostCode": "0758",
"Latitude": -36.7381,
"Longitude": 174.752
},
{
"Name": "Mangere",
"PostCode": "2022",
"Latitude": -36.9681,
"Longitude": 174.7987
},
{
"Name": "Mangere",
"PostCode": "2150",
"Latitude": -36.9681,
"Longitude": 174.7987
},
{
"Name": "Mangere",
"PostCode": "2153",
"Latitude": -36.9681,
"Longitude": 174.7987
},
{
"Name": "Mangere",
"PostCode": "2154",
"Latitude": -36.9681,
"Longitude": 174.7987
},
{
"Name": "Mangere East",
"PostCode": "2024",
"Latitude": -36.9659,
"Longitude": 174.8239
},
{
"Name": "Mangere East",
"PostCode": "2158",
"Latitude": -36.9659,
"Longitude": 174.8239
},
{
"Name": "Manurewa",
"PostCode": "2102",
"Latitude": -37.0182,
"Longitude": 174.8802
},
{
"Name": "Manurewa East",
"PostCode": "2105",
"Latitude": -37.0182,
"Longitude": 174.9102
},
{
"Name": "Manurewa East",
"PostCode": "2243",
"Latitude": -37.0182,
"Longitude": 174.9102
},
{
"Name": "Maraetai",
"PostCode": "2148",
"Latitude": -36.8833,
"Longitude": 175.05
},
{
"Name": "Marlborough",
"PostCode": "0629",
"Latitude": -36.7782,
"Longitude": 174.7202
},
{
"Name": "Marlborough",
"PostCode": "0747",
"Latitude": -36.7782,
"Longitude": 174.7202
},
{
"Name": "Massey East",
"PostCode": "0656",
"Latitude": -36.8282,
"Longitude": 174.6202
},
{
"Name": "Massey East",
"PostCode": "0663",
"Latitude": -36.8282,
"Longitude": 174.6202
},
{
"Name": "Matakana",
"PostCode": "0948",
"Latitude": -36.35,
"Longitude": 174.7167
},
{
"Name": "Mauku",
"PostCode": "2678",
"Latitude": -37.2,
"Longitude": 174.8167
},
{
"Name": "McLaren Park",
"PostCode": "0612",
"Latitude": -36.8882,
"Longitude": 174.6102
},
{
"Name": "Meadowbank",
"PostCode": "1742",
"Latitude": -36.8682,
"Longitude": 174.8202
},
{
"Name": "Mechanics Bay",
"PostCode": "1140",
"Latitude": -36.8382,
"Longitude": 174.7802
},
{
"Name": "Mechanics Bay",
"PostCode": "1143",
"Latitude": -36.8382,
"Longitude": 174.7802
},
{
"Name": "Milford",
"PostCode": "0741",
"Latitude": -36.7716,
"Longitude": 174.7659
},
{
"Name": "Mission Bay",
"PostCode": "1744",
"Latitude": -36.8547,
"Longitude": 174.8317
},
{
"Name": "Mount Albert",
"PostCode": "1246",
"Latitude": -36.8782,
"Longitude": 174.7202
},
{
"Name": "Mount Eden",
"PostCode": "1352",
"Latitude": -36.8816,
"Longitude": 174.762
},
{
"Name": "Mount Eden",
"PostCode": "1446",
"Latitude": -36.8816,
"Longitude": 174.762
},
{
"Name": "Mount Roskill",
"PostCode": "1041",
"Latitude": -36.9082,
"Longitude": 174.7302
},
{
"Name": "Mount Wellington",
"PostCode": "1642",
"Latitude": -36.9082,
"Longitude": 174.8202
},
{
"Name": "New Lynn",
"PostCode": "0640",
"Latitude": -36.9069,
"Longitude": 174.687
},
{
"Name": "New Windsor",
"PostCode": "1746",
"Latitude": -36.8982,
"Longitude": 174.7002
},
{
"Name": "Newmarket",
"PostCode": "1141",
"Latitude": -36.8698,
"Longitude": 174.7757
},
{
"Name": "Newton",
"PostCode": "1142",
"Latitude": -36.85,
"Longitude": 174.75
},
{
"Name": "North Shore",
"PostCode": "0627",
"Latitude": -36.8,
"Longitude": 174.75
},
{
"Name": "North Shore",
"PostCode": "0748",
"Latitude": -36.8,
"Longitude": 174.75
},
{
"Name": "Okiwi",
"PostCode": "0960",
"Latitude": -36.15,
"Longitude": 175.4167
},
{
"Name": "Okupu",
"PostCode": "0961",
"Latitude": -36.2667,
"Longitude": 175.4333
},
{
"Name": "One Tree Hill",
"PostCode": "1344",
"Latitude": -36.8982,
"Longitude": 174.7802
},
{
"Name": "One Tree Hill",
"PostCode": "1347",
"Latitude": -36.8982,
"Longitude": 174.7802
},
{
"Name": "Onehunga",
"PostCode": "1643",
"Latitude": -36.9182,
"Longitude": 174.7802
},
{
"Name": "Oneroa",
"PostCode": "1840",
"Latitude": -36.7782,
"Longitude": 175.0102
},
{
"Name": "Onetangi",
"PostCode": "1841",
"Latitude": -36.7833,
"Longitude": 175.0833
},
{
"Name": "Onetangi",
"PostCode": "1971",
"Latitude": -36.7833,
"Longitude": 175.0833
},
{
"Name": "Opaheke",
"PostCode": "2584",
"Latitude": -37.0833,
"Longitude": 174.9667
},
{
"Name": "Opuatia",
"PostCode": "2696",
"Latitude": -37.4048,
"Longitude": 175.0002
},
{
"Name": "Orakei",
"PostCode": "1745",
"Latitude": -36.85,
"Longitude": 174.8167
},
{
"Name": "Orewa",
"PostCode": "0931",
"Latitude": -36.5667,
"Longitude": 174.7
},
{
"Name": "Orewa",
"PostCode": "0946",
"Latitude": -36.5667,
"Longitude": 174.7
},
{
"Name": "Ostend",
"PostCode": "1081",
"Latitude": -36.7982,
"Longitude": 175.0402
},
{
"Name": "Ostend",
"PostCode": "1843",
"Latitude": -36.7982,
"Longitude": 175.0402
},
{
"Name": "Otahuhu",
"PostCode": "1640",
"Latitude": -36.9382,
"Longitude": 174.8402
},
{
"Name": "OTAHUHU",
"PostCode": "1062",
"Latitude": -36.9382,
"Longitude": 174.8402
},
{
"Name": "Otara",
"PostCode": "2159",
"Latitude": -36.9482,
"Longitude": 174.8702
},
{
"Name": "Owairaka",
"PostCode": "1350",
"Latitude": -36.8882,
"Longitude": 174.7102
},
{
"Name": "Paerata",
"PostCode": "2676",
"Latitude": -37.1667,
"Longitude": 174.9
},
{
"Name": "Pahitoa",
"PostCode": "0842",
"Latitude": -36.7833,
"Longitude": 174.4833
},
{
"Name": "Pahitoa",
"PostCode": "0883",
"Latitude": -36.7833,
"Longitude": 174.4833
},
{
"Name": "Pahurehure",
"PostCode": "2244",
"Latitude": -37.0582,
"Longitude": 174.9202
},
{
"Name": "Pahurehure",
"PostCode": "2246",
"Latitude": -37.0582,
"Longitude": 174.9202
},
{
"Name": "Pakuranga",
"PostCode": "2140",
"Latitude": -36.8833,
"Longitude": 174.9167
},
{
"Name": "Pakuranga Heights",
"PostCode": "2010",
"Latitude": -36.9082,
"Longitude": 174.8802
},
{
"Name": "Panmure",
"PostCode": "1545",
"Latitude": -36.8833,
"Longitude": 174.8667
},
{
"Name": "Panmure",
"PostCode": "1641",
"Latitude": -36.8833,
"Longitude": 174.8667
},
{
"Name": "Panmure",
"PostCode": "1741",
"Latitude": -36.8833,
"Longitude": 174.8667
},
{
"Name": "Papakura",
"PostCode": "2113",
"Latitude": -37.0657,
"Longitude": 174.9439
},
{
"Name": "Paparimu",
"PostCode": "2583",
"Latitude": -37.1333,
"Longitude": 175.1167
},
{
"Name": "Papatoetoe",
"PostCode": "2155",
"Latitude": -36.9682,
"Longitude": 174.8402
},
{
"Name": "Papatoetoe",
"PostCode": "2156",
"Latitude": -36.9682,
"Longitude": 174.8402
},
{
"Name": "Parakai",
"PostCode": "0830",
"Latitude": -36.65,
"Longitude": 174.4333
},
{
"Name": "Parakakau",
"PostCode": "0873",
"Latitude": -36.5833,
"Longitude": 174.6
},
{
"Name": "Paremoremo",
"PostCode": "0756",
"Latitude": -36.7667,
"Longitude": 174.6667
},
{
"Name": "Parkhurst",
"PostCode": "0874",
"Latitude": -36.65,
"Longitude": 174.4
},
{
"Name": "Parnell",
"PostCode": "1149",
"Latitude": -36.8667,
"Longitude": 174.7833
},
{
"Name": "Patumahoe",
"PostCode": "2344",
"Latitude": -37.1833,
"Longitude": 174.8333
},
{
"Name": "Penrose",
"PostCode": "1060",
"Latitude": -36.9167,
"Longitude": 174.8167
},
{
"Name": "Piha",
"PostCode": "0781",
"Latitude": -36.95,
"Longitude": 174.4667
},
{
"Name": "Pohuehue",
"PostCode": "0983",
"Latitude": -36.45,
"Longitude": 174.65
},
{
"Name": "Point Chevalier",
"PostCode": "1022",
"Latitude": -36.8633,
"Longitude": 174.7049
},
{
"Name": "Point England",
"PostCode": "1743",
"Latitude": -36.8782,
"Longitude": 174.8602
},
{
"Name": "Point Resolution",
"PostCode": "1052",
"Latitude": -36.8514,
"Longitude": 174.7894
},
{
"Name": "Point Resolution",
"PostCode": "1151",
"Latitude": -36.8514,
"Longitude": 174.7894
},
{
"Name": "Pollok",
"PostCode": "2684",
"Latitude": -37.1333,
"Longitude": 174.6167
},
{
"Name": "Port Fitzroy",
"PostCode": "0963",
"Latitude": -36.1667,
"Longitude": 175.35
},
{
"Name": "Puhoi",
"PostCode": "0951",
"Latitude": -36.5035,
"Longitude": 174.6676
},
{
"Name": "Pukekohe",
"PostCode": "2120",
"Latitude": -37.202,
"Longitude": 174.9036
},
{
"Name": "Pukekohe",
"PostCode": "2340",
"Latitude": -37.202,
"Longitude": 174.9036
},
{
"Name": "Pukekohe East",
"PostCode": "2677",
"Latitude": -37.2,
"Longitude": 174.95
},
{
"Name": "Ramarama",
"PostCode": "2578",
"Latitude": -37.15,
"Longitude": 174.95
},
{
"Name": "Red Beach",
"PostCode": "0932",
"Latitude": -36.6124,
"Longitude": 174.6887
},
{
"Name": "Red Beach",
"PostCode": "0945",
"Latitude": -36.6124,
"Longitude": 174.6887
},
{
"Name": "Red Beach",
"PostCode": "0993",
"Latitude": -36.6124,
"Longitude": 174.6887
},
{
"Name": "Red Hill",
"PostCode": "2110",
"Latitude": -37.0582,
"Longitude": 174.9702
},
{
"Name": "Red Vale",
"PostCode": "0792",
"Latitude": -36.6833,
"Longitude": 174.7
},
{
"Name": "Remuera",
"PostCode": "1050",
"Latitude": -36.8804,
"Longitude": 174.7982
},
{
"Name": "Riverhead",
"PostCode": "0820",
"Latitude": -36.75,
"Longitude": 174.6
},
{
"Name": "Royal Oak",
"PostCode": "1345",
"Latitude": -36.9082,
"Longitude": 174.7702
},
{
"Name": "Saint Heliers",
"PostCode": "1740",
"Latitude": -36.85,
"Longitude": 174.8667
},
{
"Name": "Sandringham",
"PostCode": "1025",
"Latitude": -36.8882,
"Longitude": 174.7302
},
{
"Name": "Sandringham",
"PostCode": "1346",
"Latitude": -36.8882,
"Longitude": 174.7302
},
{
"Name": "Shelly Park",
"PostCode": "2014",
"Latitude": -36.9075,
"Longitude": 174.9459
},
{
"Name": "Shelly Park",
"PostCode": "2145",
"Latitude": -36.9075,
"Longitude": 174.9459
},
{
"Name": "Shelly Park",
"PostCode": "2146",
"Latitude": -36.9075,
"Longitude": 174.9459
},
{
"Name": "Silverdale",
"PostCode": "0944",
"Latitude": -36.6187,
"Longitude": 174.6776
},
{
"Name": "Silverdale",
"PostCode": "0992",
"Latitude": -36.6187,
"Longitude": 174.6776
},
{
"Name": "Snells Beach",
"PostCode": "0942",
"Latitude": -36.4082,
"Longitude": 174.7202
},
{
"Name": "Sunnyvale",
"PostCode": "0650",
"Latitude": -36.8882,
"Longitude": 174.6302
},
{
"Name": "Surfdale",
"PostCode": "1081",
"Latitude": -36.7911,
"Longitude": 175.0257
},
{
"Name": "Swanson",
"PostCode": "0614",
"Latitude": -36.8667,
"Longitude": 174.5833
},
{
"Name": "Swanson",
"PostCode": "0653",
"Latitude": -36.8667,
"Longitude": 174.5833
},
{
"Name": "Swanson",
"PostCode": "0655",
"Latitude": -36.8667,
"Longitude": 174.5833
},
{
"Name": "Takanini",
"PostCode": "2112",
"Latitude": -37.0482,
"Longitude": 174.9002
},
{
"Name": "Takanini",
"PostCode": "2245",
"Latitude": -37.0482,
"Longitude": 174.9002
},
{
"Name": "Takapuna",
"PostCode": "0750",
"Latitude": -36.7917,
"Longitude": 174.7758
},
{
"Name": "Tamaki",
"PostCode": "1072",
"Latitude": -36.8882,
"Longitude": 174.8602
},
{
"Name": "Tawharanui",
"PostCode": "0986",
"Latitude": -36.3833,
"Longitude": 174.8
},
{
"Name": "Te Atatu",
"PostCode": "0651",
"Latitude": -36.8333,
"Longitude": 174.65
},
{
"Name": "Te Atatu Peninsula",
"PostCode": "0661",
"Latitude": -36.841,
"Longitude": 174.6522
},
{
"Name": "Te Atatu South",
"PostCode": "0610",
"Latitude": -36.8647,
"Longitude": 174.6477
},
{
"Name": "Te Atatu South",
"PostCode": "0652",
"Latitude": -36.8647,
"Longitude": 174.6477
},
{
"Name": "Te Atatu South",
"PostCode": "0654",
"Latitude": -36.8647,
"Longitude": 174.6477
},
{
"Name": "Te Hana",
"PostCode": "0974",
"Latitude": -36.2667,
"Longitude": 174.5167
},
{
"Name": "Te Kohanga",
"PostCode": "2693",
"Latitude": -37.3141,
"Longitude": 174.8451
},
{
"Name": "Te Kohanga",
"PostCode": "2697",
"Latitude": -37.3141,
"Longitude": 174.8451
},
{
"Name": "Te Papapa",
"PostCode": "1061",
"Latitude": -36.9182,
"Longitude": 174.8002
},
{
"Name": "Three Kings",
"PostCode": "1440",
"Latitude": -36.8982,
"Longitude": 174.7502
},
{
"Name": "Titirangi",
"PostCode": "0642",
"Latitude": -36.9375,
"Longitude": 174.6558
},
{
"Name": "Torbay",
"PostCode": "0742",
"Latitude": -36.696,
"Longitude": 174.7512
},
{
"Name": "Tryphena",
"PostCode": "0962",
"Latitude": -36.3014,
"Longitude": 175.4893
},
{
"Name": "Waiau Pa",
"PostCode": "2122",
"Latitude": -37.1333,
"Longitude": 174.75
},
{
"Name": "Waiau Pa",
"PostCode": "2345",
"Latitude": -37.1333,
"Longitude": 174.75
},
{
"Name": "Waiau Pa",
"PostCode": "2679",
"Latitude": -37.1333,
"Longitude": 174.75
},
{
"Name": "Waikopua",
"PostCode": "2571",
"Latitude": -36.9167,
"Longitude": 174.9833
},
{
"Name": "Waikowhai",
"PostCode": "1445",
"Latitude": -36.9282,
"Longitude": 174.7302
},
{
"Name": "Waimauku",
"PostCode": "0812",
"Latitude": -36.75,
"Longitude": 174.5
},
{
"Name": "Waimauku",
"PostCode": "0882",
"Latitude": -36.75,
"Longitude": 174.5
},
{
"Name": "Waipipi",
"PostCode": "2683",
"Latitude": -37.2167,
"Longitude": 174.6667
},
{
"Name": "Waitakere",
"PostCode": "0660",
"Latitude": -36.8513,
"Longitude": 174.5448
},
{
"Name": "Waitakere",
"PostCode": "0782",
"Latitude": -36.8513,
"Longitude": 174.5448
},
{
"Name": "Waiuku",
"PostCode": "2123",
"Latitude": -37.2481,
"Longitude": 174.7349
},
{
"Name": "Waiuku",
"PostCode": "2341",
"Latitude": -37.2481,
"Longitude": 174.7349
},
{
"Name": "Waiwera",
"PostCode": "0950",
"Latitude": -36.55,
"Longitude": 174.7167
},
{
"Name": "Warkworth",
"PostCode": "0910",
"Latitude": -36.4,
"Longitude": 174.6667
},
{
"Name": "Warkworth",
"PostCode": "0941",
"Latitude": -36.4,
"Longitude": 174.6667
},
{
"Name": "Waterview",
"PostCode": "1026",
"Latitude": -36.8782,
"Longitude": 174.6902
},
{
"Name": "Wayby",
"PostCode": "0972",
"Latitude": -36.3333,
"Longitude": 174.5667
},
{
"Name": "Wellsford",
"PostCode": "0900",
"Latitude": -36.2833,
"Longitude": 174.5167
},
{
"Name": "Wellsford",
"PostCode": "0940",
"Latitude": -36.2833,
"Longitude": 174.5167
},
{
"Name": "Wesley",
"PostCode": "1340",
"Latitude": -36.8982,
"Longitude": 174.7302
},
{
"Name": "West Harbour",
"PostCode": "0657",
"Latitude": -36.8182,
"Longitude": 174.6102
},
{
"Name": "West Harbour",
"PostCode": "0814",
"Latitude": -36.8182,
"Longitude": 174.6102
},
{
"Name": "Western Springs",
"PostCode": "1245",
"Latitude": -36.8667,
"Longitude": 174.7333
},
{
"Name": "Weymouth",
"PostCode": "2103",
"Latitude": -37.0333,
"Longitude": 174.8667
},
{
"Name": "Weymouth",
"PostCode": "2242",
"Latitude": -37.0333,
"Longitude": 174.8667
},
{
"Name": "Weymouth",
"PostCode": "2580",
"Latitude": -37.0333,
"Longitude": 174.8667
},
{
"Name": "Whakatiri",
"PostCode": "2585",
"Latitude": -36.95,
"Longitude": 175.1167
},
{
"Name": "Whangapara",
"PostCode": "0991",
"Latitude": -36.2333,
"Longitude": 175.4
},
{
"Name": "Whangaparaoa",
"PostCode": "0930",
"Latitude": -36.6333,
"Longitude": 174.7667
},
{
"Name": "Whangaparaoa",
"PostCode": "0943",
"Latitude": -36.6333,
"Longitude": 174.7667
},
{
"Name": "Wharehine",
"PostCode": "0973",
"Latitude": -36.3167,
"Longitude": 174.4167
},
{
"Name": "Wharehine",
"PostCode": "0977",
"Latitude": -36.3167,
"Longitude": 174.4167
},
{
"Name": "Whitford",
"PostCode": "2149",
"Latitude": -36.9333,
"Longitude": 174.9667
},
{
"Name": "Whitford",
"PostCode": "2576",
"Latitude": -36.9333,
"Longitude": 174.9667
},
{
"Name": "Wiri",
"PostCode": "2023",
"Latitude": -36.9982,
"Longitude": 174.8602
},
{
"Name": "Wiri",
"PostCode": "2025",
"Latitude": -36.9982,
"Longitude": 174.8602
},
{
"Name": "Wiri",
"PostCode": "2104",
"Latitude": -36.9982,
"Longitude": 174.8602
},
{
"Name": "Wiri",
"PostCode": "2157",
"Latitude": -36.9982,
"Longitude": 174.8602
},
{
"Name": "Wiri",
"PostCode": "2160",
"Latitude": -36.9982,
"Longitude": 174.8602
},
{
"Name": "Wiri",
"PostCode": "2241",
"Latitude": -36.9982,
"Longitude": 174.8602
},
{
"Name": "Woodcocks",
"PostCode": "0981",
"Latitude": -36.45,
"Longitude": 174.5667
},
{
"Name": "Woodhill",
"PostCode": "0881",
"Latitude": -36.75,
"Longitude": 174.4333
}
]
}
]
}
]
},
{
"Name": "Bay of Plenty",
"Code": "E8",
"Provinces": [
{
"Communities": [
{
"Places": [
{
"Name": "Athenree",
"PostCode": "3177",
"Latitude": -37.4667,
"Longitude": 175.9167
},
{
"Name": "Awakaponga",
"PostCode": "3194",
"Latitude": -37.9333,
"Longitude": 176.7667
},
{
"Name": "Bethlehem",
"PostCode": "3147",
"Latitude": -37.695,
"Longitude": 176.1086
},
{
"Name": "Edgecumbe",
"PostCode": "3160",
"Latitude": -37.9833,
"Longitude": 176.8333
},
{
"Name": "Edgecumbe",
"PostCode": "3193",
"Latitude": -37.9833,
"Longitude": 176.8333
},
{
"Name": "Glenholme",
"PostCode": "3044",
"Latitude": -38.1487,
"Longitude": 176.2471
},
{
"Name": "Greerton",
"PostCode": "3142",
"Latitude": -37.7254,
"Longitude": 176.1335
},
{
"Name": "Guthrie",
"PostCode": "3077",
"Latitude": -38.3,
"Longitude": 176.15
},
{
"Name": "Hairini",
"PostCode": "3112",
"Latitude": -37.7333,
"Longitude": 176.1667
},
{
"Name": "Hairini",
"PostCode": "3148",
"Latitude": -37.7333,
"Longitude": 176.1667
},
{
"Name": "Judea",
"PostCode": "3146",
"Latitude": -37.6953,
"Longitude": 176.1441
},
{
"Name": "Kaimai",
"PostCode": "3473",
"Latitude": -37.8333,
"Longitude": 175.9667
},
{
"Name": "Kairua",
"PostCode": "3151",
"Latitude": -37.7167,
"Longitude": 176.2833
},
{
"Name": "Katikati",
"PostCode": "3129",
"Latitude": -37.55,
"Longitude": 175.9167
},
{
"Name": "Katikati",
"PostCode": "3178",
"Latitude": -37.55,
"Longitude": 175.9167
},
{
"Name": "Kawerau",
"PostCode": "3127",
"Latitude": -38.1,
"Longitude": 176.7
},
{
"Name": "Kawerau",
"PostCode": "3169",
"Latitude": -38.1,
"Longitude": 176.7
},
{
"Name": "Kawerau",
"PostCode": "3192",
"Latitude": -38.1,
"Longitude": 176.7
},
{
"Name": "Koutu",
"PostCode": "3046",
"Latitude": -38.1197,
"Longitude": 176.2383
},
{
"Name": "Lower Kaimai",
"PostCode": "3171",
"Latitude": -37.8,
"Longitude": 176.0333
},
{
"Name": "Mamaku",
"PostCode": "3020",
"Latitude": -38.1,
"Longitude": 176.0833
},
{
"Name": "Mamaku",
"PostCode": "3049",
"Latitude": -38.1,
"Longitude": 176.0833
},
{
"Name": "Mangakakahi",
"PostCode": "3047",
"Latitude": -38.1335,
"Longitude": 176.2344
},
{
"Name": "Matata",
"PostCode": "3168",
"Latitude": -37.8833,
"Longitude": 176.75
},
{
"Name": "Mount Maunganui",
"PostCode": "3150",
"Latitude": -37.6417,
"Longitude": 176.1861
},
{
"Name": "Murupara",
"PostCode": "3025",
"Latitude": -38.4667,
"Longitude": 176.7
},
{
"Name": "Murupara",
"PostCode": "3062",
"Latitude": -38.4667,
"Longitude": 176.7
},
{
"Name": "Ngapuna",
"PostCode": "3040",
"Latitude": -38.1468,
"Longitude": 176.2747
},
{
"Name": "Ngapuna",
"PostCode": "3045",
"Latitude": -38.1468,
"Longitude": 176.2747
},
{
"Name": "Ngawaro",
"PostCode": "3188",
"Latitude": -37.9333,
"Longitude": 176.15
},
{
"Name": "Ngongotaha",
"PostCode": "3041",
"Latitude": -38.0833,
"Longitude": 176.2
},
{
"Name": "Ohinemutu",
"PostCode": "3010",
"Latitude": -38.1276,
"Longitude": 176.2446
},
{
"Name": "Ohinepanea",
"PostCode": "3186",
"Latitude": -37.8219,
"Longitude": 176.5643
},
{
"Name": "Ohope Beach",
"PostCode": "3121",
"Latitude": -37.9752,
"Longitude": 177.0759
},
{
"Name": "Ohope Beach",
"PostCode": "3161",
"Latitude": -37.9752,
"Longitude": 177.0759
},
{
"Name": "Omaio",
"PostCode": "3199",
"Latitude": -37.8167,
"Longitude": 177.6667
},
{
"Name": "Omanu",
"PostCode": "3116",
"Latitude": -37.6568,
"Longitude": 176.2084
},
{
"Name": "Omanu",
"PostCode": "3149",
"Latitude": -37.6568,
"Longitude": 176.2084
},
{
"Name": "Omanu Beach",
"PostCode": "3152",
"Latitude": -37.67,
"Longitude": 176.229
},
{
"Name": "Omokoroa Beach",
"PostCode": "3114",
"Latitude": -37.6333,
"Longitude": 176.05
},
{
"Name": "Omokoroa Beach",
"PostCode": "3154",
"Latitude": -37.6333,
"Longitude": 176.05
},
{
"Name": "Omokoroa Beach",
"PostCode": "3172",
"Latitude": -37.6333,
"Longitude": 176.05
},
{
"Name": "Opotiki",
"PostCode": "3122",
"Latitude": -38.0091,
"Longitude": 177.2871
},
{
"Name": "Opotiki",
"PostCode": "3162",
"Latitude": -38.0091,
"Longitude": 177.2871
},
{
"Name": "Oropi",
"PostCode": "3173",
"Latitude": -37.8395,
"Longitude": 176.1611
},
{
"Name": "Otangihaku",
"PostCode": "3191",
"Latitude": -38.0333,
"Longitude": 177.0
},
{
"Name": "Otumoetai",
"PostCode": "3145",
"Latitude": -37.6716,
"Longitude": 176.1386
},
{
"Name": "Owhata",
"PostCode": "3042",
"Latitude": -38.1326,
"Longitude": 176.2982
},
{
"Name": "Paengaroa",
"PostCode": "3189",
"Latitude": -37.8167,
"Longitude": 176.4167
},
{
"Name": "Papamoa",
"PostCode": "3187",
"Latitude": -37.7333,
"Longitude": 176.3
},
{
"Name": "Papamoa Beach",
"PostCode": "3118",
"Latitude": -37.6973,
"Longitude": 176.2846
},
{
"Name": "Poroporo",
"PostCode": "3120",
"Latitude": -37.9833,
"Longitude": 176.9667
},
{
"Name": "Poroporo",
"PostCode": "3159",
"Latitude": -37.9833,
"Longitude": 176.9667
},
{
"Name": "Reporoa",
"PostCode": "3060",
"Latitude": -38.4359,
"Longitude": 176.3412
},
{
"Name": "Ruatahuna",
"PostCode": "3079",
"Latitude": -38.6138,
"Longitude": 176.9592
},
{
"Name": "Sunnybrook",
"PostCode": "3015",
"Latitude": -38.1482,
"Longitude": 176.2102
},
{
"Name": "Tahorakui",
"PostCode": "3081",
"Latitude": -38.479,
"Longitude": 176.2724
},
{
"Name": "Tahorakui",
"PostCode": "3083",
"Latitude": -38.479,
"Longitude": 176.2724
},
{
"Name": "Taneatua",
"PostCode": "3123",
"Latitude": -38.0667,
"Longitude": 177.0167
},
{
"Name": "Taneatua",
"PostCode": "3163",
"Latitude": -38.0667,
"Longitude": 177.0167
},
{
"Name": "Tarukenga",
"PostCode": "3072",
"Latitude": -38.0752,
"Longitude": 176.1581
},
{
"Name": "Tauranga",
"PostCode": "3110",
"Latitude": -37.6861,
"Longitude": 176.1667
},
{
"Name": "Tauranga",
"PostCode": "3140",
"Latitude": -37.6861,
"Longitude": 176.1667
},
{
"Name": "Tauranga",
"PostCode": "3141",
"Latitude": -37.6861,
"Longitude": 176.1667
},
{
"Name": "Tauranga",
"PostCode": "3143",
"Latitude": -37.6861,
"Longitude": 176.1667
},
{
"Name": "Tauranga",
"PostCode": "3144",
"Latitude": -37.6861,
"Longitude": 176.1667
},
{
"Name": "Te Puke",
"PostCode": "3119",
"Latitude": -37.7782,
"Longitude": 176.3302
},
{
"Name": "Te Puke",
"PostCode": "3153",
"Latitude": -37.7782,
"Longitude": 176.3302
},
{
"Name": "Te Puke",
"PostCode": "3182",
"Latitude": -37.7782,
"Longitude": 176.3302
},
{
"Name": "Te Teko",
"PostCode": "3167",
"Latitude": -38.0365,
"Longitude": 176.7936
},
{
"Name": "Tihiotonga",
"PostCode": "3048",
"Latitude": -38.1726,
"Longitude": 176.2432
},
{
"Name": "Tikitere",
"PostCode": "3074",
"Latitude": -38.0667,
"Longitude": 176.3667
},
{
"Name": "Toatoa",
"PostCode": "3197",
"Latitude": -38.1333,
"Longitude": 177.5
},
{
"Name": "Upper Papamoa",
"PostCode": "3175",
"Latitude": -37.7667,
"Longitude": 176.25
},
{
"Name": "Upper Papamoa",
"PostCode": "3183",
"Latitude": -37.7667,
"Longitude": 176.25
},
{
"Name": "Waihi Beach",
"PostCode": "3611",
"Latitude": -37.4,
"Longitude": 175.9333
},
{
"Name": "Waihi Beach",
"PostCode": "3642",
"Latitude": -37.4,
"Longitude": 175.9333
},
{
"Name": "Waimana",
"PostCode": "3164",
"Latitude": -38.15,
"Longitude": 177.0833
},
{
"Name": "Waimana",
"PostCode": "3196",
"Latitude": -38.15,
"Longitude": 177.0833
},
{
"Name": "Waimana",
"PostCode": "3198",
"Latitude": -38.15,
"Longitude": 177.0833
},
{
"Name": "Waimangu",
"PostCode": "3073",
"Latitude": -38.284,
"Longitude": 176.3826
},
{
"Name": "Whakamarama",
"PostCode": "3176",
"Latitude": -37.7333,
"Longitude": 176.0
},
{
"Name": "Whakarewarewa",
"PostCode": "3043",
"Latitude": -38.1603,
"Longitude": 176.2651
},
{
"Name": "Whakatane",
"PostCode": "3158",
"Latitude": -37.9585,
"Longitude": 176.9855
}
]
}
]
}
]
},
{
"Name": "Canterbury",
"Code": "E9",
"Provinces": [
{
"Communities": [
{
"Places": [
{
"Name": "Akaroa",
"PostCode": "7520",
"Latitude": -43.8038,
"Longitude": 172.9682
},
{
"Name": "Akaroa",
"PostCode": "7542",
"Latitude": -43.8038,
"Longitude": 172.9682
},
{
"Name": "Akaroa",
"PostCode": "7581",
"Latitude": -43.8038,
"Longitude": 172.9682
},
{
"Name": "Allandale",
"PostCode": "8971",
"Latitude": -43.65,
"Longitude": 172.65
},
{
"Name": "Allenton",
"PostCode": "7700",
"Latitude": -43.8883,
"Longitude": 171.7401
},
{
"Name": "Allenton",
"PostCode": "7742",
"Latitude": -43.8883,
"Longitude": 171.7401
},
{
"Name": "Amberley",
"PostCode": "7410",
"Latitude": -43.1559,
"Longitude": 172.7297
},
{
"Name": "Amberley",
"PostCode": "7441",
"Latitude": -43.1559,
"Longitude": 172.7297
},
{
"Name": "Amberley",
"PostCode": "7481",
"Latitude": -43.1559,
"Longitude": 172.7297
},
{
"Name": "Aranui",
"PostCode": "8061",
"Latitude": -43.5167,
"Longitude": 172.7
},
{
"Name": "Aranui",
"PostCode": "8643",
"Latitude": -43.5167,
"Longitude": 172.7
},
{
"Name": "Arundel",
"PostCode": "7992",
"Latitude": -43.9833,
"Longitude": 171.2833
},
{
"Name": "Ataahua",
"PostCode": "7591",
"Latitude": -43.7833,
"Longitude": 172.65
},
{
"Name": "Avonside",
"PostCode": "8148",
"Latitude": -43.5183,
"Longitude": 172.6601
},
{
"Name": "Aylesbury",
"PostCode": "7671",
"Latitude": -43.5333,
"Longitude": 172.2667
},
{
"Name": "Beckenham",
"PostCode": "8242",
"Latitude": -43.565,
"Longitude": 172.6411
},
{
"Name": "Belfast",
"PostCode": "8546",
"Latitude": -43.45,
"Longitude": 172.6333
},
{
"Name": "Bells",
"PostCode": "7400",
"Latitude": -43.3,
"Longitude": 172.5833
},
{
"Name": "Bells",
"PostCode": "7440",
"Latitude": -43.3,
"Longitude": 172.5833
},
{
"Name": "Bromley",
"PostCode": "8062",
"Latitude": -43.5283,
"Longitude": 172.6801
},
{
"Name": "Bromley",
"PostCode": "8642",
"Latitude": -43.5283,
"Longitude": 172.6801
},
{
"Name": "Burnham",
"PostCode": "7600",
"Latitude": -43.6167,
"Longitude": 172.3167
},
{
"Name": "Burnside",
"PostCode": "8053",
"Latitude": -43.4983,
"Longitude": 172.5601
},
{
"Name": "Burnside",
"PostCode": "8545",
"Latitude": -43.4983,
"Longitude": 172.5601
},
{
"Name": "Cashmere Hills",
"PostCode": "8022",
"Latitude": -43.5833,
"Longitude": 172.6333
},
{
"Name": "Cave",
"PostCode": "7957",
"Latitude": -44.3167,
"Longitude": 170.95
},
{
"Name": "Charwell Forks",
"PostCode": "7373",
"Latitude": -42.4167,
"Longitude": 173.3667
},
{
"Name": "Cheviot",
"PostCode": "7310",
"Latitude": -42.8167,
"Longitude": 173.2667
},
{
"Name": "Cheviot",
"PostCode": "7341",
"Latitude": -42.8167,
"Longitude": 173.2667
},
{
"Name": "Christchurch",
"PostCode": "8011",
"Latitude": -43.5333,
"Longitude": 172.6333
},
{
"Name": "Christchurch",
"PostCode": "8013",
"Latitude": -43.5333,
"Longitude": 172.6333
},
{
"Name": "Christchurch",
"PostCode": "8140",
"Latitude": -43.5333,
"Longitude": 172.6333
},
{
"Name": "Christchurch",
"PostCode": "8141",
"Latitude": -43.5333,
"Longitude": 172.6333
},
{
"Name": "Christchurch",
"PostCode": "8142",
"Latitude": -43.5333,
"Longitude": 172.6333
},
{
"Name": "Christchurch",
"PostCode": "8144",
"Latitude": -43.5333,
"Longitude": 172.6333
},
{
"Name": "Claremont",
"PostCode": "7974",
"Latitude": -44.4,
"Longitude": 171.0833
},
{
"Name": "Coalgate",
"PostCode": "7646",
"Latitude": -43.4833,
"Longitude": 171.9667
},
{
"Name": "Coutts Island",
"PostCode": "7670",
"Latitude": -43.4333,
"Longitude": 172.6167
},
{
"Name": "Craigieburn",
"PostCode": "7580",
"Latitude": -43.1,
"Longitude": 171.8667
},
{
"Name": "Culverden",
"PostCode": "7345",
"Latitude": -42.7667,
"Longitude": 172.85
},
{
"Name": "Cust",
"PostCode": "7444",
"Latitude": -43.3167,
"Longitude": 172.3667
},
{
"Name": "Dallington",
"PostCode": "8640",
"Latitude": -43.5083,
"Longitude": 172.6701
},
{
"Name": "Darfield",
"PostCode": "7510",
"Latitude": -43.4833,
"Longitude": 172.1167
},
{
"Name": "Darfield",
"PostCode": "7541",
"Latitude": -43.4833,
"Longitude": 172.1167
},
{
"Name": "Diamond Harbour",
"PostCode": "8941",
"Latitude": -43.6289,
"Longitude": 172.7254
},
{
"Name": "Diamond Harbour",
"PostCode": "8942",
"Latitude": -43.6289,
"Longitude": 172.7254
},
{
"Name": "Domett",
"PostCode": "7383",
"Latitude": -42.85,
"Longitude": 173.2167
},
{
"Name": "Dorie",
"PostCode": "7781",
"Latitude": -43.8833,
"Longitude": 172.15
},
{
"Name": "Doyleston",
"PostCode": "7548",
"Latitude": -43.75,
"Longitude": 172.3
},
{
"Name": "Dunsandel",
"PostCode": "7657",
"Latitude": -43.6667,
"Longitude": 172.1833
},
{
"Name": "Dunsandel",
"PostCode": "7682",
"Latitude": -43.6667,
"Longitude": 172.1833
},
{
"Name": "Duntroon",
"PostCode": "9445",
"Latitude": -44.8554,
"Longitude": 170.6848
},
{
"Name": "Duvauchelle",
"PostCode": "7545",
"Latitude": -43.75,
"Longitude": 172.9333
},
{
"Name": "Esk Valley",
"PostCode": "7971",
"Latitude": -44.5333,
"Longitude": 171.0833
},
{
"Name": "Esk Valley",
"PostCode": "7988",
"Latitude": -44.5333,
"Longitude": 171.0833
},
{
"Name": "Ethelton",
"PostCode": "7382",
"Latitude": -42.8833,
"Longitude": 173.0833
},
{
"Name": "Fairlie",
"PostCode": "7925",
"Latitude": -44.1,
"Longitude": 170.8333
},
{
"Name": "Fairlie",
"PostCode": "7949",
"Latitude": -44.1,
"Longitude": 170.8333
},
{
"Name": "Fendalton",
"PostCode": "8041",
"Latitude": -43.5167,
"Longitude": 172.6
},
{
"Name": "Fendalton",
"PostCode": "8540",
"Latitude": -43.5167,
"Longitude": 172.6
},
{
"Name": "Flaxton",
"PostCode": "7691",
"Latitude": -43.35,
"Longitude": 172.6333
},
{
"Name": "Flemington",
"PostCode": "7774",
"Latitude": -44.0167,
"Longitude": 171.7333
},
{
"Name": "Geraldine",
"PostCode": "7930",
"Latitude": -44.0906,
"Longitude": 171.2446
},
{
"Name": "Geraldine",
"PostCode": "7956",
"Latitude": -44.0906,
"Longitude": 171.2446
},
{
"Name": "Glentanner",
"PostCode": "7946",
"Latitude": -43.9073,
"Longitude": 170.1234
},
{
"Name": "Glentanner",
"PostCode": "7999",
"Latitude": -43.9073,
"Longitude": 170.1234
},
{
"Name": "Goose Bay",
"PostCode": "7374",
"Latitude": -42.479,
"Longitude": 173.5278
},
{
"Name": "Halswell",
"PostCode": "8025",
"Latitude": -43.5833,
"Longitude": 172.5667
},
{
"Name": "Halswell",
"PostCode": "8245",
"Latitude": -43.5833,
"Longitude": 172.5667
},
{
"Name": "Hampstead",
"PostCode": "7740",
"Latitude": -43.9083,
"Longitude": 171.7501
},
{
"Name": "Hanmer Springs",
"PostCode": "7334",
"Latitude": -42.5167,
"Longitude": 172.8167
},
{
"Name": "Hanmer Springs",
"PostCode": "7360",
"Latitude": -42.5167,
"Longitude": 172.8167
},
{
"Name": "Hanmer Springs",
"PostCode": "7392",
"Latitude": -42.5167,
"Longitude": 172.8167
},
{
"Name": "Hanmer Springs",
"PostCode": "7395",
"Latitude": -42.5167,
"Longitude": 172.8167
},
{
"Name": "Harewood",
"PostCode": "8051",
"Latitude": -43.4833,
"Longitude": 172.5833
},
{
"Name": "Harewood",
"PostCode": "8543",
"Latitude": -43.4833,
"Longitude": 172.5833
},
{
"Name": "Harewood",
"PostCode": "8544",
"Latitude": -43.4833,
"Longitude": 172.5833
},
{
"Name": "Hawarden",
"PostCode": "7348",
"Latitude": -42.9333,
"Longitude": 172.6333
},
{
"Name": "Hawkeswood",
"PostCode": "7384",
"Latitude": -42.65,
"Longitude": 173.3333
},
{
"Name": "Hawkins",
"PostCode": "7571",
"Latitude": -43.4833,
"Longitude": 172.0333
},
{
"Name": "Hazelburn",
"PostCode": "7982",
"Latitude": -44.2,
"Longitude": 170.9833
},
{
"Name": "Hei Hei",
"PostCode": "8042",
"Latitude": -43.5283,
"Longitude": 172.5201
},
{
"Name": "Highbank",
"PostCode": "7782",
"Latitude": -43.6167,
"Longitude": 171.75
},
{
"Name": "Hillsborough",
"PostCode": "8023",
"Latitude": -43.5626,
"Longitude": 172.6737
},
{
"Name": "Hillsborough",
"PostCode": "8246",
"Latitude": -43.5626,
"Longitude": 172.6737
},
{
"Name": "Hinds",
"PostCode": "7747",
"Latitude": -44.0,
"Longitude": 171.5667
},
{
"Name": "Hinds",
"PostCode": "7773",
"Latitude": -44.0,
"Longitude": 171.5667
},
{
"Name": "Hornby",
"PostCode": "8441",
"Latitude": -43.55,
"Longitude": 172.5333
},
{
"Name": "Hororata",
"PostCode": "7544",
"Latitude": -43.5333,
"Longitude": 171.95
},
{
"Name": "Ilam",
"PostCode": "8444",
"Latitude": -43.5183,
"Longitude": 172.5701
},
{
"Name": "Kaiapoi",
"PostCode": "7630",
"Latitude": -43.3783,
"Longitude": 172.6401
},
{
"Name": "Kaiapoi",
"PostCode": "7644",
"Latitude": -43.3783,
"Longitude": 172.6401
},
{
"Name": "Kaikoura Suburban",
"PostCode": "7340",
"Latitude": -42.3833,
"Longitude": 173.65
},
{
"Name": "Kaingapai",
"PostCode": "9498",
"Latitude": -44.6,
"Longitude": 170.5667
},
{
"Name": "Kekerengu",
"PostCode": "7260",
"Latitude": -42.0012,
"Longitude": 174.0077
},
{
"Name": "Kensington",
"PostCode": "7943",
"Latitude": -44.412,
"Longitude": 171.247
},
{
"Name": "Kirwee",
"PostCode": "7543",
"Latitude": -43.5,
"Longitude": 172.2167
},
{
"Name": "Kurow",
"PostCode": "9446",
"Latitude": -44.7334,
"Longitude": 170.4696
},
{
"Name": "Lake Coleridge",
"PostCode": "7572",
"Latitude": -43.3667,
"Longitude": 171.5333
},
{
"Name": "Lake Coleridge",
"PostCode": "7791",
"Latitude": -43.3667,
"Longitude": 171.5333
},
{
"Name": "Lake Tekapo",
"PostCode": "7945",
"Latitude": -44.0064,
"Longitude": 170.4803
},
{
"Name": "Leeston",
"PostCode": "7632",
"Latitude": -43.7667,
"Longitude": 172.3
},
{
"Name": "Leeston",
"PostCode": "7656",
"Latitude": -43.7667,
"Longitude": 172.3
},
{
"Name": "Leithfield",
"PostCode": "7446",
"Latitude": -43.2,
"Longitude": 172.7333
},
{
"Name": "Lincoln",
"PostCode": "7608",
"Latitude": -43.65,
"Longitude": 172.4833
},
{
"Name": "Lincoln",
"PostCode": "7640",
"Latitude": -43.65,
"Longitude": 172.4833
},
{
"Name": "Lincoln",
"PostCode": "7647",
"Latitude": -43.65,
"Longitude": 172.4833
},
{
"Name": "Linwood",
"PostCode": "8147",
"Latitude": -43.5333,
"Longitude": 172.65
},
{
"Name": "Lismore",
"PostCode": "7775",
"Latitude": -43.9,
"Longitude": 171.4833
},
{
"Name": "Little River",
"PostCode": "7546",
"Latitude": -43.7667,
"Longitude": 172.7833
},
{
"Name": "Lyndhurst",
"PostCode": "7776",
"Latitude": -43.7,
"Longitude": 171.7167
},
{
"Name": "Lyttelton",
"PostCode": "8082",
"Latitude": -43.6031,
"Longitude": 172.7176
},
{
"Name": "Lyttelton",
"PostCode": "8841",
"Latitude": -43.6031,
"Longitude": 172.7176
},
{
"Name": "Masons Flat",
"PostCode": "7385",
"Latitude": -42.9,
"Longitude": 172.55
},
{
"Name": "Mawaro",
"PostCode": "7984",
"Latitude": -44.3,
"Longitude": 170.8833
},
{
"Name": "Mayfield",
"PostCode": "7748",
"Latitude": -43.8167,
"Longitude": 171.4167
},
{
"Name": "Mayfield",
"PostCode": "7778",
"Latitude": -43.8167,
"Longitude": 171.4167
},
{
"Name": "Methven",
"PostCode": "7730",
"Latitude": -43.6333,
"Longitude": 171.65
},
{
"Name": "Methven",
"PostCode": "7745",
"Latitude": -43.6333,
"Longitude": 171.65
},
{
"Name": "Mitcham",
"PostCode": "7772",
"Latitude": -43.75,
"Longitude": 171.85
},
{
"Name": "Morven",
"PostCode": "7980",
"Latitude": -44.8333,
"Longitude": 171.1167
},
{
"Name": "Motukarara",
"PostCode": "7672",
"Latitude": -43.7333,
"Longitude": 172.5833
},
{
"Name": "Mount Pleasant",
"PostCode": "8247",
"Latitude": -43.5628,
"Longitude": 172.7152
},
{
"Name": "Mount Somers",
"PostCode": "7746",
"Latitude": -43.7167,
"Longitude": 171.4
},
{
"Name": "New Brighton",
"PostCode": "8641",
"Latitude": -43.5167,
"Longitude": 172.7333
},
{
"Name": "North Loburn",
"PostCode": "7472",
"Latitude": -43.2167,
"Longitude": 172.5
},
{
"Name": "North Loburn",
"PostCode": "7474",
"Latitude": -43.2167,
"Longitude": 172.5
},
{
"Name": "North New Brighton",
"PostCode": "8842",
"Latitude": -43.4918,
"Longitude": 172.7202
},
{
"Name": "Omarama",
"PostCode": "9448",
"Latitude": -44.4885,
"Longitude": 169.9663
},
{
"Name": "Omihi",
"PostCode": "7483",
"Latitude": -43.0167,
"Longitude": 172.85
},
{
"Name": "Opawa",
"PostCode": "8145",
"Latitude": -43.555,
"Longitude": 172.6614
},
{
"Name": "Orton",
"PostCode": "7986",
"Latitude": -44.1667,
"Longitude": 171.4333
},
{
"Name": "Ouruhia",
"PostCode": "8083",
"Latitude": -43.45,
"Longitude": 172.65
},
{
"Name": "Oxford",
"PostCode": "7430",
"Latitude": -43.3,
"Longitude": 172.1833
},
{
"Name": "Oxford",
"PostCode": "7443",
"Latitude": -43.3,
"Longitude": 172.1833
},
{
"Name": "Oxford",
"PostCode": "7495",
"Latitude": -43.3,
"Longitude": 172.1833
},
{
"Name": "Papanui",
"PostCode": "8052",
"Latitude": -43.5,
"Longitude": 172.6167
},
{
"Name": "Papanui",
"PostCode": "8542",
"Latitude": -43.5,
"Longitude": 172.6167
},
{
"Name": "Pareora",
"PostCode": "7912",
"Latitude": -44.5,
"Longitude": 171.2
},
{
"Name": "Parkside",
"PostCode": "7942",
"Latitude": -44.4029,
"Longitude": 171.2546
},
{
"Name": "Pigeon Bay",
"PostCode": "8972",
"Latitude": -43.688,
"Longitude": 172.8929
},
{
"Name": "Pleasant Point",
"PostCode": "7903",
"Latitude": -44.2667,
"Longitude": 171.1333
},
{
"Name": "Pleasant Point",
"PostCode": "7947",
"Latitude": -44.2667,
"Longitude": 171.1333
},
{
"Name": "Prebbleton",
"PostCode": "7604",
"Latitude": -43.5833,
"Longitude": 172.5167
},
{
"Name": "Puhuka",
"PostCode": "7941",
"Latitude": -44.3583,
"Longitude": 171.2301
},
{
"Name": "Rakaia",
"PostCode": "7710",
"Latitude": -43.75,
"Longitude": 172.0167
},
{
"Name": "Rakaia",
"PostCode": "7743",
"Latitude": -43.75,
"Longitude": 172.0167
},
{
"Name": "Riccarton",
"PostCode": "8440",
"Latitude": -43.5283,
"Longitude": 172.5901
},
{
"Name": "Robinsons Bay",
"PostCode": "7583",
"Latitude": -43.7667,
"Longitude": 172.9667
},
{
"Name": "Rolleston",
"PostCode": "7614",
"Latitude": -43.5833,
"Longitude": 172.3833
},
{
"Name": "Rolleston",
"PostCode": "7643",
"Latitude": -43.5833,
"Longitude": 172.3833
},
{
"Name": "Rolleston",
"PostCode": "7675",
"Latitude": -43.5833,
"Longitude": 172.3833
},
{
"Name": "Rotherham",
"PostCode": "7391",
"Latitude": -42.7,
"Longitude": 172.95
},
{
"Name": "Saint Albans",
"PostCode": "8014",
"Latitude": -43.5167,
"Longitude": 172.6167
},
{
"Name": "Saint Albans",
"PostCode": "8143",
"Latitude": -43.5167,
"Longitude": 172.6167
},
{
"Name": "Saint Albans",
"PostCode": "8146",
"Latitude": -43.5167,
"Longitude": 172.6167
},
{
"Name": "Seadown",
"PostCode": "7973",
"Latitude": -44.3,
"Longitude": 171.2667
},
{
"Name": "Seafield",
"PostCode": "7777",
"Latitude": -43.9167,
"Longitude": 171.9
},
{
"Name": "Seaview",
"PostCode": "7910",
"Latitude": -44.3966,
"Longitude": 171.2415
},
{
"Name": "Sefton",
"PostCode": "7445",
"Latitude": -43.25,
"Longitude": 172.6667
},
{
"Name": "Sheffield",
"PostCode": "7500",
"Latitude": -43.3833,
"Longitude": 172.0167
},
{
"Name": "Sheffield",
"PostCode": "7540",
"Latitude": -43.3833,
"Longitude": 172.0167
},
{
"Name": "Sherwood Downs",
"PostCode": "7990",
"Latitude": -43.9667,
"Longitude": 170.8667
},
{
"Name": "Somerfield",
"PostCode": "8244",
"Latitude": -43.5593,
"Longitude": 172.6313
},
{
"Name": "Somerton",
"PostCode": "7784",
"Latitude": -43.75,
"Longitude": 171.9167
},
{
"Name": "Southbridge",
"PostCode": "7602",
"Latitude": -43.8167,
"Longitude": 172.25
},
{
"Name": "Southbridge",
"PostCode": "7642",
"Latitude": -43.8167,
"Longitude": 172.25
},
{
"Name": "Southbridge",
"PostCode": "7683",
"Latitude": -43.8167,
"Longitude": 172.25
},
{
"Name": "Southburn",
"PostCode": "7972",
"Latitude": -44.45,
"Longitude": 171.1
},
{
"Name": "Spotswood",
"PostCode": "7381",
"Latitude": -42.75,
"Longitude": 173.2667
},
{
"Name": "Spreydon",
"PostCode": "8024",
"Latitude": -43.5567,
"Longitude": 172.6169
},
{
"Name": "Spreydon",
"PostCode": "8149",
"Latitude": -43.5567,
"Longitude": 172.6169
},
{
"Name": "Spreydon",
"PostCode": "8243",
"Latitude": -43.5567,
"Longitude": 172.6169
},
{
"Name": "Springfield",
"PostCode": "7649",
"Latitude": -43.3333,
"Longitude": 171.9167
},
{
"Name": "Springfield",
"PostCode": "7681",
"Latitude": -43.3333,
"Longitude": 171.9167
},
{
"Name": "Springston",
"PostCode": "7616",
"Latitude": -43.65,
"Longitude": 172.4167
},
{
"Name": "Springston South",
"PostCode": "7674",
"Latitude": -43.6833,
"Longitude": 172.4333
},
{
"Name": "Staveley",
"PostCode": "7771",
"Latitude": -43.65,
"Longitude": 171.4333
},
{
"Name": "Sumner",
"PostCode": "8081",
"Latitude": -43.5683,
"Longitude": 172.7601
},
{
"Name": "Sumner",
"PostCode": "8840",
"Latitude": -43.5683,
"Longitude": 172.7601
},
{
"Name": "Sutherlands",
"PostCode": "7983",
"Latitude": -44.2833,
"Longitude": 171.05
},
{
"Name": "Sydenham",
"PostCode": "8240",
"Latitude": -43.547,
"Longitude": 172.6359
},
{
"Name": "Tai Tapu",
"PostCode": "7645",
"Latitude": -43.6667,
"Longitude": 172.55
},
{
"Name": "Te Moana",
"PostCode": "7991",
"Latitude": -44.0667,
"Longitude": 171.1333
},
{
"Name": "Te Pirita",
"PostCode": "7783",
"Latitude": -43.6667,
"Longitude": 171.95
},
{
"Name": "Templeton",
"PostCode": "7676",
"Latitude": -43.55,
"Longitude": 172.4667
},
{
"Name": "Templeton",
"PostCode": "8445",
"Latitude": -43.55,
"Longitude": 172.4667
},
{
"Name": "Temuka",
"PostCode": "7920",
"Latitude": -44.2283,
"Longitude": 171.2801
},
{
"Name": "Temuka",
"PostCode": "7948",
"Latitude": -44.2283,
"Longitude": 171.2801
},
{
"Name": "Timaru",
"PostCode": "7940",
"Latitude": -44.3967,
"Longitude": 171.2536
},
{
"Name": "Tinwald",
"PostCode": "7741",
"Latitude": -43.9167,
"Longitude": 171.7167
},
{
"Name": "Tormore",
"PostCode": "7387",
"Latitude": -42.9,
"Longitude": 173.1333
},
{
"Name": "Twizel",
"PostCode": "7901",
"Latitude": -44.2584,
"Longitude": 170.1006
},
{
"Name": "Twizel",
"PostCode": "7944",
"Latitude": -44.2584,
"Longitude": 170.1006
},
{
"Name": "Upper Riccarton",
"PostCode": "8442",
"Latitude": -43.5283,
"Longitude": 172.5701
},
{
"Name": "Waiau",
"PostCode": "7332",
"Latitude": -42.65,
"Longitude": 173.05
},
{
"Name": "Waiau",
"PostCode": "7343",
"Latitude": -42.65,
"Longitude": 173.05
},
{
"Name": "Waiau",
"PostCode": "7379",
"Latitude": -42.65,
"Longitude": 173.05
},
{
"Name": "Waihao Forks",
"PostCode": "7979",
"Latitude": -44.8,
"Longitude": 170.9333
},
{
"Name": "Waihaorunga",
"PostCode": "7977",
"Latitude": -44.75,
"Longitude": 170.8167
},
{
"Name": "Waikari",
"PostCode": "7420",
"Latitude": -42.9667,
"Longitude": 172.6833
},
{
"Name": "Waikari",
"PostCode": "7442",
"Latitude": -42.9667,
"Longitude": 172.6833
},
{
"Name": "Waikari",
"PostCode": "7491",
"Latitude": -42.9667,
"Longitude": 172.6833
},
{
"Name": "Waikarua",
"PostCode": "7987",
"Latitude": -44.0333,
"Longitude": 170.8833
},
{
"Name": "Waikuku",
"PostCode": "7473",
"Latitude": -43.3,
"Longitude": 172.6833
},
{
"Name": "Waikuku Beach",
"PostCode": "7402",
"Latitude": -43.2833,
"Longitude": 172.7167
},
{
"Name": "Waikuku Beach",
"PostCode": "7448",
"Latitude": -43.2833,
"Longitude": 172.7167
},
{
"Name": "Waimate",
"PostCode": "7924",
"Latitude": -44.7284,
"Longitude": 171.0501
},
{
"Name": "Waimate",
"PostCode": "7960",
"Latitude": -44.7284,
"Longitude": 171.0501
},
{
"Name": "Waimate",
"PostCode": "7978",
"Latitude": -44.7284,
"Longitude": 171.0501
},
{
"Name": "Wainui",
"PostCode": "7582",
"Latitude": -43.8167,
"Longitude": 172.9
},
{
"Name": "Waipara",
"PostCode": "7447",
"Latitude": -43.0667,
"Longitude": 172.75
},
{
"Name": "Waipara",
"PostCode": "7482",
"Latitude": -43.0667,
"Longitude": 172.75
},
{
"Name": "Waitohi Flat",
"PostCode": "7985",
"Latitude": -44.2167,
"Longitude": 171.1833
},
{
"Name": "West Eyreton",
"PostCode": "7471",
"Latitude": -43.35,
"Longitude": 172.3833
},
{
"Name": "Wetheral",
"PostCode": "7692",
"Latitude": -43.3667,
"Longitude": 172.5833
},
{
"Name": "Whitecliffs",
"PostCode": "7673",
"Latitude": -43.4667,
"Longitude": 171.9
},
{
"Name": "Wigram",
"PostCode": "8443",
"Latitude": -43.55,
"Longitude": 172.55
},
{
"Name": "Winchester",
"PostCode": "7958",
"Latitude": -44.2,
"Longitude": 171.2833
},
{
"Name": "Woodend",
"PostCode": "7610",
"Latitude": -43.3167,
"Longitude": 172.6667
},
{
"Name": "Woodend",
"PostCode": "7641",
"Latitude": -43.3167,
"Longitude": 172.6667
},
{
"Name": "Woolston",
"PostCode": "8241",
"Latitude": -43.5473,
"Longitude": 172.6774
}
]
}
]
}
]
},
{
"Name": "Gisborne",
"Code": "F1",
"Provinces": [
{
"Communities": [
{
"Places": [
{
"Name": "Ahititi",
"PostCode": "4091",
"Latitude": -38.4333,
"Longitude": 178.05
},
{
"Name": "Kaiti",
"PostCode": "4010",
"Latitude": -38.6682,
"Longitude": 178.0302
},
{
"Name": "Kaiti",
"PostCode": "4040",
"Latitude": -38.6682,
"Longitude": 178.0302
},
{
"Name": "Matawai",
"PostCode": "4051",
"Latitude": -38.35,
"Longitude": 177.5333
},
{
"Name": "Motu",
"PostCode": "4052",
"Latitude": -38.25,
"Longitude": 177.55
},
{
"Name": "Otoko",
"PostCode": "4092",
"Latitude": -38.4,
"Longitude": 177.6667
},
{
"Name": "Pakihiroa",
"PostCode": "4083",
"Latitude": -37.85,
"Longitude": 178.0667
},
{
"Name": "Patutahi",
"PostCode": "4045",
"Latitude": -38.6167,
"Longitude": 177.9
},
{
"Name": "Pehiri",
"PostCode": "4072",
"Latitude": -38.6333,
"Longitude": 177.7
},
{
"Name": "Rakauroa",
"PostCode": "4075",
"Latitude": -38.4167,
"Longitude": 177.55
},
{
"Name": "Rangitukia",
"PostCode": "4049",
"Latitude": -37.7667,
"Longitude": 178.45
},
{
"Name": "Ruatoria",
"PostCode": "4032",
"Latitude": -37.8833,
"Longitude": 178.3333
},
{
"Name": "Ruatoria",
"PostCode": "4043",
"Latitude": -37.8833,
"Longitude": 178.3333
},
{
"Name": "Ruatoria",
"PostCode": "4082",
"Latitude": -37.8833,
"Longitude": 178.3333
},
{
"Name": "Tamarau",
"PostCode": "4041",
"Latitude": -38.6782,
"Longitude": 178.0502
},
{
"Name": "Te Araroa",
"PostCode": "4050",
"Latitude": -37.6333,
"Longitude": 178.3667
},
{
"Name": "Te Araroa",
"PostCode": "4087",
"Latitude": -37.6333,
"Longitude": 178.3667
},
{
"Name": "Te Karaka",
"PostCode": "4022",
"Latitude": -38.4667,
"Longitude": 177.8667
},
{
"Name": "Te Karaka",
"PostCode": "4042",
"Latitude": -38.4667,
"Longitude": 177.8667
},
{
"Name": "Te Karaka",
"PostCode": "4093",
"Latitude": -38.4667,
"Longitude": 177.8667
},
{
"Name": "Te Puia",
"PostCode": "4048",
"Latitude": -38.0667,
"Longitude": 178.3
},
{
"Name": "Tiniroto",
"PostCode": "4044",
"Latitude": -38.7667,
"Longitude": 177.5667
},
{
"Name": "Tiniroto",
"PostCode": "4078",
"Latitude": -38.7667,
"Longitude": 177.5667
},
{
"Name": "Tokomaru",
"PostCode": "4047",
"Latitude": -38.1333,
"Longitude": 178.3
},
{
"Name": "Tokomaru",
"PostCode": "4079",
"Latitude": -38.1333,
"Longitude": 178.3
},
{
"Name": "Tolaga Bay",
"PostCode": "4046",
"Latitude": -38.3667,
"Longitude": 178.3
},
{
"Name": "Tolaga Bay",
"PostCode": "4077",
"Latitude": -38.3667,
"Longitude": 178.3
},
{
"Name": "Waerengaahika",
"PostCode": "4071",
"Latitude": -38.6,
"Longitude": 177.9333
},
{
"Name": "Waitakaro",
"PostCode": "4081",
"Latitude": -37.9333,
"Longitude": 178.2667
},
{
"Name": "Whakaangiangi",
"PostCode": "4086",
"Latitude": -37.7167,
"Longitude": 178.3
},
{
"Name": "Whangara",
"PostCode": "4073",
"Latitude": -38.5667,
"Longitude": 178.2167
},
{
"Name": "Whatatutu",
"PostCode": "4094",
"Latitude": -38.3833,
"Longitude": 177.8333
}
]
}
]
}
]
},
{
"Name": "Hawke's Bay",
"Code": "F2",
"Provinces": [
{
"Communities": [
{
"Places": [
{
"Name": "Ahuriri",
"PostCode": "4144",
"Latitude": -39.4833,
"Longitude": 176.9
},
{
"Name": "Akina",
"PostCode": "4122",
"Latitude": -39.6482,
"Longitude": 176.8402
},
{
"Name": "Argyll East",
"PostCode": "4273",
"Latitude": -39.8667,
"Longitude": 176.5333
},
{
"Name": "Ashley Clinton",
"PostCode": "4286",
"Latitude": -39.95,
"Longitude": 176.25
},
{
"Name": "Blackburn",
"PostCode": "4171",
"Latitude": -39.8667,
"Longitude": 176.2833
},
{
"Name": "Blackburn",
"PostCode": "4278",
"Latitude": -39.8667,
"Longitude": 176.2833
},
{
"Name": "Blackburn",
"PostCode": "4279",
"Latitude": -39.8667,
"Longitude": 176.2833
},
{
"Name": "Clive",
"PostCode": "4148",
"Latitude": -39.5833,
"Longitude": 176.9167
},
{
"Name": "Elsthorpe",
"PostCode": "4295",
"Latitude": -39.9167,
"Longitude": 176.8167
},
{
"Name": "Flaxmere",
"PostCode": "4154",
"Latitude": -39.6182,
"Longitude": 176.7802
},
{
"Name": "Flaxmere",
"PostCode": "4175",
"Latitude": -39.6182,
"Longitude": 176.7802
},
{
"Name": "Frasertown",
"PostCode": "4163",
"Latitude": -38.9686,
"Longitude": 177.4006
},
{
"Name": "Greenmeadows",
"PostCode": "4145",
"Latitude": -39.5182,
"Longitude": 176.8602
},
{
"Name": "HASTINGS",
"PostCode": "4120",
"Latitude": -39.6381,
"Longitude": 176.8492
},
{
"Name": "Haumoana",
"PostCode": "4102",
"Latitude": -39.6037,
"Longitude": 176.9457
},
{
"Name": "Havelock North",
"PostCode": "4130",
"Latitude": -39.6667,
"Longitude": 176.8833
},
{
"Name": "Havelock North",
"PostCode": "4157",
"Latitude": -39.6667,
"Longitude": 176.8833
},
{
"Name": "Kotemaori",
"PostCode": "4188",
"Latitude": -39.0667,
"Longitude": 177.0333
},
{
"Name": "Kotemaori",
"PostCode": "4189",
"Latitude": -39.0667,
"Longitude": 177.0333
},
{
"Name": "Maharakeke",
"PostCode": "4281",
"Latitude": -40.0167,
"Longitude": 176.45
},
{
"Name": "Maharakeke",
"PostCode": "4288",
"Latitude": -40.0167,
"Longitude": 176.45
},
{
"Name": "Mahia",
"PostCode": "4166",
"Latitude": -39.0872,
"Longitude": 177.9172
},
{
"Name": "Mayfair",
"PostCode": "4159",
"Latitude": -39.6382,
"Longitude": 176.8502
},
{
"Name": "Napier South",
"PostCode": "4143",
"Latitude": -39.4982,
"Longitude": 176.9002
},
{
"Name": "North Clyde",
"PostCode": "4108",
"Latitude": -39.0282,
"Longitude": 177.4202
},
{
"Name": "Nuhaka",
"PostCode": "4165",
"Latitude": -39.05,
"Longitude": 177.75
},
{
"Name": "Onekawa",
"PostCode": "4110",
"Latitude": -39.4982,
"Longitude": 176.8802
},
{
"Name": "Onekawa",
"PostCode": "4140",
"Latitude": -39.5091,
"Longitude": 176.8896
},
{
"Name": "Onga Onga",
"PostCode": "4244",
"Latitude": -39.9167,
"Longitude": 176.4167
},
{
"Name": "Opoiti",
"PostCode": "4196",
"Latitude": -38.8883,
"Longitude": 177.4928
},
{
"Name": "Otane",
"PostCode": "4202",
"Latitude": -39.8833,
"Longitude": 176.6333
},
{
"Name": "Otane",
"PostCode": "4241",
"Latitude": -39.8833,
"Longitude": 176.6333
},
{
"Name": "Pahowai",
"PostCode": "4161",
"Latitude": -39.6006,
"Longitude": 176.8942
},
{
"Name": "Parkvale",
"PostCode": "4155",
"Latitude": -39.6382,
"Longitude": 176.8502
},
{
"Name": "Parkvale",
"PostCode": "4156",
"Latitude": -39.6382,
"Longitude": 176.8502
},
{
"Name": "Parkvale",
"PostCode": "4158",
"Latitude": -39.6382,
"Longitude": 176.8502
},
{
"Name": "Patangata",
"PostCode": "4271",
"Latitude": -39.9167,
"Longitude": 176.7167
},
{
"Name": "Patangata",
"PostCode": "4277",
"Latitude": -39.9167,
"Longitude": 176.7167
},
{
"Name": "Patoka",
"PostCode": "4186",
"Latitude": -39.35,
"Longitude": 176.6167
},
{
"Name": "Petane",
"PostCode": "4104",
"Latitude": -39.3833,
"Longitude": 176.8667
},
{
"Name": "Petane",
"PostCode": "4149",
"Latitude": -39.4131,
"Longitude": 176.8767
},
{
"Name": "Pirimai",
"PostCode": "4142",
"Latitude": -39.5082,
"Longitude": 176.8802
},
{
"Name": "Pirimai",
"PostCode": "4146",
"Latitude": -39.5082,
"Longitude": 176.8802
},
{
"Name": "Porangahau",
"PostCode": "4245",
"Latitude": -40.2789,
"Longitude": 176.6283
},
{
"Name": "Porangahau",
"PostCode": "4291",
"Latitude": -40.2789,
"Longitude": 176.6283
},
{
"Name": "Porangahau",
"PostCode": "4292",
"Latitude": -40.2789,
"Longitude": 176.6283
},
{
"Name": "Porangahau",
"PostCode": "4293",
"Latitude": -40.2789,
"Longitude": 176.6283
},
{
"Name": "Poukawa",
"PostCode": "4178",
"Latitude": -39.7667,
"Longitude": 176.7333
},
{
"Name": "Pukehou",
"PostCode": "4276",
"Latitude": -39.8333,
"Longitude": 176.6333
},
{
"Name": "Puketitiri",
"PostCode": "4179",
"Latitude": -39.2833,
"Longitude": 176.55
},
{
"Name": "Puketitiri",
"PostCode": "4184",
"Latitude": -39.2833,
"Longitude": 176.55
},
{
"Name": "Puk-kura",
"PostCode": "4112",
"Latitude": -39.5233,
"Longitude": 176.8442
},
{
"Name": "Raupunga",
"PostCode": "4191",
"Latitude": -39.0333,
"Longitude": 177.2167
},
{
"Name": "Raupunga",
"PostCode": "4197",
"Latitude": -39.0333,
"Longitude": 177.2167
},
{
"Name": "Ruataniwha",
"PostCode": "4272",
"Latitude": -39.9333,
"Longitude": 176.5
},
{
"Name": "Ruataniwha",
"PostCode": "4283",
"Latitude": -39.9333,
"Longitude": 176.5
},
{
"Name": "Saint Leonards",
"PostCode": "4153",
"Latitude": -39.6282,
"Longitude": 176.8302
},
{
"Name": "Takapau",
"PostCode": "4203",
"Latitude": -40.0333,
"Longitude": 176.35
},
{
"Name": "Takapau",
"PostCode": "4243",
"Latitude": -40.0333,
"Longitude": 176.35
},
{
"Name": "Tamatea",
"PostCode": "4147",
"Latitude": -39.5082,
"Longitude": 176.8602
},
{
"Name": "Taradale",
"PostCode": "4141",
"Latitude": -39.5333,
"Longitude": 176.85
},
{
"Name": "Taradale",
"PostCode": "4183",
"Latitude": -39.5333,
"Longitude": 176.85
},
{
"Name": "Tarawera",
"PostCode": "3360",
"Latitude": -39.0333,
"Longitude": 176.5833
},
{
"Name": "Te Awanga",
"PostCode": "4172",
"Latitude": -39.6333,
"Longitude": 176.9833
},
{
"Name": "Te Hauke",
"PostCode": "4174",
"Latitude": -39.7667,
"Longitude": 176.6833
},
{
"Name": "Te Pohue",
"PostCode": "4182",
"Latitude": -39.25,
"Longitude": 176.6833
},
{
"Name": "Tikokino",
"PostCode": "4274",
"Latitude": -39.8167,
"Longitude": 176.45
},
{
"Name": "Tuai",
"PostCode": "4164",
"Latitude": -38.8167,
"Longitude": 177.1667
},
{
"Name": "Tuai",
"PostCode": "4195",
"Latitude": -38.8167,
"Longitude": 177.1667
},
{
"Name": "Tutira",
"PostCode": "4162",
"Latitude": -39.2,
"Longitude": 176.8667
},
{
"Name": "Tutira",
"PostCode": "4181",
"Latitude": -39.2,
"Longitude": 176.8667
},
{
"Name": "Waimarama",
"PostCode": "4294",
"Latitude": -39.8,
"Longitude": 176.9833
},
{
"Name": "Waipawa",
"PostCode": "4210",
"Latitude": -39.9382,
"Longitude": 176.6002
},
{
"Name": "Waipawa",
"PostCode": "4240",
"Latitude": -39.9382,
"Longitude": 176.6002
},
{
"Name": "Waipawa",
"PostCode": "4275",
"Latitude": -39.9382,
"Longitude": 176.6002
},
{
"Name": "Waipukurau",
"PostCode": "4200",
"Latitude": -39.9982,
"Longitude": 176.5602
},
{
"Name": "Waipukurau",
"PostCode": "4242",
"Latitude": -39.9982,
"Longitude": 176.5602
},
{
"Name": "Waipukurau",
"PostCode": "4285",
"Latitude": -39.9982,
"Longitude": 176.5602
},
{
"Name": "Wairoa",
"PostCode": "4160",
"Latitude": -39.0333,
"Longitude": 177.3667
},
{
"Name": "Wairoa",
"PostCode": "4193",
"Latitude": -39.0333,
"Longitude": 177.3667
},
{
"Name": "Waitaniwha",
"PostCode": "4198",
"Latitude": -39.0592,
"Longitude": 177.7989
},
{
"Name": "Wallingford",
"PostCode": "4284",
"Latitude": -40.2167,
"Longitude": 176.6
},
{
"Name": "Wanstead",
"PostCode": "4282",
"Latitude": -40.1333,
"Longitude": 176.5333
}
]
}
]
}
]
},
{
"Name": "Manawatu-Wanganui",
"Code": "F3",
"Provinces": [
{
"Communities": [
{
"Places": [
{
"Name": "Ahuiti",
"PostCode": "4578",
"Latitude": -39.6333,
"Longitude": 175.0
},
{
"Name": "Aokautere",
"PostCode": "4471",
"Latitude": -40.3667,
"Longitude": 175.6667
},
{
"Name": "Apiti",
"PostCode": "4774",
"Latitude": -39.9667,
"Longitude": 175.8833
},
{
"Name": "Aramoho",
"PostCode": "4500",
"Latitude": -39.9019,
"Longitude": 175.0647
},
{
"Name": "Ashhurst",
"PostCode": "4470",
"Latitude": -40.2911,
"Longitude": 175.7547
},
{
"Name": "Ashhurst",
"PostCode": "4810",
"Latitude": -40.2911,
"Longitude": 175.7547
},
{
"Name": "Ashhurst",
"PostCode": "4847",
"Latitude": -40.2911,
"Longitude": 175.7547
},
{
"Name": "Aukopae",
"PostCode": "3991",
"Latitude": -38.9,
"Longitude": 175.1667
},
{
"Name": "Awapuni",
"PostCode": "4412",
"Latitude": -40.3762,
"Longitude": 175.5838
},
{
"Name": "Awapuni",
"PostCode": "4445",
"Latitude": -40.3762,
"Longitude": 175.5838
},
{
"Name": "Ballance",
"PostCode": "4983",
"Latitude": -40.4022,
"Longitude": 175.8017
},
{
"Name": "Brunswick",
"PostCode": "4571",
"Latitude": -39.85,
"Longitude": 175.0167
},
{
"Name": "Bulls",
"PostCode": "4818",
"Latitude": -40.1749,
"Longitude": 175.3846
},
{
"Name": "Bulls",
"PostCode": "4863",
"Latitude": -40.1749,
"Longitude": 175.3846
},
{
"Name": "Bulls",
"PostCode": "4894",
"Latitude": -40.1749,
"Longitude": 175.3846
},
{
"Name": "Bunnythorpe",
"PostCode": "4481",
"Latitude": -40.2833,
"Longitude": 175.6333
},
{
"Name": "Bunnythorpe",
"PostCode": "4867",
"Latitude": -40.2833,
"Longitude": 175.6333
},
{
"Name": "Carnarvon",
"PostCode": "4473",
"Latitude": -40.2833,
"Longitude": 175.3167
},
{
"Name": "Colyton",
"PostCode": "4775",
"Latitude": -40.2333,
"Longitude": 175.65
},
{
"Name": "Dannevirke",
"PostCode": "4930",
"Latitude": -40.2055,
"Longitude": 176.1008
},
{
"Name": "Dannevirke",
"PostCode": "4942",
"Latitude": -40.2055,
"Longitude": 176.1008
},
{
"Name": "Eketahuna",
"PostCode": "4900",
"Latitude": -40.6462,
"Longitude": 175.7037
},
{
"Name": "Eketahuna",
"PostCode": "4940",
"Latitude": -40.6462,
"Longitude": 175.7037
},
{
"Name": "Eketahuna",
"PostCode": "4994",
"Latitude": -40.6462,
"Longitude": 175.7037
},
{
"Name": "Erehwon",
"PostCode": "4792",
"Latitude": -39.5165,
"Longitude": 175.9651
},
{
"Name": "FEILDING",
"PostCode": "4702",
"Latitude": -40.2183,
"Longitude": 175.5402
},
{
"Name": "FEILDING",
"PostCode": "4740",
"Latitude": -40.2183,
"Longitude": 175.5402
},
{
"Name": "Foxton",
"PostCode": "4814",
"Latitude": -40.4667,
"Longitude": 175.3
},
{
"Name": "Foxton",
"PostCode": "4848",
"Latitude": -40.4667,
"Longitude": 175.3
},
{
"Name": "Foxton Beach",
"PostCode": "4815",
"Latitude": -40.4667,
"Longitude": 175.2167
},
{
"Name": "Foxton Beach",
"PostCode": "4849",
"Latitude": -40.4667,
"Longitude": 175.2167
},
{
"Name": "Gonville",
"PostCode": "4501",
"Latitude": -39.9388,
"Longitude": 175.0457
},
{
"Name": "Gonville",
"PostCode": "4543",
"Latitude": -39.9388,
"Longitude": 175.0457
},
{
"Name": "Haunui",
"PostCode": "4986",
"Latitude": -40.6085,
"Longitude": 176.0463
},
{
"Name": "Hikumutu",
"PostCode": "3992",
"Latitude": -38.95,
"Longitude": 175.2833
},
{
"Name": "Himatangi",
"PostCode": "4891",
"Latitude": -40.4,
"Longitude": 175.3167
},
{
"Name": "Hokowhitu",
"PostCode": "4440",
"Latitude": -40.3626,
"Longitude": 175.6338
},
{
"Name": "Hokowhitu",
"PostCode": "4446",
"Latitude": -40.3626,
"Longitude": 175.6338
},
{
"Name": "Hopelands",
"PostCode": "4997",
"Latitude": -40.3522,
"Longitude": 175.9528
},
{
"Name": "Hunterville",
"PostCode": "4730",
"Latitude": -39.9366,
"Longitude": 175.5684
},
{
"Name": "Hunterville",
"PostCode": "4745",
"Latitude": -39.9366,
"Longitude": 175.5684
},
{
"Name": "Kairanga",
"PostCode": "4475",
"Latitude": -40.35,
"Longitude": 175.5333
},
{
"Name": "Kaitawa",
"PostCode": "4981",
"Latitude": -40.4966,
"Longitude": 175.89
},
{
"Name": "Kakatahi",
"PostCode": "4573",
"Latitude": -39.6833,
"Longitude": 175.3333
},
{
"Name": "Kakatahi",
"PostCode": "4585",
"Latitude": -39.6833,
"Longitude": 175.3333
},
{
"Name": "Kakatahi",
"PostCode": "4586",
"Latitude": -39.6833,
"Longitude": 175.3333
},
{
"Name": "Kauangaroa",
"PostCode": "4577",
"Latitude": -39.9244,
"Longitude": 175.2829
},
{
"Name": "Kelvin Grove",
"PostCode": "4414",
"Latitude": -40.3287,
"Longitude": 175.6451
},
{
"Name": "Kimbolton",
"PostCode": "4744",
"Latitude": -40.0555,
"Longitude": 175.7794
},
{
"Name": "Kirikau",
"PostCode": "3993",
"Latitude": -39.0167,
"Longitude": 175.1333
},
{
"Name": "Kiritaki",
"PostCode": "4972",
"Latitude": -40.2392,
"Longitude": 175.9827
},
{
"Name": "Kiwitea",
"PostCode": "4777",
"Latitude": -40.1167,
"Longitude": 175.7333
},
{
"Name": "Konini",
"PostCode": "4984",
"Latitude": -40.5046,
"Longitude": 175.7916
},
{
"Name": "Konini",
"PostCode": "4987",
"Latitude": -40.5046,
"Longitude": 175.7916
},
{
"Name": "Koputaroa",
"PostCode": "5575",
"Latitude": -40.5778,
"Longitude": 175.3384
},
{
"Name": "Levin",
"PostCode": "5510",
"Latitude": -40.6333,
"Longitude": 175.275
},
{
"Name": "Levin",
"PostCode": "5540",
"Latitude": -40.6333,
"Longitude": 175.275
},
{
"Name": "Levin",
"PostCode": "5571",
"Latitude": -40.6333,
"Longitude": 175.275
},
{
"Name": "Longburn",
"PostCode": "4820",
"Latitude": -40.384,
"Longitude": 175.5429
},
{
"Name": "Longburn",
"PostCode": "4866",
"Latitude": -40.384,
"Longitude": 175.5429
},
{
"Name": "Makotuku",
"PostCode": "4977",
"Latitude": -40.1206,
"Longitude": 176.2319
},
{
"Name": "Makuri",
"PostCode": "4985",
"Latitude": -40.5333,
"Longitude": 176.0167
},
{
"Name": "Makuri",
"PostCode": "4989",
"Latitude": -40.5333,
"Longitude": 176.0167
},
{
"Name": "Manakau",
"PostCode": "5541",
"Latitude": -40.7167,
"Longitude": 175.2167
},
{
"Name": "Manakau",
"PostCode": "5573",
"Latitude": -40.7167,
"Longitude": 175.2167
},
{
"Name": "Manakau",
"PostCode": "5581",
"Latitude": -40.7167,
"Longitude": 175.2167
},
{
"Name": "Mangamaire",
"PostCode": "4988",
"Latitude": -40.5172,
"Longitude": 175.7526
},
{
"Name": "Mangaweka",
"PostCode": "4746",
"Latitude": -39.8094,
"Longitude": 175.7888
},
{
"Name": "Mangawhata",
"PostCode": "4477",
"Latitude": -40.4,
"Longitude": 175.4333
},
{
"Name": "Manunui",
"PostCode": "3924",
"Latitude": -38.8833,
"Longitude": 175.3333
},
{
"Name": "Marotiri",
"PostCode": "4893",
"Latitude": -40.4833,
"Longitude": 175.35
},
{
"Name": "Marton",
"PostCode": "4710",
"Latitude": -40.0692,
"Longitude": 175.3782
},
{
"Name": "Marton",
"PostCode": "4741",
"Latitude": -40.0692,
"Longitude": 175.3782
},
{
"Name": "Marton",
"PostCode": "4788",
"Latitude": -40.0692,
"Longitude": 175.3782
},
{
"Name": "Marton",
"PostCode": "4789",
"Latitude": -40.0692,
"Longitude": 175.3782
},
{
"Name": "Matahiwi",
"PostCode": "4576",
"Latitude": -39.6,
"Longitude": 175.15
},
{
"Name": "Matiere",
"PostCode": "3995",
"Latitude": -38.75,
"Longitude": 175.1
},
{
"Name": "Milson",
"PostCode": "4478",
"Latitude": -40.3283,
"Longitude": 175.6102
},
{
"Name": "Mowhanau",
"PostCode": "4574",
"Latitude": -39.8667,
"Longitude": 174.9
},
{
"Name": "National Park",
"PostCode": "3948",
"Latitude": -39.1833,
"Longitude": 175.4
},
{
"Name": "Ngamoko",
"PostCode": "4974",
"Latitude": -40.0545,
"Longitude": 176.1632
},
{
"Name": "Ngapuke",
"PostCode": "3994",
"Latitude": -38.85,
"Longitude": 175.4667
},
{
"Name": "Ngaturi",
"PostCode": "4982",
"Latitude": -40.4682,
"Longitude": 175.9227
},
{
"Name": "Nireaha",
"PostCode": "4995",
"Latitude": -40.615,
"Longitude": 175.6529
},
{
"Name": "Norsewood",
"PostCode": "4287",
"Latitude": -40.0705,
"Longitude": 176.2183
},
{
"Name": "Norsewood",
"PostCode": "4943",
"Latitude": -40.0705,
"Longitude": 176.2183
},
{
"Name": "Nukumaru",
"PostCode": "4587",
"Latitude": -39.8333,
"Longitude": 174.8
},
{
"Name": "Ohakea",
"PostCode": "4816",
"Latitude": -40.2,
"Longitude": 175.4
},
{
"Name": "Ohakune",
"PostCode": "4625",
"Latitude": -39.4082,
"Longitude": 175.4002
},
{
"Name": "Ohakune",
"PostCode": "4660",
"Latitude": -39.4082,
"Longitude": 175.4002
},
{
"Name": "Ohau",
"PostCode": "5570",
"Latitude": -40.6667,
"Longitude": 175.25
},
{
"Name": "Ohotu",
"PostCode": "4793",
"Latitude": -39.7119,
"Longitude": 175.8389
},
{
"Name": "Ohura",
"PostCode": "3926",
"Latitude": -38.8333,
"Longitude": 174.9833
},
{
"Name": "Ohura",
"PostCode": "3947",
"Latitude": -38.8333,
"Longitude": 174.9833
},
{
"Name": "Oio",
"PostCode": "3989",
"Latitude": -39.05,
"Longitude": 175.4167
},
{
"Name": "Okahukura",
"PostCode": "3996",
"Latitude": -38.7833,
"Longitude": 175.2167
},
{
"Name": "Okoia",
"PostCode": "4582",
"Latitude": -39.9333,
"Longitude": 175.1333
},
{
"Name": "Ongarue",
"PostCode": "3997",
"Latitude": -38.7167,
"Longitude": 175.2833
},
{
"Name": "Pahiatua",
"PostCode": "4910",
"Latitude": -40.4534,
"Longitude": 175.8406
},
{
"Name": "Pahiatua",
"PostCode": "4941",
"Latitude": -40.4534,
"Longitude": 175.8406
},
{
"Name": "Pakihikura",
"PostCode": "4783",
"Latitude": -39.9333,
"Longitude": 175.7167
},
{
"Name": "Papatawa",
"PostCode": "4998",
"Latitude": -40.3174,
"Longitude": 175.9286
},
{
"Name": "Piripiri",
"PostCode": "4978",
"Latitude": -40.1736,
"Longitude": 176.1347
},
{
"Name": "Pohangina",
"PostCode": "4884",
"Latitude": -40.1734,
"Longitude": 175.7943
},
{
"Name": "Pongaroa",
"PostCode": "4944",
"Latitude": -40.5421,
"Longitude": 176.1937
},
{
"Name": "Poukiore",
"PostCode": "4785",
"Latitude": -39.8694,
"Longitude": 175.621
},
{
"Name": "Pukeroa",
"PostCode": "4782",
"Latitude": -39.7841,
"Longitude": 175.4972
},
{
"Name": "Raetihi",
"PostCode": "4632",
"Latitude": -39.4288,
"Longitude": 175.2773
},
{
"Name": "Raetihi",
"PostCode": "4646",
"Latitude": -39.4288,
"Longitude": 175.2773
},
{
"Name": "Raetihi",
"PostCode": "4694",
"Latitude": -39.4288,
"Longitude": 175.2773
},
{
"Name": "Raketapauma",
"PostCode": "4791",
"Latitude": -39.5513,
"Longitude": 175.65
},
{
"Name": "Rangataua",
"PostCode": "4691",
"Latitude": -39.4333,
"Longitude": 175.4667
},
{
"Name": "Ratana",
"PostCode": "4548",
"Latitude": -40.0412,
"Longitude": 175.1771
},
{
"Name": "Raumati",
"PostCode": "4976",
"Latitude": -40.1908,
"Longitude": 176.1463
},
{
"Name": "Rewa",
"PostCode": "4780",
"Latitude": -39.9833,
"Longitude": 175.6333
},
{
"Name": "Rewa",
"PostCode": "4786",
"Latitude": -39.9833,
"Longitude": 175.6333
},
{
"Name": "Rongotea",
"PostCode": "4476",
"Latitude": -40.2926,
"Longitude": 175.4251
},
{
"Name": "Rongotea",
"PostCode": "4865",
"Latitude": -40.2926,
"Longitude": 175.4251
},
{
"Name": "Ruahine",
"PostCode": "4797",
"Latitude": -39.8333,
"Longitude": 175.9
},
{
"Name": "Sanson",
"PostCode": "4479",
"Latitude": -40.2201,
"Longitude": 175.4245
},
{
"Name": "Sanson",
"PostCode": "4817",
"Latitude": -40.2201,
"Longitude": 175.4245
},
{
"Name": "Sanson",
"PostCode": "4862",
"Latitude": -40.2201,
"Longitude": 175.4245
},
{
"Name": "Shannon",
"PostCode": "4821",
"Latitude": -40.5483,
"Longitude": 175.4202
},
{
"Name": "Shannon",
"PostCode": "4860",
"Latitude": -40.5483,
"Longitude": 175.4202
},
{
"Name": "Silverhope",
"PostCode": "4781",
"Latitude": -39.9659,
"Longitude": 175.5283
},
{
"Name": "Silverhope",
"PostCode": "4784",
"Latitude": -39.9659,
"Longitude": 175.5283
},
{
"Name": "Tahoraiti",
"PostCode": "4975",
"Latitude": -40.2335,
"Longitude": 176.0597
},
{
"Name": "Taihape",
"PostCode": "4720",
"Latitude": -39.6782,
"Longitude": 175.798
},
{
"Name": "Taihape",
"PostCode": "4742",
"Latitude": -39.6782,
"Longitude": 175.798
},
{
"Name": "Taihape",
"PostCode": "4796",
"Latitude": -39.6782,
"Longitude": 175.798
},
{
"Name": "Takaro",
"PostCode": "4442",
"Latitude": -40.3579,
"Longitude": 175.5897
},
{
"Name": "Tane",
"PostCode": "4993",
"Latitude": -40.5758,
"Longitude": 175.8478
},
{
"Name": "Tangimoana",
"PostCode": "4822",
"Latitude": -40.3,
"Longitude": 175.25
},
{
"Name": "Tatu",
"PostCode": "3980",
"Latitude": -38.9,
"Longitude": 174.95
},
{
"Name": "Taumarunui",
"PostCode": "3920",
"Latitude": -38.8782,
"Longitude": 175.2602
},
{
"Name": "Taumarunui",
"PostCode": "3946",
"Latitude": -38.8782,
"Longitude": 175.2602
},
{
"Name": "Te Ranga",
"PostCode": "4696",
"Latitude": -39.3,
"Longitude": 175.2
},
{
"Name": "Terrace End",
"PostCode": "4441",
"Latitude": -40.3483,
"Longitude": 175.6302
},
{
"Name": "Terrace End",
"PostCode": "4444",
"Latitude": -40.3483,
"Longitude": 175.6302
},
{
"Name": "Tiraumea",
"PostCode": "4996",
"Latitude": -40.6333,
"Longitude": 176.0456
},
{
"Name": "Ti-tree Point",
"PostCode": "4970",
"Latitude": -40.437,
"Longitude": 176.4054
},
{
"Name": "Tokomaru",
"PostCode": "4474",
"Latitude": -40.473,
"Longitude": 175.5093
},
{
"Name": "Tokomaru",
"PostCode": "4864",
"Latitude": -40.473,
"Longitude": 175.5093
},
{
"Name": "Turakina",
"PostCode": "4581",
"Latitude": -40.047,
"Longitude": 175.2147
},
{
"Name": "Turakina South",
"PostCode": "4547",
"Latitude": -40.0515,
"Longitude": 175.2188
},
{
"Name": "Umutoi",
"PostCode": "4771",
"Latitude": -40.0,
"Longitude": 175.9667
},
{
"Name": "Upokonui",
"PostCode": "4575",
"Latitude": -39.7833,
"Longitude": 175.2167
},
{
"Name": "Upper Ruatiti",
"PostCode": "3990",
"Latitude": -39.2,
"Longitude": 175.2
},
{
"Name": "Utiku",
"PostCode": "4794",
"Latitude": -39.7334,
"Longitude": 175.8438
},
{
"Name": "Waimiha",
"PostCode": "3998",
"Latitude": -38.6167,
"Longitude": 175.3167
},
{
"Name": "Waimiro",
"PostCode": "4990",
"Latitude": -40.45,
"Longitude": 176.2333
},
{
"Name": "Waione",
"PostCode": "4979",
"Latitude": -40.4695,
"Longitude": 176.2797
},
{
"Name": "Waione",
"PostCode": "4992",
"Latitude": -40.4695,
"Longitude": 176.2797
},
{
"Name": "Waiouru Military Camp",
"PostCode": "4795",
"Latitude": -39.4706,
"Longitude": 175.6817
},
{
"Name": "Waipatiki",
"PostCode": "4971",
"Latitude": -40.373,
"Longitude": 176.2833
},
{
"Name": "Waipatiki",
"PostCode": "4973",
"Latitude": -40.373,
"Longitude": 176.2833
},
{
"Name": "Waitarere",
"PostCode": "5572",
"Latitude": -40.55,
"Longitude": 175.2
},
{
"Name": "Waitarere",
"PostCode": "5574",
"Latitude": -40.55,
"Longitude": 175.2
},
{
"Name": "Waitewhenua",
"PostCode": "3979",
"Latitude": -38.7,
"Longitude": 174.9667
},
{
"Name": "Waituna West",
"PostCode": "4779",
"Latitude": -40.05,
"Longitude": 175.6167
},
{
"Name": "Wanganui",
"PostCode": "4540",
"Latitude": -39.9333,
"Longitude": 175.05
},
{
"Name": "Wanganui",
"PostCode": "4541",
"Latitude": -39.9333,
"Longitude": 175.05
},
{
"Name": "Wanganui East",
"PostCode": "4542",
"Latitude": -39.9171,
"Longitude": 175.0616
},
{
"Name": "West End",
"PostCode": "4443",
"Latitude": -40.3659,
"Longitude": 175.5984
},
{
"Name": "Whakaihuwaka",
"PostCode": "4584",
"Latitude": -39.7667,
"Longitude": 175.15
},
{
"Name": "Wiritoa",
"PostCode": "4572",
"Latitude": -39.9667,
"Longitude": 175.1
},
{
"Name": "Woodville",
"PostCode": "4920",
"Latitude": -40.3372,
"Longitude": 175.8668
},
{
"Name": "Woodville",
"PostCode": "4945",
"Latitude": -40.3372,
"Longitude": 175.8668
},
{
"Name": "Woodville",
"PostCode": "4999",
"Latitude": -40.3372,
"Longitude": 175.8668
}
]
}
]
}
]
},
{
"Name": "Marlborough",
"Code": "F4",
"Provinces": [
{
"Communities": [
{
"Places": [
{
"Name": "Avondale",
"PostCode": "7276",
"Latitude": -41.6833,
"Longitude": 173.6333
},
{
"Name": "Blenheim",
"PostCode": "7241",
"Latitude": -41.516,
"Longitude": 173.9528
},
{
"Name": "Grovetown",
"PostCode": "7202",
"Latitude": -41.4833,
"Longitude": 173.9667
},
{
"Name": "Havelock",
"PostCode": "7100",
"Latitude": -41.2833,
"Longitude": 173.7667
},
{
"Name": "Havelock",
"PostCode": "7150",
"Latitude": -41.2833,
"Longitude": 173.7667
},
{
"Name": "Havelock",
"PostCode": "7178",
"Latitude": -41.2833,
"Longitude": 173.7667
},
{
"Name": "Hillersden",
"PostCode": "7271",
"Latitude": -41.6,
"Longitude": 173.4333
},
{
"Name": "Kapowai",
"PostCode": "7193",
"Latitude": -40.9,
"Longitude": 173.8333
},
{
"Name": "Langridge",
"PostCode": "7371",
"Latitude": -41.9833,
"Longitude": 173.4167
},
{
"Name": "Manaroa",
"PostCode": "7282",
"Latitude": -41.1167,
"Longitude": 174.0333
},
{
"Name": "Picton",
"PostCode": "7220",
"Latitude": -41.2907,
"Longitude": 174.008
},
{
"Name": "Picton",
"PostCode": "7250",
"Latitude": -41.2907,
"Longitude": 174.008
},
{
"Name": "Rai Valley",
"PostCode": "7145",
"Latitude": -41.2333,
"Longitude": 173.5833
},
{
"Name": "Rai Valley",
"PostCode": "7194",
"Latitude": -41.2333,
"Longitude": 173.5833
},
{
"Name": "Renwick",
"PostCode": "7204",
"Latitude": -41.5,
"Longitude": 173.8333
},
{
"Name": "Renwick",
"PostCode": "7206",
"Latitude": -41.5,
"Longitude": 173.8333
},
{
"Name": "Renwick",
"PostCode": "7243",
"Latitude": -41.5,
"Longitude": 173.8333
},
{
"Name": "Renwick",
"PostCode": "7272",
"Latitude": -41.5,
"Longitude": 173.8333
},
{
"Name": "Seddon",
"PostCode": "7210",
"Latitude": -41.6667,
"Longitude": 174.0833
},
{
"Name": "Seddon",
"PostCode": "7247",
"Latitude": -41.6667,
"Longitude": 174.0833
},
{
"Name": "Spring Creek",
"PostCode": "7244",
"Latitude": -41.4667,
"Longitude": 173.9667
},
{
"Name": "Taimate",
"PostCode": "7285",
"Latitude": -41.7833,
"Longitude": 174.15
},
{
"Name": "Te Rou",
"PostCode": "7275",
"Latitude": -41.5667,
"Longitude": 173.4667
},
{
"Name": "Tinline",
"PostCode": "7192",
"Latitude": -41.2667,
"Longitude": 173.5
},
{
"Name": "Tira-ora",
"PostCode": "7195",
"Latitude": -41.0833,
"Longitude": 173.8667
},
{
"Name": "Tuamarina",
"PostCode": "7246",
"Latitude": -41.4333,
"Longitude": 173.95
},
{
"Name": "Tuamarina",
"PostCode": "7273",
"Latitude": -41.4333,
"Longitude": 173.95
},
{
"Name": "Upcot",
"PostCode": "7274",
"Latitude": -41.9,
"Longitude": 173.5833
},
{
"Name": "Waikawa",
"PostCode": "7251",
"Latitude": -41.2667,
"Longitude": 174.05
},
{
"Name": "Waikawa",
"PostCode": "7281",
"Latitude": -41.2667,
"Longitude": 174.05
},
{
"Name": "Ward",
"PostCode": "7248",
"Latitude": -41.8333,
"Longitude": 174.1333
},
{
"Name": "Whakatahuri",
"PostCode": "7284",
"Latitude": -41.0167,
"Longitude": 174.0333
},
{
"Name": "Witherlea",
"PostCode": "7201",
"Latitude": -41.5283,
"Longitude": 173.9502
},
{
"Name": "Witherlea",
"PostCode": "7240",
"Latitude": -41.5283,
"Longitude": 173.9502
},
{
"Name": "Witherlea",
"PostCode": "7242",
"Latitude": -41.5283,
"Longitude": 173.9502
}
]
}
]
}
]
},
{
"Name": "Nelson",
"Code": "F5",
"Provinces": [
{
"Communities": [
{
"Places": [
{
"Name": "Hira",
"PostCode": "7071",
"Latitude": -41.2153,
"Longitude": 173.3961
},
{
"Name": "Nelson",
"PostCode": "7045",
"Latitude": -41.2708,
"Longitude": 173.284
},
{
"Name": "Nelson East",
"PostCode": "7010",
"Latitude": -41.2766,
"Longitude": 173.2998
},
{
"Name": "Nelson East",
"PostCode": "7040",
"Latitude": -41.2766,
"Longitude": 173.2998
},
{
"Name": "Nelson East",
"PostCode": "7047",
"Latitude": -41.2766,
"Longitude": 173.2998
},
{
"Name": "Nelson South",
"PostCode": "7042",
"Latitude": -41.285,
"Longitude": 173.2749
},
{
"Name": "Nelson South",
"PostCode": "7046",
"Latitude": -41.285,
"Longitude": 173.2749
},
{
"Name": "Port Nelson",
"PostCode": "7043",
"Latitude": -41.264,
"Longitude": 173.2763
},
{
"Name": "Stoke",
"PostCode": "7011",
"Latitude": -41.3167,
"Longitude": 173.2333
},
{
"Name": "Stoke",
"PostCode": "7041",
"Latitude": -41.3167,
"Longitude": 173.2333
},
{
"Name": "Wakatu",
"PostCode": "7044",
"Latitude": -41.2967,
"Longitude": 173.244
}
]
}
]
}
]
},
{
"Name": "Northland",
"Code": "F6",
"Provinces": [
{
"Communities": [
{
"Places": [
{
"Name": "Ahipara",
"PostCode": "0449",
"Latitude": -35.1667,
"Longitude": 173.1667
},
{
"Name": "Arapohue",
"PostCode": "0370",
"Latitude": -35.9833,
"Longitude": 173.9667
},
{
"Name": "Arapohue",
"PostCode": "0374",
"Latitude": -35.9833,
"Longitude": 173.9667
},
{
"Name": "Awanui",
"PostCode": "0451",
"Latitude": -35.05,
"Longitude": 173.25
},
{
"Name": "Baylys Beach",
"PostCode": "0377",
"Latitude": -35.9523,
"Longitude": 173.747
},
{
"Name": "Broadwood",
"PostCode": "0462",
"Latitude": -35.2667,
"Longitude": 173.3833
},
{
"Name": "Broadwood",
"PostCode": "0491",
"Latitude": -35.2667,
"Longitude": 173.3833
},
{
"Name": "Dargaville",
"PostCode": "0310",
"Latitude": -35.9333,
"Longitude": 173.8833
},
{
"Name": "Dargaville",
"PostCode": "0340",
"Latitude": -35.9333,
"Longitude": 173.8833
},
{
"Name": "Haruru",
"PostCode": "0271",
"Latitude": -35.2807,
"Longitude": 174.0543
},
{
"Name": "Hikurangi",
"PostCode": "0150",
"Latitude": -35.6,
"Longitude": 174.3
},
{
"Name": "Huarau",
"PostCode": "0589",
"Latitude": -36.1,
"Longitude": 174.3
},
{
"Name": "Hukerenui",
"PostCode": "0182",
"Latitude": -35.5167,
"Longitude": 174.1833
},
{
"Name": "Kaeo",
"PostCode": "0448",
"Latitude": -35.1,
"Longitude": 173.7833
},
{
"Name": "Kaeo",
"PostCode": "0478",
"Latitude": -35.1,
"Longitude": 173.7833
},
{
"Name": "Kaiaka",
"PostCode": "0482",
"Latitude": -35.1,
"Longitude": 173.4167
},
{
"Name": "Kaikohe",
"PostCode": "0405",
"Latitude": -35.3982,
"Longitude": 173.8002
},
{
"Name": "Kaikohe",
"PostCode": "0440",
"Latitude": -35.3982,
"Longitude": 173.8002
},
{
"Name": "Kairara",
"PostCode": "0372",
"Latitude": -35.8,
"Longitude": 173.8167
},
{
"Name": "Kaitaia",
"PostCode": "0410",
"Latitude": -35.1149,
"Longitude": 173.2637
},
{
"Name": "Kaitaia",
"PostCode": "0441",
"Latitude": -35.1149,
"Longitude": 173.2637
},
{
"Name": "Kaiwaka",
"PostCode": "0542",
"Latitude": -36.1667,
"Longitude": 174.45
},
{
"Name": "Kaiwaka",
"PostCode": "0573",
"Latitude": -36.1667,
"Longitude": 174.45
},
{
"Name": "Karetu",
"PostCode": "0282",
"Latitude": -35.3667,
"Longitude": 174.15
},
{
"Name": "Kawakawa",
"PostCode": "0210",
"Latitude": -35.3833,
"Longitude": 174.0667
},
{
"Name": "Kawakawa",
"PostCode": "0243",
"Latitude": -35.3833,
"Longitude": 174.0667
},
{
"Name": "Kensington",
"PostCode": "0145",
"Latitude": -35.7103,
"Longitude": 174.3135
},
{
"Name": "Kerikeri",
"PostCode": "0230",
"Latitude": -35.2268,
"Longitude": 173.9474
},
{
"Name": "Kerikeri",
"PostCode": "0245",
"Latitude": -35.2268,
"Longitude": 173.9474
},
{
"Name": "Kirikopuni",
"PostCode": "0381",
"Latitude": -35.8167,
"Longitude": 174.0167
},
{
"Name": "Kiripaka",
"PostCode": "0173",
"Latitude": -35.6333,
"Longitude": 174.4333
},
{
"Name": "Kohukohu",
"PostCode": "0453",
"Latitude": -35.35,
"Longitude": 173.5333
},
{
"Name": "Lake Ohia",
"PostCode": "0483",
"Latitude": -34.9833,
"Longitude": 173.3667
},
{
"Name": "Mamaranui",
"PostCode": "0373",
"Latitude": -35.8333,
"Longitude": 173.75
},
{
"Name": "Manawaora",
"PostCode": "0272",
"Latitude": -35.2833,
"Longitude": 174.2
},
{
"Name": "Mangawhai",
"PostCode": "0540",
"Latitude": -36.1167,
"Longitude": 174.5667
},
{
"Name": "Mangawhai Heads",
"PostCode": "0505",
"Latitude": -36.0882,
"Longitude": 174.5702
},
{
"Name": "Mangawhai Heads",
"PostCode": "0541",
"Latitude": -36.0882,
"Longitude": 174.5702
},
{
"Name": "Mangonui",
"PostCode": "0442",
"Latitude": -34.9905,
"Longitude": 173.5317
},
{
"Name": "Manukau",
"PostCode": "0481",
"Latitude": -35.2333,
"Longitude": 173.2167
},
{
"Name": "Marangai",
"PostCode": "0475",
"Latitude": -35.3333,
"Longitude": 173.7167
},
{
"Name": "Mareretu",
"PostCode": "0571",
"Latitude": -36.0333,
"Longitude": 174.2667
},
{
"Name": "Marohemo",
"PostCode": "0583",
"Latitude": -36.1833,
"Longitude": 174.3
},
{
"Name": "Marua",
"PostCode": "0181",
"Latitude": -35.5667,
"Longitude": 174.3667
},
{
"Name": "Mata",
"PostCode": "0171",
"Latitude": -35.85,
"Longitude": 174.3667
},
{
"Name": "Matakohe",
"PostCode": "0550",
"Latitude": -36.1333,
"Longitude": 174.1833
},
{
"Name": "Matakohe",
"PostCode": "0594",
"Latitude": -36.1333,
"Longitude": 174.1833
},
{
"Name": "Maungakaramea",
"PostCode": "0146",
"Latitude": -35.85,
"Longitude": 174.2167
},
{
"Name": "Maungakaramea",
"PostCode": "0178",
"Latitude": -35.85,
"Longitude": 174.2167
},
{
"Name": "Maungatapere",
"PostCode": "0152",
"Latitude": -35.75,
"Longitude": 174.2
},
{
"Name": "Maungatapere",
"PostCode": "0179",
"Latitude": -35.75,
"Longitude": 174.2
},
{
"Name": "Maungaturoto",
"PostCode": "0588",
"Latitude": -36.1,
"Longitude": 174.3667
},
{
"Name": "Moengawahine",
"PostCode": "0176",
"Latitude": -35.6333,
"Longitude": 174.05
},
{
"Name": "Moerewa",
"PostCode": "0211",
"Latitude": -35.3833,
"Longitude": 174.0333
},
{
"Name": "Moerewa",
"PostCode": "0244",
"Latitude": -35.3833,
"Longitude": 174.0333
},
{
"Name": "Morningside",
"PostCode": "0143",
"Latitude": -35.7348,
"Longitude": 174.3199
},
{
"Name": "Ngunguru",
"PostCode": "0154",
"Latitude": -35.6167,
"Longitude": 174.5
},
{
"Name": "Okaihau",
"PostCode": "0447",
"Latitude": -35.3167,
"Longitude": 173.7833
},
{
"Name": "Omapere",
"PostCode": "0444",
"Latitude": -35.5333,
"Longitude": 173.3833
},
{
"Name": "Opononi",
"PostCode": "0445",
"Latitude": -35.5,
"Longitude": 173.4
},
{
"Name": "Opua",
"PostCode": "0200",
"Latitude": -35.3167,
"Longitude": 174.1167
},
{
"Name": "Opua",
"PostCode": "0241",
"Latitude": -35.3167,
"Longitude": 174.1167
},
{
"Name": "Otangarei",
"PostCode": "0141",
"Latitude": -35.6882,
"Longitude": 174.3102
},
{
"Name": "Pahi",
"PostCode": "0593",
"Latitude": -36.1572,
"Longitude": 174.2283
},
{
"Name": "Paihia",
"PostCode": "0247",
"Latitude": -35.2807,
"Longitude": 174.091
},
{
"Name": "Pakaraka",
"PostCode": "0472",
"Latitude": -35.35,
"Longitude": 173.95
},
{
"Name": "Panguru",
"PostCode": "0492",
"Latitude": -35.3833,
"Longitude": 173.3833
},
{
"Name": "Paparoa",
"PostCode": "0543",
"Latitude": -36.1,
"Longitude": 174.2333
},
{
"Name": "Parakao",
"PostCode": "0172",
"Latitude": -35.7167,
"Longitude": 173.95
},
{
"Name": "Paraoanui",
"PostCode": "0494",
"Latitude": -35.05,
"Longitude": 173.6167
},
{
"Name": "Pawarenga",
"PostCode": "0496",
"Latitude": -35.35,
"Longitude": 173.25
},
{
"Name": "Pokere",
"PostCode": "0281",
"Latitude": -35.4833,
"Longitude": 173.9833
},
{
"Name": "Pukenui",
"PostCode": "0460",
"Latitude": -34.8167,
"Longitude": 173.1167
},
{
"Name": "Puketona",
"PostCode": "0293",
"Latitude": -35.3,
"Longitude": 173.9667
},
{
"Name": "Purerua",
"PostCode": "0294",
"Latitude": -35.15,
"Longitude": 174.0333
},
{
"Name": "Puwera",
"PostCode": "0170",
"Latitude": -35.7833,
"Longitude": 174.2833
},
{
"Name": "Ranganui",
"PostCode": "0587",
"Latitude": -36.15,
"Longitude": 174.4
},
{
"Name": "Rawene",
"PostCode": "0443",
"Latitude": -35.4022,
"Longitude": 173.5032
},
{
"Name": "Redhill",
"PostCode": "0371",
"Latitude": -36.0333,
"Longitude": 173.85
},
{
"Name": "Rehia",
"PostCode": "0592",
"Latitude": -36.0667,
"Longitude": 174.0333
},
{
"Name": "Riverside",
"PostCode": "0140",
"Latitude": -35.7234,
"Longitude": 174.3258
},
{
"Name": "Riverside",
"PostCode": "0149",
"Latitude": -35.7234,
"Longitude": 174.3258
},
{
"Name": "Rowsells",
"PostCode": "0520",
"Latitude": -36.1,
"Longitude": 174.35
},
{
"Name": "Rowsells",
"PostCode": "0547",
"Latitude": -36.1,
"Longitude": 174.35
},
{
"Name": "Ruakaka",
"PostCode": "0116",
"Latitude": -35.8833,
"Longitude": 174.4
},
{
"Name": "Ruakaka",
"PostCode": "0151",
"Latitude": -35.8833,
"Longitude": 174.4
},
{
"Name": "Ruatangata East",
"PostCode": "0185",
"Latitude": -35.65,
"Longitude": 174.2333
},
{
"Name": "Ruawai",
"PostCode": "0530",
"Latitude": -36.1333,
"Longitude": 174.0333
},
{
"Name": "Ruawai",
"PostCode": "0549",
"Latitude": -36.1333,
"Longitude": 174.0333
},
{
"Name": "Ruawai",
"PostCode": "0591",
"Latitude": -36.1333,
"Longitude": 174.0333
},
{
"Name": "Rukuwai",
"PostCode": "0192",
"Latitude": -35.75,
"Longitude": 174.4667
},
{
"Name": "Russell",
"PostCode": "0202",
"Latitude": -35.2615,
"Longitude": 174.1226
},
{
"Name": "Russell",
"PostCode": "0242",
"Latitude": -35.2615,
"Longitude": 174.1226
},
{
"Name": "Saies",
"PostCode": "0479",
"Latitude": -35.05,
"Longitude": 173.7
},
{
"Name": "Sherwood Rise",
"PostCode": "0142",
"Latitude": -35.7487,
"Longitude": 174.3598
},
{
"Name": "Tahere",
"PostCode": "0175",
"Latitude": -35.6833,
"Longitude": 174.4333
},
{
"Name": "Taipa",
"PostCode": "0420",
"Latitude": -34.996,
"Longitude": 173.4666
},
{
"Name": "Tangaihe",
"PostCode": "0391",
"Latitude": -36.1667,
"Longitude": 174.0167
},
{
"Name": "Tautoro",
"PostCode": "0474",
"Latitude": -35.4667,
"Longitude": 173.8333
},
{
"Name": "Te Kao",
"PostCode": "0484",
"Latitude": -34.65,
"Longitude": 172.95
},
{
"Name": "Te Kopura",
"PostCode": "0341",
"Latitude": -36.0333,
"Longitude": 173.9333
},
{
"Name": "Tikipunga",
"PostCode": "0144",
"Latitude": -35.6882,
"Longitude": 174.3202
},
{
"Name": "Topuni",
"PostCode": "0975",
"Latitude": -36.2167,
"Longitude": 174.4667
},
{
"Name": "Tutamoe",
"PostCode": "0376",
"Latitude": -35.65,
"Longitude": 173.65
},
{
"Name": "Tutukaka",
"PostCode": "0153",
"Latitude": -35.6,
"Longitude": 174.5333
},
{
"Name": "Umawera",
"PostCode": "0476",
"Latitude": -35.2833,
"Longitude": 173.5833
},
{
"Name": "Waihaha",
"PostCode": "0283",
"Latitude": -35.3333,
"Longitude": 174.2333
},
{
"Name": "Waiharera",
"PostCode": "0486",
"Latitude": -34.9333,
"Longitude": 173.2167
},
{
"Name": "Waima",
"PostCode": "0473",
"Latitude": -35.4833,
"Longitude": 173.5833
},
{
"Name": "Waimamaku",
"PostCode": "0446",
"Latitude": -35.5563,
"Longitude": 173.4782
},
{
"Name": "Waiotira",
"PostCode": "0193",
"Latitude": -35.9333,
"Longitude": 174.2
},
{
"Name": "Waipapa",
"PostCode": "0246",
"Latitude": -35.2,
"Longitude": 173.9167
},
{
"Name": "Waipapa",
"PostCode": "0295",
"Latitude": -35.2,
"Longitude": 173.9167
},
{
"Name": "Waipu",
"PostCode": "0510",
"Latitude": -35.9833,
"Longitude": 174.45
},
{
"Name": "Waipu",
"PostCode": "0545",
"Latitude": -35.9833,
"Longitude": 174.45
},
{
"Name": "Waipu",
"PostCode": "0582",
"Latitude": -35.9833,
"Longitude": 174.45
},
{
"Name": "Waro",
"PostCode": "0114",
"Latitude": -35.5833,
"Longitude": 174.3
},
{
"Name": "Whangarei Heads",
"PostCode": "0174",
"Latitude": -35.8167,
"Longitude": 174.5
},
{
"Name": "Whangaruru North",
"PostCode": "0184",
"Latitude": -35.35,
"Longitude": 174.35
},
{
"Name": "Whatoro",
"PostCode": "0379",
"Latitude": -35.75,
"Longitude": 173.6833
},
{
"Name": "Whau Valley",
"PostCode": "0112",
"Latitude": -35.6982,
"Longitude": 174.3002
},
{
"Name": "Woodhill",
"PostCode": "0110",
"Latitude": -35.7317,
"Longitude": 174.3104
},
{
"Name": "Woodhill",
"PostCode": "0147",
"Latitude": -35.7317,
"Longitude": 174.3104
},
{
"Name": "Woodhill",
"PostCode": "0148",
"Latitude": -35.7317,
"Longitude": 174.3104
}
]
}
]
}
]
},
{
"Name": "Otago",
"Code": "F7",
"Provinces": [
{
"Communities": [
{
"Places": [
{
"Name": "Albert Town",
"PostCode": "9344",
"Latitude": -44.6833,
"Longitude": 169.2
},
{
"Name": "Aramoana",
"PostCode": "9082",
"Latitude": -45.7833,
"Longitude": 170.7
},
{
"Name": "Arrowtown",
"PostCode": "9302",
"Latitude": -44.9384,
"Longitude": 168.8101
},
{
"Name": "Arrowtown",
"PostCode": "9351",
"Latitude": -44.9384,
"Longitude": 168.8101
},
{
"Name": "Balclutha",
"PostCode": "9230",
"Latitude": -46.2339,
"Longitude": 169.75
},
{
"Name": "Balclutha",
"PostCode": "9240",
"Latitude": -46.2339,
"Longitude": 169.75
},
{
"Name": "Beaumont",
"PostCode": "9591",
"Latitude": -45.8225,
"Longitude": 169.5301
},
{
"Name": "Becks",
"PostCode": "9377",
"Latitude": -45.0,
"Longitude": 169.7333
},
{
"Name": "Berwick",
"PostCode": "9073",
"Latitude": -45.95,
"Longitude": 170.1
},
{
"Name": "Bridge Hill",
"PostCode": "9320",
"Latitude": -45.2584,
"Longitude": 169.3801
},
{
"Name": "Bridge Hill",
"PostCode": "9340",
"Latitude": -45.2584,
"Longitude": 169.3801
},
{
"Name": "Brighton",
"PostCode": "9035",
"Latitude": -45.95,
"Longitude": 170.3333
},
{
"Name": "Broad Bay",
"PostCode": "9014",
"Latitude": -45.85,
"Longitude": 170.6167
},
{
"Name": "Caversham",
"PostCode": "9045",
"Latitude": -45.9,
"Longitude": 170.4833
},
{
"Name": "Chatto Creek",
"PostCode": "9393",
"Latitude": -45.1333,
"Longitude": 169.5167
},
{
"Name": "Clarks",
"PostCode": "9074",
"Latitude": -45.7333,
"Longitude": 170.05
},
{
"Name": "Clinton",
"PostCode": "9534",
"Latitude": -46.2,
"Longitude": 169.3667
},
{
"Name": "Clinton",
"PostCode": "9548",
"Latitude": -46.2,
"Longitude": 169.3667
},
{
"Name": "Clinton",
"PostCode": "9583",
"Latitude": -46.2,
"Longitude": 169.3667
},
{
"Name": "Clinton",
"PostCode": "9584",
"Latitude": -46.2,
"Longitude": 169.3667
},
{
"Name": "Clyde",
"PostCode": "9330",
"Latitude": -45.1865,
"Longitude": 169.3154
},
{
"Name": "Clyde",
"PostCode": "9341",
"Latitude": -45.1865,
"Longitude": 169.3154
},
{
"Name": "Clyde",
"PostCode": "9391",
"Latitude": -45.1865,
"Longitude": 169.3154
},
{
"Name": "Clydevale",
"PostCode": "9242",
"Latitude": -46.1,
"Longitude": 169.5333
},
{
"Name": "Conical Hills",
"PostCode": "9771",
"Latitude": -46.0667,
"Longitude": 169.2333
},
{
"Name": "Cromwell",
"PostCode": "9310",
"Latitude": -45.0384,
"Longitude": 169.2001
},
{
"Name": "Cromwell",
"PostCode": "9342",
"Latitude": -45.0384,
"Longitude": 169.2001
},
{
"Name": "Dunedin",
"PostCode": "9054",
"Latitude": -45.8742,
"Longitude": 170.5036
},
{
"Name": "Dunedin",
"PostCode": "9058",
"Latitude": -45.8742,
"Longitude": 170.5036
},
{
"Name": "Dunedin",
"PostCode": "9059",
"Latitude": -45.8742,
"Longitude": 170.5036
},
{
"Name": "Frankton",
"PostCode": "9300",
"Latitude": -45.0212,
"Longitude": 168.7336
},
{
"Name": "Frankton",
"PostCode": "9349",
"Latitude": -45.0212,
"Longitude": 168.7336
},
{
"Name": "Fruitlands",
"PostCode": "9392",
"Latitude": -45.35,
"Longitude": 169.3
},
{
"Name": "Gibbston",
"PostCode": "9384",
"Latitude": -45.0333,
"Longitude": 168.9667
},
{
"Name": "Gimmerburn",
"PostCode": "9395",
"Latitude": -45.1667,
"Longitude": 170.0
},
{
"Name": "Glendhu",
"PostCode": "9381",
"Latitude": -44.6667,
"Longitude": 169.0167
},
{
"Name": "Glenomaru",
"PostCode": "9271",
"Latitude": -46.3833,
"Longitude": 169.6833
},
{
"Name": "Glenorchy",
"PostCode": "9350",
"Latitude": -44.8504,
"Longitude": 168.3866
},
{
"Name": "Glenorchy",
"PostCode": "9372",
"Latitude": -44.8504,
"Longitude": 168.3866
},
{
"Name": "Green Island",
"PostCode": "9052",
"Latitude": -45.8884,
"Longitude": 170.4301
},
{
"Name": "Greenfield",
"PostCode": "9274",
"Latitude": -46.1,
"Longitude": 169.5833
},
{
"Name": "Hampden",
"PostCode": "9410",
"Latitude": -45.3184,
"Longitude": 170.8101
},
{
"Name": "Hampden",
"PostCode": "9442",
"Latitude": -45.3184,
"Longitude": 170.8101
},
{
"Name": "Herbert",
"PostCode": "9495",
"Latitude": -45.2333,
"Longitude": 170.7833
},
{
"Name": "Hilderthorpe",
"PostCode": "9493",
"Latitude": -44.9833,
"Longitude": 171.0667
},
{
"Name": "Hillend",
"PostCode": "9272",
"Latitude": -46.1333,
"Longitude": 169.75
},
{
"Name": "Island Cliff",
"PostCode": "9494",
"Latitude": -44.95,
"Longitude": 170.6667
},
{
"Name": "Kaikorai",
"PostCode": "9042",
"Latitude": -45.8584,
"Longitude": 170.4701
},
{
"Name": "Kaitangata",
"PostCode": "9210",
"Latitude": -46.275,
"Longitude": 169.85
},
{
"Name": "Kaitangata",
"PostCode": "9281",
"Latitude": -46.275,
"Longitude": 169.85
},
{
"Name": "Katiki",
"PostCode": "9482",
"Latitude": -45.4,
"Longitude": 170.8333
},
{
"Name": "Kauru Hill",
"PostCode": "9492",
"Latitude": -45.1,
"Longitude": 170.75
},
{
"Name": "Kingston",
"PostCode": "9748",
"Latitude": -45.3333,
"Longitude": 168.7
},
{
"Name": "Kingston",
"PostCode": "9793",
"Latitude": -45.3333,
"Longitude": 168.7
},
{
"Name": "Kokonga",
"PostCode": "9397",
"Latitude": -45.2167,
"Longitude": 170.25
},
{
"Name": "Kuri Bush",
"PostCode": "9091",
"Latitude": -46.0247,
"Longitude": 170.2297
},
{
"Name": "Lake Hawea",
"PostCode": "9345",
"Latitude": -44.6084,
"Longitude": 169.2601
},
{
"Name": "Lawrence",
"PostCode": "9532",
"Latitude": -45.9084,
"Longitude": 169.6901
},
{
"Name": "Lawrence",
"PostCode": "9543",
"Latitude": -45.9084,
"Longitude": 169.6901
},
{
"Name": "Liberton",
"PostCode": "9010",
"Latitude": -45.8384,
"Longitude": 170.5101
},
{
"Name": "Lindis Crossing",
"PostCode": "9383",
"Latitude": -44.8833,
"Longitude": 169.3833
},
{
"Name": "Lower Shotover",
"PostCode": "9304",
"Latitude": -44.9833,
"Longitude": 168.7667
},
{
"Name": "Macraes Flat",
"PostCode": "9483",
"Latitude": -45.3833,
"Longitude": 170.4333
},
{
"Name": "Maia",
"PostCode": "9022",
"Latitude": -45.8584,
"Longitude": 170.5501
},
{
"Name": "Makarora",
"PostCode": "9346",
"Latitude": -44.2333,
"Longitude": 169.2333
},
{
"Name": "Makarora Wharf",
"PostCode": "9382",
"Latitude": -44.3167,
"Longitude": 169.1833
},
{
"Name": "Maryhill",
"PostCode": "9040",
"Latitude": -45.8784,
"Longitude": 170.4801
},
{
"Name": "Matakanui",
"PostCode": "9376",
"Latitude": -45.0167,
"Longitude": 169.5667
},
{
"Name": "Middlemarch",
"PostCode": "9067",
"Latitude": -45.5167,
"Longitude": 170.1167
},
{
"Name": "Mihiwaka",
"PostCode": "9081",
"Latitude": -45.8,
"Longitude": 170.6333
},
{
"Name": "Milburn",
"PostCode": "9291",
"Latitude": -46.0833,
"Longitude": 170.0
},
{
"Name": "Millers Flat",
"PostCode": "9544",
"Latitude": -45.6631,
"Longitude": 169.4117
},
{
"Name": "Millers Flat",
"PostCode": "9572",
"Latitude": -45.6631,
"Longitude": 169.4117
},
{
"Name": "Milton",
"PostCode": "9220",
"Latitude": -46.1208,
"Longitude": 169.9694
},
{
"Name": "Milton",
"PostCode": "9241",
"Latitude": -46.1208,
"Longitude": 169.9694
},
{
"Name": "Moa Creek",
"PostCode": "9387",
"Latitude": -45.2,
"Longitude": 169.65
},
{
"Name": "Mornington",
"PostCode": "9011",
"Latitude": -45.8833,
"Longitude": 170.4667
},
{
"Name": "Mosgiel",
"PostCode": "9024",
"Latitude": -45.875,
"Longitude": 170.3472
},
{
"Name": "Mosgiel",
"PostCode": "9053",
"Latitude": -45.875,
"Longitude": 170.3472
},
{
"Name": "Mosgiel",
"PostCode": "9092",
"Latitude": -45.875,
"Longitude": 170.3472
},
{
"Name": "Mount Cargill",
"PostCode": "9085",
"Latitude": -45.8,
"Longitude": 170.5667
},
{
"Name": "Naseby",
"PostCode": "9354",
"Latitude": -45.0184,
"Longitude": 170.1301
},
{
"Name": "Naseby",
"PostCode": "9396",
"Latitude": -45.0184,
"Longitude": 170.1301
},
{
"Name": "New Haven",
"PostCode": "9585",
"Latitude": -46.4667,
"Longitude": 169.7167
},
{
"Name": "Ngapuna",
"PostCode": "9596",
"Latitude": -45.45,
"Longitude": 170.1667
},
{
"Name": "Ngapuna",
"PostCode": "9598",
"Latitude": -45.45,
"Longitude": 170.1667
},
{
"Name": "North Dunedin",
"PostCode": "9043",
"Latitude": -45.8584,
"Longitude": 170.5101
},
{
"Name": "Oamaru",
"PostCode": "9400",
"Latitude": -45.0976,
"Longitude": 170.9709
},
{
"Name": "Oamaru",
"PostCode": "9444",
"Latitude": -45.0976,
"Longitude": 170.9709
},
{
"Name": "Ocean Grove",
"PostCode": "9013",
"Latitude": -45.9,
"Longitude": 170.55
},
{
"Name": "Omakau",
"PostCode": "9352",
"Latitude": -45.0833,
"Longitude": 169.6
},
{
"Name": "Opoho",
"PostCode": "9041",
"Latitude": -45.8484,
"Longitude": 170.5201
},
{
"Name": "Otematata",
"PostCode": "9447",
"Latitude": -44.6078,
"Longitude": 170.191
},
{
"Name": "Outram",
"PostCode": "9019",
"Latitude": -45.8667,
"Longitude": 170.2333
},
{
"Name": "Outram",
"PostCode": "9062",
"Latitude": -45.8667,
"Longitude": 170.2333
},
{
"Name": "Owaka",
"PostCode": "9535",
"Latitude": -46.45,
"Longitude": 169.6667
},
{
"Name": "Owaka",
"PostCode": "9546",
"Latitude": -46.45,
"Longitude": 169.6667
},
{
"Name": "Paerau",
"PostCode": "9398",
"Latitude": -45.4167,
"Longitude": 169.95
},
{
"Name": "Palmerston",
"PostCode": "9443",
"Latitude": -45.4784,
"Longitude": 170.7201
},
{
"Name": "Park Hill",
"PostCode": "9587",
"Latitude": -45.8167,
"Longitude": 169.2167
},
{
"Name": "Port Chalmers",
"PostCode": "9050",
"Latitude": -45.8159,
"Longitude": 170.621
},
{
"Name": "Portobello",
"PostCode": "9048",
"Latitude": -45.85,
"Longitude": 170.65
},
{
"Name": "Portobello",
"PostCode": "9077",
"Latitude": -45.85,
"Longitude": 170.65
},
{
"Name": "Puketiro",
"PostCode": "9586",
"Latitude": -46.4833,
"Longitude": 169.4833
},
{
"Name": "Queenstown",
"PostCode": "9348",
"Latitude": -45.0302,
"Longitude": 168.6627
},
{
"Name": "Raes Junction",
"PostCode": "9588",
"Latitude": -45.7833,
"Longitude": 169.4667
},
{
"Name": "Ranfurly",
"PostCode": "9332",
"Latitude": -45.1333,
"Longitude": 170.1
},
{
"Name": "Ranfurly",
"PostCode": "9353",
"Latitude": -45.1333,
"Longitude": 170.1
},
{
"Name": "Rocklands",
"PostCode": "9597",
"Latitude": -45.6667,
"Longitude": 169.9833
},
{
"Name": "Roxburgh",
"PostCode": "9500",
"Latitude": -45.5406,
"Longitude": 169.3147
},
{
"Name": "Roxburgh Hydro",
"PostCode": "9571",
"Latitude": -45.4803,
"Longitude": 169.3128
},
{
"Name": "Saint Bathans",
"PostCode": "9386",
"Latitude": -44.8667,
"Longitude": 169.8167
},
{
"Name": "Saint Clair",
"PostCode": "9047",
"Latitude": -45.9167,
"Longitude": 170.4833
},
{
"Name": "Saint Kilda",
"PostCode": "9012",
"Latitude": -45.8984,
"Longitude": 170.4901
},
{
"Name": "Saint Kilda",
"PostCode": "9044",
"Latitude": -45.9,
"Longitude": 170.5194
},
{
"Name": "Saint Kilda",
"PostCode": "9049",
"Latitude": -45.9,
"Longitude": 170.5194
},
{
"Name": "Sawyers Bay",
"PostCode": "9023",
"Latitude": -45.8333,
"Longitude": 170.6
},
{
"Name": "Seacliff",
"PostCode": "9471",
"Latitude": -45.6833,
"Longitude": 170.6167
},
{
"Name": "Stirling",
"PostCode": "9231",
"Latitude": -46.25,
"Longitude": 169.7833
},
{
"Name": "Stoneburn",
"PostCode": "9481",
"Latitude": -45.4333,
"Longitude": 170.5667
},
{
"Name": "Sunnyvale",
"PostCode": "9018",
"Latitude": -45.8984,
"Longitude": 170.4101
},
{
"Name": "Tainui",
"PostCode": "9046",
"Latitude": -45.8984,
"Longitude": 170.5101
},
{
"Name": "Tapanui",
"PostCode": "9522",
"Latitude": -45.9384,
"Longitude": 169.2601
},
{
"Name": "Tapanui",
"PostCode": "9542",
"Latitude": -45.9384,
"Longitude": 169.2601
},
{
"Name": "Tarras",
"PostCode": "9347",
"Latitude": -44.8333,
"Longitude": 169.4167
},
{
"Name": "Tokarahi",
"PostCode": "9491",
"Latitude": -44.95,
"Longitude": 170.65
},
{
"Name": "Tokoiti",
"PostCode": "9292",
"Latitude": -46.1333,
"Longitude": 170.0
},
{
"Name": "Upper Shotover",
"PostCode": "9371",
"Latitude": -44.8333,
"Longitude": 168.7167
},
{
"Name": "Waiareka Junction",
"PostCode": "9401",
"Latitude": -45.1,
"Longitude": 170.9333
},
{
"Name": "Waikoikoi",
"PostCode": "9775",
"Latitude": -46.0167,
"Longitude": 169.15
},
{
"Name": "Waikouaiti",
"PostCode": "9472",
"Latitude": -45.5884,
"Longitude": 170.6501
},
{
"Name": "Waitahuna",
"PostCode": "9593",
"Latitude": -45.9833,
"Longitude": 169.7667
},
{
"Name": "Waitati",
"PostCode": "9069",
"Latitude": -45.75,
"Longitude": 170.5667
},
{
"Name": "Wanaka",
"PostCode": "9305",
"Latitude": -44.7,
"Longitude": 169.15
},
{
"Name": "Wanaka",
"PostCode": "9343",
"Latitude": -44.7,
"Longitude": 169.15
},
{
"Name": "Wangaloa",
"PostCode": "9282",
"Latitude": -46.2833,
"Longitude": 169.9167
},
{
"Name": "Warepa",
"PostCode": "9273",
"Latitude": -46.25,
"Longitude": 169.5833
},
{
"Name": "Waverley",
"PostCode": "9016",
"Latitude": -45.8784,
"Longitude": 170.5201
},
{
"Name": "Wedderburn",
"PostCode": "9355",
"Latitude": -45.0333,
"Longitude": 170.0167
},
{
"Name": "Wingatui",
"PostCode": "9076",
"Latitude": -45.8833,
"Longitude": 170.3833
}
]
}
]
}
]
},
{
"Name": "Southland",
"Code": "F8",
"Provinces": [
{
"Communities": [
{
"Places": [
{
"Name": "Athol",
"PostCode": "9749",
"Latitude": -45.5167,
"Longitude": 168.5833
},
{
"Name": "Awarua Plains",
"PostCode": "9877",
"Latitude": -46.4833,
"Longitude": 168.3833
},
{
"Name": "Balfour",
"PostCode": "9746",
"Latitude": -45.8333,
"Longitude": 168.5833
},
{
"Name": "Balfour",
"PostCode": "9779",
"Latitude": -45.8333,
"Longitude": 168.5833
},
{
"Name": "Bluff",
"PostCode": "9814",
"Latitude": -46.6,
"Longitude": 168.3333
},
{
"Name": "Dipton",
"PostCode": "9752",
"Latitude": -45.9,
"Longitude": 168.3667
},
{
"Name": "Dipton",
"PostCode": "9791",
"Latitude": -45.9,
"Longitude": 168.3667
},
{
"Name": "East End",
"PostCode": "9842",
"Latitude": -46.6042,
"Longitude": 168.3472
},
{
"Name": "East Gore",
"PostCode": "9710",
"Latitude": -46.0884,
"Longitude": 168.9501
},
{
"Name": "East Gore",
"PostCode": "9740",
"Latitude": -46.0884,
"Longitude": 168.9501
},
{
"Name": "Eastern Bush",
"PostCode": "9682",
"Latitude": -45.9833,
"Longitude": 167.7667
},
{
"Name": "Edendale",
"PostCode": "9825",
"Latitude": -46.3167,
"Longitude": 168.7833
},
{
"Name": "Edendale",
"PostCode": "9848",
"Latitude": -46.3167,
"Longitude": 168.7833
},
{
"Name": "Fairfax",
"PostCode": "9683",
"Latitude": -46.2,
"Longitude": 168.05
},
{
"Name": "Fortrose",
"PostCode": "9875",
"Latitude": -46.5667,
"Longitude": 168.8
},
{
"Name": "Garston",
"PostCode": "9750",
"Latitude": -45.4667,
"Longitude": 168.6833
},
{
"Name": "Garston",
"PostCode": "9778",
"Latitude": -45.4667,
"Longitude": 168.6833
},
{
"Name": "Glengarry",
"PostCode": "9841",
"Latitude": -46.3984,
"Longitude": 168.3701
},
{
"Name": "Glenham",
"PostCode": "9891",
"Latitude": -46.4,
"Longitude": 168.85
},
{
"Name": "Gummies Bush",
"PostCode": "9883",
"Latitude": -46.2833,
"Longitude": 168.0167
},
{
"Name": "Halfmoon Bay (Oban)",
"PostCode": "9818",
"Latitude": -46.8989,
"Longitude": 168.129
},
{
"Name": "Hawthorndale",
"PostCode": "9845",
"Latitude": -46.3984,
"Longitude": 168.3801
},
{
"Name": "Kamahi",
"PostCode": "9893",
"Latitude": -46.3333,
"Longitude": 168.7167
},
{
"Name": "Lochiel",
"PostCode": "9781",
"Latitude": -46.2,
"Longitude": 168.3333
},
{
"Name": "Lumsden",
"PostCode": "9730",
"Latitude": -45.7333,
"Longitude": 168.45
},
{
"Name": "Lumsden",
"PostCode": "9742",
"Latitude": -45.7333,
"Longitude": 168.45
},
{
"Name": "Lumsden",
"PostCode": "9794",
"Latitude": -45.7333,
"Longitude": 168.45
},
{
"Name": "Mabel Bush",
"PostCode": "9872",
"Latitude": -46.2833,
"Longitude": 168.5333
},
{
"Name": "Makarewa",
"PostCode": "9876",
"Latitude": -46.3333,
"Longitude": 168.35
},
{
"Name": "Manapouri",
"PostCode": "9643",
"Latitude": -45.5669,
"Longitude": 167.6115
},
{
"Name": "Mataura",
"PostCode": "9712",
"Latitude": -46.1784,
"Longitude": 168.8501
},
{
"Name": "Mataura",
"PostCode": "9774",
"Latitude": -46.1784,
"Longitude": 168.8501
},
{
"Name": "Mokoreta",
"PostCode": "9892",
"Latitude": -46.4333,
"Longitude": 169.0667
},
{
"Name": "Mossburn",
"PostCode": "9747",
"Latitude": -45.6667,
"Longitude": 168.25
},
{
"Name": "Mossburn",
"PostCode": "9792",
"Latitude": -45.6667,
"Longitude": 168.25
},
{
"Name": "Ngaro",
"PostCode": "9689",
"Latitude": -45.9,
"Longitude": 167.9833
},
{
"Name": "Niagara",
"PostCode": "9884",
"Latitude": -46.6,
"Longitude": 169.1333
},
{
"Name": "Nightcaps",
"PostCode": "9630",
"Latitude": -45.9667,
"Longitude": 168.0333
},
{
"Name": "Nightcaps",
"PostCode": "9644",
"Latitude": -45.9667,
"Longitude": 168.0333
},
{
"Name": "Ohai",
"PostCode": "9635",
"Latitude": -45.9167,
"Longitude": 167.95
},
{
"Name": "Ohai",
"PostCode": "9645",
"Latitude": -45.9167,
"Longitude": 167.95
},
{
"Name": "Otapiri Gorge",
"PostCode": "9782",
"Latitude": -46.05,
"Longitude": 168.45
},
{
"Name": "Otatara",
"PostCode": "9879",
"Latitude": -46.4333,
"Longitude": 168.3
},
{
"Name": "Otautau",
"PostCode": "9610",
"Latitude": -46.15,
"Longitude": 168.0
},
{
"Name": "Otautau",
"PostCode": "9641",
"Latitude": -46.15,
"Longitude": 168.0
},
{
"Name": "Pukerau",
"PostCode": "9772",
"Latitude": -46.1,
"Longitude": 169.1
},
{
"Name": "Richmond",
"PostCode": "9840",
"Latitude": -46.4084,
"Longitude": 168.3601
},
{
"Name": "Riversdale",
"PostCode": "9744",
"Latitude": -45.9,
"Longitude": 168.75
},
{
"Name": "Riversdale",
"PostCode": "9776",
"Latitude": -45.9,
"Longitude": 168.75
},
{
"Name": "Riverton",
"PostCode": "9822",
"Latitude": -46.35,
"Longitude": 168.0167
},
{
"Name": "Riverton",
"PostCode": "9847",
"Latitude": -46.35,
"Longitude": 168.0167
},
{
"Name": "Round Hill",
"PostCode": "9881",
"Latitude": -46.3167,
"Longitude": 167.8167
},
{
"Name": "South Hillend",
"PostCode": "9783",
"Latitude": -46.05,
"Longitude": 168.25
},
{
"Name": "Strathern",
"PostCode": "9844",
"Latitude": -46.4284,
"Longitude": 168.3601
},
{
"Name": "Te Anau",
"PostCode": "9600",
"Latitude": -45.4167,
"Longitude": 167.7167
},
{
"Name": "Te Anau",
"PostCode": "9640",
"Latitude": -45.4167,
"Longitude": 167.7167
},
{
"Name": "Te Anau",
"PostCode": "9679",
"Latitude": -45.4167,
"Longitude": 167.7167
},
{
"Name": "The Key",
"PostCode": "9672",
"Latitude": -45.55,
"Longitude": 167.9
},
{
"Name": "Tisbury",
"PostCode": "9812",
"Latitude": -46.45,
"Longitude": 168.4
},
{
"Name": "Tuatapere",
"PostCode": "9620",
"Latitude": -46.1333,
"Longitude": 167.6833
},
{
"Name": "Tuatapere",
"PostCode": "9642",
"Latitude": -46.1333,
"Longitude": 167.6833
},
{
"Name": "Waianiwa",
"PostCode": "9874",
"Latitude": -46.3,
"Longitude": 168.2667
},
{
"Name": "Waikaia",
"PostCode": "9745",
"Latitude": -45.7333,
"Longitude": 168.85
},
{
"Name": "Waikaka",
"PostCode": "9743",
"Latitude": -45.9167,
"Longitude": 169.0167
},
{
"Name": "Waikiwi",
"PostCode": "9843",
"Latitude": -46.3833,
"Longitude": 168.3333
},
{
"Name": "Waipounamu",
"PostCode": "9777",
"Latitude": -45.85,
"Longitude": 168.7667
},
{
"Name": "Wairoto",
"PostCode": "9691",
"Latitude": -45.9833,
"Longitude": 167.6
},
{
"Name": "Wallacetown",
"PostCode": "9816",
"Latitude": -46.3333,
"Longitude": 168.2833
},
{
"Name": "Waverley",
"PostCode": "9810",
"Latitude": -46.3884,
"Longitude": 168.3801
},
{
"Name": "Wendon Valley",
"PostCode": "9773",
"Latitude": -45.8833,
"Longitude": 168.9667
},
{
"Name": "Winton",
"PostCode": "9720",
"Latitude": -46.15,
"Longitude": 168.3333
},
{
"Name": "Winton",
"PostCode": "9741",
"Latitude": -46.15,
"Longitude": 168.3333
},
{
"Name": "Woodlands",
"PostCode": "9871",
"Latitude": -46.3667,
"Longitude": 168.55
},
{
"Name": "Wyndham",
"PostCode": "9831",
"Latitude": -46.3333,
"Longitude": 168.85
},
{
"Name": "Wyndham",
"PostCode": "9849",
"Latitude": -46.3333,
"Longitude": 168.85
}
]
}
]
}
]
},
{
"Name": "Taranaki",
"Code": "F9",
"Provinces": [
{
"Communities": [
{
"Places": [
{
"Name": "Ararata",
"PostCode": "4674",
"Latitude": -39.5167,
"Longitude": 174.3667
},
{
"Name": "Bell Block",
"PostCode": "4351",
"Latitude": -39.0333,
"Longitude": 174.15
},
{
"Name": "Brooklands",
"PostCode": "4340",
"Latitude": -39.0735,
"Longitude": 174.0821
},
{
"Name": "Dawson Falls",
"PostCode": "4391",
"Latitude": -39.3238,
"Longitude": 174.1046
},
{
"Name": "Eltham",
"PostCode": "4322",
"Latitude": -39.4292,
"Longitude": 174.3
},
{
"Name": "Eltham",
"PostCode": "4353",
"Latitude": -39.4292,
"Longitude": 174.3
},
{
"Name": "Eltham",
"PostCode": "4398",
"Latitude": -39.4292,
"Longitude": 174.3
},
{
"Name": "Fitzroy",
"PostCode": "4312",
"Latitude": -39.05,
"Longitude": 174.1
},
{
"Name": "Fitzroy",
"PostCode": "4341",
"Latitude": -39.05,
"Longitude": 174.1
},
{
"Name": "Frankleigh Park",
"PostCode": "4343",
"Latitude": -39.0782,
"Longitude": 174.0602
},
{
"Name": "Hawera",
"PostCode": "4610",
"Latitude": -39.5917,
"Longitude": 174.2833
},
{
"Name": "Hawera",
"PostCode": "4640",
"Latitude": -39.5917,
"Longitude": 174.2833
},
{
"Name": "Hillsborough",
"PostCode": "4372",
"Latitude": -39.1,
"Longitude": 174.15
},
{
"Name": "Huinga",
"PostCode": "4393",
"Latitude": -39.357,
"Longitude": 174.4335
},
{
"Name": "Hurleyville",
"PostCode": "4598",
"Latitude": -39.6333,
"Longitude": 174.5
},
{
"Name": "Inglewood",
"PostCode": "4330",
"Latitude": -39.1582,
"Longitude": 174.1802
},
{
"Name": "Inglewood",
"PostCode": "4347",
"Latitude": -39.1582,
"Longitude": 174.1802
},
{
"Name": "Kaimiro",
"PostCode": "4386",
"Latitude": -39.2,
"Longitude": 174.15
},
{
"Name": "Kaponga",
"PostCode": "4642",
"Latitude": -39.4333,
"Longitude": 174.15
},
{
"Name": "Kaupokonui",
"PostCode": "4678",
"Latitude": -39.55,
"Longitude": 174.0667
},
{
"Name": "Lepperton",
"PostCode": "4373",
"Latitude": -39.0667,
"Longitude": 174.2167
},
{
"Name": "Manaia",
"PostCode": "4612",
"Latitude": -39.55,
"Longitude": 174.1333
},
{
"Name": "Manaia",
"PostCode": "4641",
"Latitude": -39.55,
"Longitude": 174.1333
},
{
"Name": "Mangawhio",
"PostCode": "4592",
"Latitude": -39.7167,
"Longitude": 174.7167
},
{
"Name": "Mangorei",
"PostCode": "4371",
"Latitude": -39.15,
"Longitude": 174.0833
},
{
"Name": "Matapu",
"PostCode": "4675",
"Latitude": -39.4833,
"Longitude": 174.2333
},
{
"Name": "Matau",
"PostCode": "4395",
"Latitude": -39.1612,
"Longitude": 174.5635
},
{
"Name": "Matukuroa",
"PostCode": "4597",
"Latitude": -39.6833,
"Longitude": 174.5333
},
{
"Name": "Meremere",
"PostCode": "4672",
"Latitude": -39.5833,
"Longitude": 174.3833
},
{
"Name": "Merrilands",
"PostCode": "4360",
"Latitude": -39.068,
"Longitude": 174.0977
},
{
"Name": "Moeroa",
"PostCode": "4399",
"Latitude": -39.4333,
"Longitude": 174.6333
},
{
"Name": "Moturoa",
"PostCode": "4344",
"Latitude": -39.0643,
"Longitude": 174.0356
},
{
"Name": "New Plymouth",
"PostCode": "4342",
"Latitude": -39.0667,
"Longitude": 174.0833
},
{
"Name": "Normanby",
"PostCode": "4614",
"Latitude": -39.5333,
"Longitude": 174.2833
},
{
"Name": "Nukuhau",
"PostCode": "4591",
"Latitude": -39.6,
"Longitude": 174.6667
},
{
"Name": "Oakura",
"PostCode": "4314",
"Latitude": -39.1167,
"Longitude": 173.95
},
{
"Name": "Oakura",
"PostCode": "4345",
"Latitude": -39.1167,
"Longitude": 173.95
},
{
"Name": "Oakura",
"PostCode": "4374",
"Latitude": -39.1167,
"Longitude": 173.95
},
{
"Name": "Oaonui",
"PostCode": "4681",
"Latitude": -39.4,
"Longitude": 173.8167
},
{
"Name": "Okaiawa",
"PostCode": "4671",
"Latitude": -39.5333,
"Longitude": 174.2
},
{
"Name": "Okato",
"PostCode": "4335",
"Latitude": -39.2,
"Longitude": 173.8833
},
{
"Name": "Okato",
"PostCode": "4348",
"Latitude": -39.2,
"Longitude": 173.8833
},
{
"Name": "Okato",
"PostCode": "4381",
"Latitude": -39.2,
"Longitude": 173.8833
},
{
"Name": "Okau",
"PostCode": "4378",
"Latitude": -38.8667,
"Longitude": 174.65
},
{
"Name": "Okoki",
"PostCode": "4375",
"Latitude": -39.0167,
"Longitude": 174.4833
},
{
"Name": "Opunake",
"PostCode": "4616",
"Latitude": -39.4556,
"Longitude": 173.8583
},
{
"Name": "Opunake",
"PostCode": "4645",
"Latitude": -39.4556,
"Longitude": 173.8583
},
{
"Name": "Parihaka Pa",
"PostCode": "4685",
"Latitude": -39.3,
"Longitude": 173.8333
},
{
"Name": "Puniwhakau",
"PostCode": "4392",
"Latitude": -39.3282,
"Longitude": 174.6165
},
{
"Name": "Ratapiko",
"PostCode": "4390",
"Latitude": -39.2,
"Longitude": 174.3167
},
{
"Name": "Riverlea",
"PostCode": "4679",
"Latitude": -39.4333,
"Longitude": 174.0833
},
{
"Name": "Sentry Hill",
"PostCode": "4382",
"Latitude": -39.0333,
"Longitude": 174.2
},
{
"Name": "Stratford",
"PostCode": "4332",
"Latitude": -39.3376,
"Longitude": 174.2837
},
{
"Name": "Stratford",
"PostCode": "4352",
"Latitude": -39.3376,
"Longitude": 174.2837
},
{
"Name": "Tahora",
"PostCode": "4396",
"Latitude": -39.0309,
"Longitude": 174.8026
},
{
"Name": "Tahora",
"PostCode": "4397",
"Latitude": -39.0309,
"Longitude": 174.8026
},
{
"Name": "Tarata",
"PostCode": "4387",
"Latitude": -39.15,
"Longitude": 174.3667
},
{
"Name": "Tawhiwhi",
"PostCode": "4588",
"Latitude": -39.6333,
"Longitude": 174.8
},
{
"Name": "Te Roti",
"PostCode": "4673",
"Latitude": -39.4833,
"Longitude": 174.2667
},
{
"Name": "Te Tawa",
"PostCode": "4388",
"Latitude": -39.1833,
"Longitude": 174.2167
},
{
"Name": "Tikorangi",
"PostCode": "4383",
"Latitude": -39.0333,
"Longitude": 174.2833
},
{
"Name": "Tuna",
"PostCode": "4394",
"Latitude": -39.2679,
"Longitude": 174.2981
},
{
"Name": "Upper Kahui",
"PostCode": "4684",
"Latitude": -39.3167,
"Longitude": 173.8833
},
{
"Name": "Urenui",
"PostCode": "4349",
"Latitude": -39.0,
"Longitude": 174.3833
},
{
"Name": "Uruti",
"PostCode": "4377",
"Latitude": -38.95,
"Longitude": 174.5333
},
{
"Name": "Uruti",
"PostCode": "4379",
"Latitude": -38.95,
"Longitude": 174.5333
},
{
"Name": "Waiongona",
"PostCode": "4389",
"Latitude": -39.1,
"Longitude": 174.2167
},
{
"Name": "Waitara",
"PostCode": "4320",
"Latitude": -39.0016,
"Longitude": 174.2384
},
{
"Name": "Waitara",
"PostCode": "4346",
"Latitude": -39.0016,
"Longitude": 174.2384
},
{
"Name": "Waiteika",
"PostCode": "4682",
"Latitude": -39.4833,
"Longitude": 173.9
},
{
"Name": "Waitotara",
"PostCode": "4549",
"Latitude": -39.8,
"Longitude": 174.7333
},
{
"Name": "Waverley",
"PostCode": "4510",
"Latitude": -39.7667,
"Longitude": 174.6333
},
{
"Name": "Waverley",
"PostCode": "4544",
"Latitude": -39.7667,
"Longitude": 174.6333
},
{
"Name": "Westown",
"PostCode": "4310",
"Latitude": -39.0714,
"Longitude": 174.0622
},
{
"Name": "White Tank",
"PostCode": "4520",
"Latitude": -39.7583,
"Longitude": 174.4667
},
{
"Name": "White Tank",
"PostCode": "4545",
"Latitude": -39.7583,
"Longitude": 174.4667
}
]
}
]
}
]
},
{
"Name": "Waikato",
"Code": "G1",
"Provinces": [
{
"Communities": [
{
"Places": [
{
"Name": "Ahimia",
"PostCode": "3581",
"Latitude": -36.85,
"Longitude": 175.4833
},
{
"Name": "Aramiro",
"PostCode": "3285",
"Latitude": -37.8918,
"Longitude": 175.0318
},
{
"Name": "Arapae",
"PostCode": "3981",
"Latitude": -38.4167,
"Longitude": 175.0833
},
{
"Name": "Arapuni",
"PostCode": "3415",
"Latitude": -38.0709,
"Longitude": 175.646
},
{
"Name": "Atiamuri",
"PostCode": "3078",
"Latitude": -38.3833,
"Longitude": 176.0167
},
{
"Name": "Awakino",
"PostCode": "4376",
"Latitude": -38.65,
"Longitude": 174.6333
},
{
"Name": "Benneydale",
"PostCode": "3944",
"Latitude": -38.5206,
"Longitude": 175.3616
},
{
"Name": "Benneydale",
"PostCode": "3987",
"Latitude": -38.5206,
"Longitude": 175.3616
},
{
"Name": "Bruntwood",
"PostCode": "3493",
"Latitude": -37.85,
"Longitude": 175.4333
},
{
"Name": "Claudelands",
"PostCode": "3210",
"Latitude": -37.7833,
"Longitude": 175.2833
},
{
"Name": "Claudelands",
"PostCode": "3248",
"Latitude": -37.7833,
"Longitude": 175.2833
},
{
"Name": "Claudelands",
"PostCode": "3252",
"Latitude": -37.7833,
"Longitude": 175.2833
},
{
"Name": "Claudelands",
"PostCode": "3256",
"Latitude": -37.7833,
"Longitude": 175.2833
},
{
"Name": "Claudelands",
"PostCode": "3257",
"Latitude": -37.7833,
"Longitude": 175.2833
},
{
"Name": "Colville",
"PostCode": "3547",
"Latitude": -36.6333,
"Longitude": 175.4667
},
{
"Name": "Colville",
"PostCode": "3584",
"Latitude": -36.6333,
"Longitude": 175.4667
},
{
"Name": "Coroglen",
"PostCode": "3591",
"Latitude": -36.9167,
"Longitude": 175.7
},
{
"Name": "Coroglen",
"PostCode": "3592",
"Latitude": -36.9167,
"Longitude": 175.7
},
{
"Name": "Coromandel",
"PostCode": "3543",
"Latitude": -36.7611,
"Longitude": 175.4963
},
{
"Name": "Eureka",
"PostCode": "3284",
"Latitude": -37.7333,
"Longitude": 175.4167
},
{
"Name": "Frankton Junction",
"PostCode": "3204",
"Latitude": -37.8,
"Longitude": 175.2667
},
{
"Name": "Frankton Junction",
"PostCode": "3243",
"Latitude": -37.8,
"Longitude": 175.2667
},
{
"Name": "Gordonton",
"PostCode": "3264",
"Latitude": -37.6667,
"Longitude": 175.3
},
{
"Name": "Gordonton",
"PostCode": "3281",
"Latitude": -37.6667,
"Longitude": 175.3
},
{
"Name": "Hamilton",
"PostCode": "3214",
"Latitude": -37.7833,
"Longitude": 175.2833
},
{
"Name": "Hamilton",
"PostCode": "3244",
"Latitude": -37.7833,
"Longitude": 175.2833
},
{
"Name": "Hamilton East",
"PostCode": "3216",
"Latitude": -37.7882,
"Longitude": 175.2902
},
{
"Name": "Hamilton East",
"PostCode": "3247",
"Latitude": -37.7882,
"Longitude": 175.2902
},
{
"Name": "Hamilton East",
"PostCode": "3251",
"Latitude": -37.7882,
"Longitude": 175.2902
},
{
"Name": "Hamilton East",
"PostCode": "3255",
"Latitude": -37.7882,
"Longitude": 175.2902
},
{
"Name": "Hamilton West",
"PostCode": "3240",
"Latitude": -37.7882,
"Longitude": 175.2702
},
{
"Name": "Hamilton West",
"PostCode": "3242",
"Latitude": -37.7882,
"Longitude": 175.2702
},
{
"Name": "Hangatiki",
"PostCode": "3943",
"Latitude": -38.25,
"Longitude": 175.1667
},
{
"Name": "Hangatiki",
"PostCode": "3976",
"Latitude": -38.25,
"Longitude": 175.1667
},
{
"Name": "Hangatiki",
"PostCode": "3977",
"Latitude": -38.25,
"Longitude": 175.1667
},
{
"Name": "Hautapu",
"PostCode": "3451",
"Latitude": -37.8608,
"Longitude": 175.4535
},
{
"Name": "Hauturu",
"PostCode": "3878",
"Latitude": -38.1,
"Longitude": 174.9333
},
{
"Name": "Hikuai",
"PostCode": "3579",
"Latitude": -37.0833,
"Longitude": 175.7833
},
{
"Name": "Hinuera",
"PostCode": "3472",
"Latitude": -37.8833,
"Longitude": 175.7667
},
{
"Name": "Honikiwi",
"PostCode": "3973",
"Latitude": -38.15,
"Longitude": 175.1
},
{
"Name": "Horotiu",
"PostCode": "3262",
"Latitude": -37.7167,
"Longitude": 175.2
},
{
"Name": "Kaawa",
"PostCode": "2695",
"Latitude": -37.5108,
"Longitude": 174.8836
},
{
"Name": "Kaiaua",
"PostCode": "2473",
"Latitude": -37.1111,
"Longitude": 175.2962
},
{
"Name": "Kawhia",
"PostCode": "3843",
"Latitude": -38.0667,
"Longitude": 174.8167
},
{
"Name": "Kawhia",
"PostCode": "3889",
"Latitude": -38.0667,
"Longitude": 174.8167
},
{
"Name": "Kennedys Bay",
"PostCode": "3583",
"Latitude": -36.6833,
"Longitude": 175.55
},
{
"Name": "Kihikihi",
"PostCode": "3841",
"Latitude": -38.0333,
"Longitude": 175.35
},
{
"Name": "Kihikihi",
"PostCode": "3879",
"Latitude": -38.0333,
"Longitude": 175.35
},
{
"Name": "Kinleith",
"PostCode": "3491",
"Latitude": -38.2833,
"Longitude": 175.9
},
{
"Name": "Kiwitahi",
"PostCode": "3371",
"Latitude": -37.7,
"Longitude": 175.6
},
{
"Name": "Komakorau",
"PostCode": "3791",
"Latitude": -37.6333,
"Longitude": 175.2667
},
{
"Name": "Komata",
"PostCode": "3674",
"Latitude": -37.3667,
"Longitude": 175.7333
},
{
"Name": "Kopaki",
"PostCode": "3983",
"Latitude": -38.4667,
"Longitude": 175.2667
},
{
"Name": "Kopuku",
"PostCode": "2471",
"Latitude": -37.2833,
"Longitude": 175.1667
},
{
"Name": "Kuratau",
"PostCode": "3381",
"Latitude": -38.8882,
"Longitude": 175.7702
},
{
"Name": "Leamington",
"PostCode": "3432",
"Latitude": -37.8833,
"Longitude": 175.4667
},
{
"Name": "Leamington",
"PostCode": "3434",
"Latitude": -37.8833,
"Longitude": 175.4667
},
{
"Name": "Leamington",
"PostCode": "3450",
"Latitude": -37.8833,
"Longitude": 175.4667
},
{
"Name": "Leamington",
"PostCode": "3495",
"Latitude": -37.8833,
"Longitude": 175.4667
},
{
"Name": "Mahoenui",
"PostCode": "3945",
"Latitude": -38.5667,
"Longitude": 174.85
},
{
"Name": "Mahoenui",
"PostCode": "3978",
"Latitude": -38.5667,
"Longitude": 174.85
},
{
"Name": "Maihiihi",
"PostCode": "3972",
"Latitude": -38.2333,
"Longitude": 175.3833
},
{
"Name": "Maihiihi",
"PostCode": "3975",
"Latitude": -38.2333,
"Longitude": 175.3833
},
{
"Name": "Manawaru",
"PostCode": "3391",
"Latitude": -37.6333,
"Longitude": 175.7667
},
{
"Name": "Mangaiti",
"PostCode": "3392",
"Latitude": -37.5,
"Longitude": 175.6833
},
{
"Name": "Mangaiti",
"PostCode": "3393",
"Latitude": -37.5,
"Longitude": 175.6833
},
{
"Name": "Mangakino",
"PostCode": "3421",
"Latitude": -38.3741,
"Longitude": 175.771
},
{
"Name": "Mangakino",
"PostCode": "3445",
"Latitude": -38.3741,
"Longitude": 175.771
},
{
"Name": "Mangakino",
"PostCode": "3492",
"Latitude": -38.3741,
"Longitude": 175.771
},
{
"Name": "Matamata",
"PostCode": "3400",
"Latitude": -37.8106,
"Longitude": 175.7624
},
{
"Name": "Matamata",
"PostCode": "3440",
"Latitude": -37.8106,
"Longitude": 175.7624
},
{
"Name": "Matangi",
"PostCode": "3260",
"Latitude": -37.8048,
"Longitude": 175.3952
},
{
"Name": "Matapara",
"PostCode": "3874",
"Latitude": -38.2167,
"Longitude": 175.55
},
{
"Name": "Matapara",
"PostCode": "3877",
"Latitude": -38.2167,
"Longitude": 175.55
},
{
"Name": "Melville",
"PostCode": "3206",
"Latitude": -37.811,
"Longitude": 175.2821
},
{
"Name": "Melville",
"PostCode": "3245",
"Latitude": -37.811,
"Longitude": 175.2821
},
{
"Name": "Melville",
"PostCode": "3246",
"Latitude": -37.811,
"Longitude": 175.2821
},
{
"Name": "Mercer",
"PostCode": "2474",
"Latitude": -37.279,
"Longitude": 175.048
},
{
"Name": "Meremere",
"PostCode": "2441",
"Latitude": -37.319,
"Longitude": 175.069
},
{
"Name": "Moerangi",
"PostCode": "3895",
"Latitude": -37.9667,
"Longitude": 174.9167
},
{
"Name": "Mokau",
"PostCode": "4350",
"Latitude": -38.6974,
"Longitude": 174.6192
},
{
"Name": "Morrinsville",
"PostCode": "3300",
"Latitude": -37.6482,
"Longitude": 175.5202
},
{
"Name": "Morrinsville",
"PostCode": "3340",
"Latitude": -37.6482,
"Longitude": 175.5202
},
{
"Name": "Morrinsville",
"PostCode": "3375",
"Latitude": -37.6482,
"Longitude": 175.5202
},
{
"Name": "Motumaoho",
"PostCode": "3372",
"Latitude": -37.7,
"Longitude": 175.45
},
{
"Name": "Netherton",
"PostCode": "3671",
"Latitude": -37.3333,
"Longitude": 175.6167
},
{
"Name": "Netherton",
"PostCode": "3672",
"Latitude": -37.3333,
"Longitude": 175.6167
},
{
"Name": "Nevesville",
"PostCode": "3578",
"Latitude": -37.1667,
"Longitude": 175.7
},
{
"Name": "Newstead",
"PostCode": "3253",
"Latitude": -37.7833,
"Longitude": 175.35
},
{
"Name": "Newstead",
"PostCode": "3254",
"Latitude": -37.7833,
"Longitude": 175.35
},
{
"Name": "Ngaroto",
"PostCode": "3883",
"Latitude": -37.9833,
"Longitude": 175.3
},
{
"Name": "Ngaruawahia",
"PostCode": "3720",
"Latitude": -37.6674,
"Longitude": 175.1555
},
{
"Name": "Ngaruawahia",
"PostCode": "3742",
"Latitude": -37.6674,
"Longitude": 175.1555
},
{
"Name": "Ngatea",
"PostCode": "3503",
"Latitude": -37.2833,
"Longitude": 175.5
},
{
"Name": "Ngatea",
"PostCode": "3541",
"Latitude": -37.2833,
"Longitude": 175.5
},
{
"Name": "Ngatea",
"PostCode": "3597",
"Latitude": -37.2833,
"Longitude": 175.5
},
{
"Name": "Ngatira",
"PostCode": "3482",
"Latitude": -38.1,
"Longitude": 175.9
},
{
"Name": "Ohaupo",
"PostCode": "3803",
"Latitude": -37.9167,
"Longitude": 175.3167
},
{
"Name": "Ohaupo",
"PostCode": "3881",
"Latitude": -37.9167,
"Longitude": 175.3167
},
{
"Name": "Okauia",
"PostCode": "3471",
"Latitude": -37.787,
"Longitude": 175.8399
},
{
"Name": "Okoroire",
"PostCode": "3485",
"Latitude": -37.95,
"Longitude": 175.8
},
{
"Name": "Oparau",
"PostCode": "3885",
"Latitude": -38.05,
"Longitude": 174.9167
},
{
"Name": "Orini",
"PostCode": "3792",
"Latitude": -37.5667,
"Longitude": 175.3
},
{
"Name": "Oruanui",
"PostCode": "3377",
"Latitude": -38.5833,
"Longitude": 176.0333
},
{
"Name": "Otaua",
"PostCode": "2682",
"Latitude": -37.3064,
"Longitude": 174.7408
},
{
"Name": "Otorohanga",
"PostCode": "3900",
"Latitude": -38.1833,
"Longitude": 175.2
},
{
"Name": "Otorohanga",
"PostCode": "3940",
"Latitude": -38.1833,
"Longitude": 175.2
},
{
"Name": "Owhiro",
"PostCode": "3886",
"Latitude": -38.1667,
"Longitude": 174.9
},
{
"Name": "Owhiro",
"PostCode": "3988",
"Latitude": -38.1667,
"Longitude": 174.9
},
{
"Name": "Paeroa",
"PostCode": "3600",
"Latitude": -37.3667,
"Longitude": 175.6667
},
{
"Name": "Paeroa",
"PostCode": "3640",
"Latitude": -37.3667,
"Longitude": 175.6667
},
{
"Name": "Parawai",
"PostCode": "3577",
"Latitude": -37.1499,
"Longitude": 175.5599
},
{
"Name": "Pauanui",
"PostCode": "3546",
"Latitude": -37.0167,
"Longitude": 175.8667
},
{
"Name": "Pepepe",
"PostCode": "3794",
"Latitude": -37.5833,
"Longitude": 174.95
},
{
"Name": "Piopio",
"PostCode": "3912",
"Latitude": -38.4667,
"Longitude": 175.0167
},
{
"Name": "Piopio",
"PostCode": "3942",
"Latitude": -38.4667,
"Longitude": 175.0167
},
{
"Name": "Pirongia",
"PostCode": "3802",
"Latitude": -38.0,
"Longitude": 175.2
},
{
"Name": "Pirongia",
"PostCode": "3876",
"Latitude": -38.0,
"Longitude": 175.2
},
{
"Name": "Pokeno",
"PostCode": "2440",
"Latitude": -37.245,
"Longitude": 175.0205
},
{
"Name": "Pokeno",
"PostCode": "2472",
"Latitude": -37.245,
"Longitude": 175.0205
},
{
"Name": "Pukeatua",
"PostCode": "3494",
"Latitude": -38.0667,
"Longitude": 175.55
},
{
"Name": "Pukeatua",
"PostCode": "3880",
"Latitude": -38.0667,
"Longitude": 175.55
},
{
"Name": "Pukekapia",
"PostCode": "3771",
"Latitude": -37.5333,
"Longitude": 175.1167
},
{
"Name": "Puketutu",
"PostCode": "3982",
"Latitude": -38.4333,
"Longitude": 175.2333
},
{
"Name": "Putaruru",
"PostCode": "3411",
"Latitude": -38.0482,
"Longitude": 175.7802
},
{
"Name": "Putaruru",
"PostCode": "3443",
"Latitude": -38.0482,
"Longitude": 175.7802
},
{
"Name": "Putaruru",
"PostCode": "3483",
"Latitude": -38.0482,
"Longitude": 175.7802
},
{
"Name": "Raglan",
"PostCode": "3225",
"Latitude": -37.8,
"Longitude": 174.8833
},
{
"Name": "Raglan",
"PostCode": "3265",
"Latitude": -37.8,
"Longitude": 174.8833
},
{
"Name": "Raglan",
"PostCode": "3297",
"Latitude": -37.8,
"Longitude": 174.8833
},
{
"Name": "Rangitaiki",
"PostCode": "3379",
"Latitude": -38.8792,
"Longitude": 176.3729
},
{
"Name": "Ruapuke",
"PostCode": "3296",
"Latitude": -37.9247,
"Longitude": 174.8138
},
{
"Name": "Ruawaro",
"PostCode": "3772",
"Latitude": -37.5167,
"Longitude": 175.05
},
{
"Name": "Rukuhia",
"PostCode": "3282",
"Latitude": -37.8667,
"Longitude": 175.2833
},
{
"Name": "Rukuhia",
"PostCode": "3882",
"Latitude": -37.8667,
"Longitude": 175.2833
},
{
"Name": "Starrtown",
"PostCode": "3700",
"Latitude": -37.562,
"Longitude": 175.1619
},
{
"Name": "Starrtown",
"PostCode": "3740",
"Latitude": -37.562,
"Longitude": 175.1619
},
{
"Name": "Tahuna",
"PostCode": "3373",
"Latitude": -37.5,
"Longitude": 175.4833
},
{
"Name": "Tairua",
"PostCode": "3508",
"Latitude": -37.0167,
"Longitude": 175.85
},
{
"Name": "Tairua",
"PostCode": "3544",
"Latitude": -37.0167,
"Longitude": 175.85
},
{
"Name": "Tamahere",
"PostCode": "3283",
"Latitude": -37.8333,
"Longitude": 175.35
},
{
"Name": "Tapu",
"PostCode": "3575",
"Latitude": -36.9833,
"Longitude": 175.5
},
{
"Name": "Taupiri",
"PostCode": "3721",
"Latitude": -37.6167,
"Longitude": 175.1833
},
{
"Name": "Taupo",
"PostCode": "3351",
"Latitude": -38.6833,
"Longitude": 176.0833
},
{
"Name": "Taupo",
"PostCode": "3352",
"Latitude": -38.6833,
"Longitude": 176.0833
},
{
"Name": "Te Aroha",
"PostCode": "3320",
"Latitude": -37.5282,
"Longitude": 175.7102
},
{
"Name": "Te Aroha",
"PostCode": "3342",
"Latitude": -37.5282,
"Longitude": 175.7102
},
{
"Name": "Te Aroha",
"PostCode": "3343",
"Latitude": -37.5282,
"Longitude": 175.7102
},
{
"Name": "Te Awamutu",
"PostCode": "3800",
"Latitude": -38.0082,
"Longitude": 175.3302
},
{
"Name": "Te Awamutu",
"PostCode": "3840",
"Latitude": -38.0082,
"Longitude": 175.3302
},
{
"Name": "Te Kauwhata",
"PostCode": "3710",
"Latitude": -37.4,
"Longitude": 175.15
},
{
"Name": "Te Kauwhata",
"PostCode": "3741",
"Latitude": -37.4,
"Longitude": 175.15
},
{
"Name": "Te Kawa",
"PostCode": "3873",
"Latitude": -38.1,
"Longitude": 175.2833
},
{
"Name": "Te Kawa",
"PostCode": "3974",
"Latitude": -38.1,
"Longitude": 175.2833
},
{
"Name": "Te Kowhai",
"PostCode": "3263",
"Latitude": -37.75,
"Longitude": 175.15
},
{
"Name": "Te Kowhai",
"PostCode": "3288",
"Latitude": -37.75,
"Longitude": 175.15
},
{
"Name": "Te Kuiti",
"PostCode": "3910",
"Latitude": -38.3363,
"Longitude": 175.1701
},
{
"Name": "Te Kuiti",
"PostCode": "3941",
"Latitude": -38.3363,
"Longitude": 175.1701
},
{
"Name": "Te Kuiti",
"PostCode": "3986",
"Latitude": -38.3363,
"Longitude": 175.1701
},
{
"Name": "Te Mawhai",
"PostCode": "3875",
"Latitude": -38.05,
"Longitude": 175.3
},
{
"Name": "Te Papatapu",
"PostCode": "3894",
"Latitude": -37.95,
"Longitude": 174.8833
},
{
"Name": "Te Puninga",
"PostCode": "3374",
"Latitude": -37.5833,
"Longitude": 175.5667
},
{
"Name": "Te Rapa",
"PostCode": "3200",
"Latitude": -37.75,
"Longitude": 175.2167
},
{
"Name": "Te Rapa",
"PostCode": "3241",
"Latitude": -37.75,
"Longitude": 175.2167
},
{
"Name": "Te Rapa",
"PostCode": "3249",
"Latitude": -37.75,
"Longitude": 175.2167
},
{
"Name": "Te Rerenga",
"PostCode": "3582",
"Latitude": -36.75,
"Longitude": 175.6
},
{
"Name": "Te Uku",
"PostCode": "3266",
"Latitude": -37.8333,
"Longitude": 174.9667
},
{
"Name": "Te Uku",
"PostCode": "3295",
"Latitude": -37.8333,
"Longitude": 174.9667
},
{
"Name": "Te Waotu",
"PostCode": "3481",
"Latitude": -38.15,
"Longitude": 175.7
},
{
"Name": "Temple View",
"PostCode": "3218",
"Latitude": -37.8208,
"Longitude": 175.2255
},
{
"Name": "Temple View",
"PostCode": "3290",
"Latitude": -37.8208,
"Longitude": 175.2255
},
{
"Name": "Thames",
"PostCode": "3500",
"Latitude": -37.1383,
"Longitude": 175.5401
},
{
"Name": "Thames",
"PostCode": "3540",
"Latitude": -37.1383,
"Longitude": 175.5401
},
{
"Name": "Tirau",
"PostCode": "3410",
"Latitude": -37.9833,
"Longitude": 175.75
},
{
"Name": "Tirau",
"PostCode": "3442",
"Latitude": -37.9833,
"Longitude": 175.75
},
{
"Name": "Tirau",
"PostCode": "3484",
"Latitude": -37.9833,
"Longitude": 175.75
},
{
"Name": "Tirohia",
"PostCode": "3673",
"Latitude": -37.4333,
"Longitude": 175.65
},
{
"Name": "Tokoroa",
"PostCode": "3420",
"Latitude": -38.2333,
"Longitude": 175.8667
},
{
"Name": "Tokoroa",
"PostCode": "3444",
"Latitude": -38.2333,
"Longitude": 175.8667
},
{
"Name": "Tongariro",
"PostCode": "3949",
"Latitude": -39.0333,
"Longitude": 175.65
},
{
"Name": "Tuakau",
"PostCode": "2121",
"Latitude": -37.2705,
"Longitude": 174.9438
},
{
"Name": "Tuakau",
"PostCode": "2342",
"Latitude": -37.2705,
"Longitude": 174.9438
},
{
"Name": "Tuakau",
"PostCode": "2694",
"Latitude": -37.2705,
"Longitude": 174.9438
},
{
"Name": "Turangi",
"PostCode": "3334",
"Latitude": -38.9904,
"Longitude": 175.8084
},
{
"Name": "Turangi",
"PostCode": "3353",
"Latitude": -38.9904,
"Longitude": 175.8084
},
{
"Name": "Turangi",
"PostCode": "3382",
"Latitude": -38.9904,
"Longitude": 175.8084
},
{
"Name": "Turua",
"PostCode": "3545",
"Latitude": -37.2333,
"Longitude": 175.5667
},
{
"Name": "Turua",
"PostCode": "3574",
"Latitude": -37.2333,
"Longitude": 175.5667
},
{
"Name": "Waerenga",
"PostCode": "3781",
"Latitude": -37.3667,
"Longitude": 175.2333
},
{
"Name": "Waharoa",
"PostCode": "3401",
"Latitude": -37.7667,
"Longitude": 175.7667
},
{
"Name": "Waharoa",
"PostCode": "3441",
"Latitude": -37.7667,
"Longitude": 175.7667
},
{
"Name": "Waharoa",
"PostCode": "3474",
"Latitude": -37.7667,
"Longitude": 175.7667
},
{
"Name": "Waihi",
"PostCode": "3610",
"Latitude": -37.3833,
"Longitude": 175.8333
},
{
"Name": "Waihi",
"PostCode": "3641",
"Latitude": -37.3833,
"Longitude": 175.8333
},
{
"Name": "Waihi",
"PostCode": "3681",
"Latitude": -37.3833,
"Longitude": 175.8333
},
{
"Name": "Waihi",
"PostCode": "3682",
"Latitude": -37.3833,
"Longitude": 175.8333
},
{
"Name": "Waingaro",
"PostCode": "3793",
"Latitude": -37.6833,
"Longitude": 175.0
},
{
"Name": "Waipahihi",
"PostCode": "3378",
"Latitude": -38.7084,
"Longitude": 176.0907
},
{
"Name": "Wairakei",
"PostCode": "3332",
"Latitude": -38.6333,
"Longitude": 176.1
},
{
"Name": "Wairere Falls",
"PostCode": "3970",
"Latitude": -38.5167,
"Longitude": 175.0167
},
{
"Name": "Waitakaruru",
"PostCode": "3576",
"Latitude": -37.25,
"Longitude": 175.3833
},
{
"Name": "Waitanguru",
"PostCode": "3971",
"Latitude": -38.3833,
"Longitude": 174.8667
},
{
"Name": "Waitanguru",
"PostCode": "3985",
"Latitude": -38.3833,
"Longitude": 174.8667
},
{
"Name": "Waiterimu",
"PostCode": "3784",
"Latitude": -37.45,
"Longitude": 175.3
},
{
"Name": "Waitetuna",
"PostCode": "3293",
"Latitude": -37.8333,
"Longitude": 175.0333
},
{
"Name": "Waitoa",
"PostCode": "3310",
"Latitude": -37.6167,
"Longitude": 175.6333
},
{
"Name": "Waitoa",
"PostCode": "3341",
"Latitude": -37.6167,
"Longitude": 175.6333
},
{
"Name": "Walton",
"PostCode": "3475",
"Latitude": -37.7333,
"Longitude": 175.6833
},
{
"Name": "Whangamarino",
"PostCode": "3782",
"Latitude": -37.3491,
"Longitude": 175.1135
},
{
"Name": "Whangamata",
"PostCode": "3620",
"Latitude": -37.2,
"Longitude": 175.8667
},
{
"Name": "Whangamata",
"PostCode": "3643",
"Latitude": -37.2,
"Longitude": 175.8667
},
{
"Name": "Whangamata",
"PostCode": "3691",
"Latitude": -37.2,
"Longitude": 175.8667
},
{
"Name": "Whangapoua",
"PostCode": "3506",
"Latitude": -36.7167,
"Longitude": 175.6167
},
{
"Name": "Wharepuhunga",
"PostCode": "3872",
"Latitude": -38.1333,
"Longitude": 175.45
},
{
"Name": "Wharewaka",
"PostCode": "3330",
"Latitude": -38.7311,
"Longitude": 176.0734
},
{
"Name": "Whatawhata",
"PostCode": "3261",
"Latitude": -37.8,
"Longitude": 175.15
},
{
"Name": "Whatawhata",
"PostCode": "3289",
"Latitude": -37.8,
"Longitude": 175.15
},
{
"Name": "Whitehall",
"PostCode": "3496",
"Latitude": -37.8833,
"Longitude": 175.5667
},
{
"Name": "Whitianga",
"PostCode": "3510",
"Latitude": -36.8333,
"Longitude": 175.7
},
{
"Name": "Whitianga",
"PostCode": "3542",
"Latitude": -36.8333,
"Longitude": 175.7
}
]
}
]
}
]
},
{
"Name": "Wellington",
"Code": "G2",
"Provinces": [
{
"Communities": [
{
"Places": [
{
"Name": "Alicetown",
"PostCode": "5040",
"Latitude": -41.2083,
"Longitude": 174.8902
},
{
"Name": "Avalon",
"PostCode": "5010",
"Latitude": -41.1983,
"Longitude": 174.9202
},
{
"Name": "Berhampore",
"PostCode": "6242",
"Latitude": -41.3215,
"Longitude": 174.7754
},
{
"Name": "Bideford",
"PostCode": "5871",
"Latitude": -40.8667,
"Longitude": 175.8667
},
{
"Name": "Cannons Creek",
"PostCode": "5243",
"Latitude": -41.1399,
"Longitude": 174.8665
},
{
"Name": "Carterton",
"PostCode": "5713",
"Latitude": -41.0183,
"Longitude": 175.5302
},
{
"Name": "Carterton",
"PostCode": "5743",
"Latitude": -41.0183,
"Longitude": 175.5302
},
{
"Name": "Carterton",
"PostCode": "5791",
"Latitude": -41.0183,
"Longitude": 175.5302
},
{
"Name": "Clareville",
"PostCode": "5887",
"Latitude": -41.0167,
"Longitude": 175.55
},
{
"Name": "Cross Creek",
"PostCode": "5773",
"Latitude": -41.1667,
"Longitude": 175.2167
},
{
"Name": "Eastbourne",
"PostCode": "5047",
"Latitude": -41.3,
"Longitude": 174.9
},
{
"Name": "Elsdon",
"PostCode": "5022",
"Latitude": -41.1283,
"Longitude": 174.8202
},
{
"Name": "Featherston",
"PostCode": "5710",
"Latitude": -41.1083,
"Longitude": 175.3202
},
{
"Name": "Featherston",
"PostCode": "5740",
"Latitude": -41.1083,
"Longitude": 175.3202
},
{
"Name": "Gladstone",
"PostCode": "5884",
"Latitude": -41.0833,
"Longitude": 175.65
},
{
"Name": "Gracefield",
"PostCode": "5043",
"Latitude": -41.2333,
"Longitude": 174.9167
},
{
"Name": "Grenada North",
"PostCode": "5028",
"Latitude": -41.1897,
"Longitude": 174.8412
},
{
"Name": "Greytown",
"PostCode": "5712",
"Latitude": -41.0783,
"Longitude": 175.4602
},
{
"Name": "Greytown",
"PostCode": "5742",
"Latitude": -41.0783,
"Longitude": 175.4602
},
{
"Name": "Greytown",
"PostCode": "5794",
"Latitude": -41.0783,
"Longitude": 175.4602
},
{
"Name": "Hinakura",
"PostCode": "5784",
"Latitude": -41.3,
"Longitude": 175.6333
},
{
"Name": "Homedale",
"PostCode": "5049",
"Latitude": -41.2667,
"Longitude": 174.95
},
{
"Name": "Homedale",
"PostCode": "5373",
"Latitude": -41.2667,
"Longitude": 174.95
},
{
"Name": "Homewood",
"PostCode": "5883",
"Latitude": -41.1836,
"Longitude": 175.9581
},
{
"Name": "Kahutara",
"PostCode": "5771",
"Latitude": -41.2333,
"Longitude": 175.3333
},
{
"Name": "Kaitoke",
"PostCode": "5372",
"Latitude": -41.0833,
"Longitude": 175.1667
},
{
"Name": "Kaiwharawhara",
"PostCode": "6144",
"Latitude": -41.2667,
"Longitude": 174.7833
},
{
"Name": "Karehana Bay",
"PostCode": "5026",
"Latitude": -41.0719,
"Longitude": 174.8575
},
{
"Name": "Karori",
"PostCode": "6012",
"Latitude": -41.2837,
"Longitude": 174.7414
},
{
"Name": "Karori",
"PostCode": "6147",
"Latitude": -41.2837,
"Longitude": 174.7414
},
{
"Name": "Karori West",
"PostCode": "6972",
"Latitude": -41.2883,
"Longitude": 174.7102
},
{
"Name": "Kelburn",
"PostCode": "6143",
"Latitude": -41.2833,
"Longitude": 174.7667
},
{
"Name": "Kelburn",
"PostCode": "6145",
"Latitude": -41.2833,
"Longitude": 174.7667
},
{
"Name": "Kelburn",
"PostCode": "6150",
"Latitude": -41.2833,
"Longitude": 174.7667
},
{
"Name": "Kelburn",
"PostCode": "6160",
"Latitude": -41.2833,
"Longitude": 174.7667
},
{
"Name": "Khandallah",
"PostCode": "6035",
"Latitude": -41.2443,
"Longitude": 174.7885
},
{
"Name": "Kingsley Heights",
"PostCode": "5140",
"Latitude": -41.1183,
"Longitude": 175.0702
},
{
"Name": "Kopuaranga",
"PostCode": "5881",
"Latitude": -40.8333,
"Longitude": 175.6667
},
{
"Name": "Korokoro",
"PostCode": "5016",
"Latitude": -41.2167,
"Longitude": 174.8667
},
{
"Name": "Linden",
"PostCode": "5249",
"Latitude": -41.1483,
"Longitude": 174.8302
},
{
"Name": "Lower Hutt",
"PostCode": "5042",
"Latitude": -41.2167,
"Longitude": 174.9167
},
{
"Name": "Maoribank",
"PostCode": "5018",
"Latitude": -41.1083,
"Longitude": 175.0902
},
{
"Name": "Martinborough",
"PostCode": "5711",
"Latitude": -41.2083,
"Longitude": 175.4302
},
{
"Name": "Martinborough",
"PostCode": "5741",
"Latitude": -41.2083,
"Longitude": 175.4302
},
{
"Name": "Martinborough",
"PostCode": "5783",
"Latitude": -41.2083,
"Longitude": 175.4302
},
{
"Name": "Masterton",
"PostCode": "5810",
"Latitude": -40.9597,
"Longitude": 175.6575
},
{
"Name": "Masterton",
"PostCode": "5840",
"Latitude": -40.9597,
"Longitude": 175.6575
},
{
"Name": "Masterton",
"PostCode": "5842",
"Latitude": -40.9597,
"Longitude": 175.6575
},
{
"Name": "Masterton",
"PostCode": "5885",
"Latitude": -40.9597,
"Longitude": 175.6575
},
{
"Name": "Maungaraki",
"PostCode": "5050",
"Latitude": -41.2083,
"Longitude": 174.8702
},
{
"Name": "Mauriceville",
"PostCode": "5882",
"Latitude": -40.7833,
"Longitude": 175.7
},
{
"Name": "Miramar",
"PostCode": "6022",
"Latitude": -41.316,
"Longitude": 174.8154
},
{
"Name": "Miramar",
"PostCode": "6243",
"Latitude": -41.316,
"Longitude": 174.8154
},
{
"Name": "Mount Victoria",
"PostCode": "6011",
"Latitude": -41.297,
"Longitude": 174.7936
},
{
"Name": "Mount Victoria",
"PostCode": "6140",
"Latitude": -41.297,
"Longitude": 174.7936
},
{
"Name": "Mount Victoria",
"PostCode": "6141",
"Latitude": -41.297,
"Longitude": 174.7936
},
{
"Name": "Mount Victoria",
"PostCode": "6142",
"Latitude": -41.297,
"Longitude": 174.7936
},
{
"Name": "Mount Victoria",
"PostCode": "6146",
"Latitude": -41.297,
"Longitude": 174.7936
},
{
"Name": "Mount Victoria",
"PostCode": "6148",
"Latitude": -41.297,
"Longitude": 174.7936
},
{
"Name": "Muritai",
"PostCode": "5013",
"Latitude": -41.3025,
"Longitude": 174.892
},
{
"Name": "Naenae",
"PostCode": "5044",
"Latitude": -41.1983,
"Longitude": 174.9402
},
{
"Name": "Newlands",
"PostCode": "6440",
"Latitude": -41.2244,
"Longitude": 174.8219
},
{
"Name": "Newlands",
"PostCode": "6442",
"Latitude": -41.2244,
"Longitude": 174.8219
},
{
"Name": "Ngaio",
"PostCode": "6441",
"Latitude": -41.2504,
"Longitude": 174.7739
},
{
"Name": "Ngaio",
"PostCode": "6443",
"Latitude": -41.2504,
"Longitude": 174.7739
},
{
"Name": "Ohariu",
"PostCode": "6037",
"Latitude": -41.2,
"Longitude": 174.7667
},
{
"Name": "Onepoto",
"PostCode": "5242",
"Latitude": -41.1083,
"Longitude": 174.8402
},
{
"Name": "Otaki",
"PostCode": "5512",
"Latitude": -40.7583,
"Longitude": 175.15
},
{
"Name": "Otaki",
"PostCode": "5542",
"Latitude": -40.7583,
"Longitude": 175.15
},
{
"Name": "Otaki",
"PostCode": "5543",
"Latitude": -40.7583,
"Longitude": 175.15
},
{
"Name": "Owhiro Bay",
"PostCode": "6023",
"Latitude": -41.3383,
"Longitude": 174.7502
},
{
"Name": "Paekakariki",
"PostCode": "5034",
"Latitude": -40.9854,
"Longitude": 174.9545
},
{
"Name": "Paekakariki",
"PostCode": "5258",
"Latitude": -40.9854,
"Longitude": 174.9545
},
{
"Name": "Pahautea",
"PostCode": "5781",
"Latitude": -41.2333,
"Longitude": 175.3833
},
{
"Name": "Paraparaumu",
"PostCode": "5254",
"Latitude": -40.9167,
"Longitude": 175.0167
},
{
"Name": "Paraparaumu Beach",
"PostCode": "5032",
"Latitude": -40.9,
"Longitude": 174.9833
},
{
"Name": "Paraparaumu Beach",
"PostCode": "5252",
"Latitude": -40.9,
"Longitude": 174.9833
},
{
"Name": "Paremata",
"PostCode": "5247",
"Latitude": -41.1167,
"Longitude": 174.8667
},
{
"Name": "Parkvale",
"PostCode": "5792",
"Latitude": -41.05,
"Longitude": 175.55
},
{
"Name": "Petone",
"PostCode": "5012",
"Latitude": -41.2283,
"Longitude": 174.8702
},
{
"Name": "Petone",
"PostCode": "5045",
"Latitude": -41.2283,
"Longitude": 174.8702
},
{
"Name": "Petone",
"PostCode": "5046",
"Latitude": -41.2283,
"Longitude": 174.8702
},
{
"Name": "Pinehaven",
"PostCode": "5019",
"Latitude": -41.1583,
"Longitude": 175.0002
},
{
"Name": "Pirinoa",
"PostCode": "5772",
"Latitude": -41.35,
"Longitude": 175.2
},
{
"Name": "Pukerua Bay",
"PostCode": "5381",
"Latitude": -41.0333,
"Longitude": 174.9
},
{
"Name": "Ranui Heights",
"PostCode": "5240",
"Latitude": -41.1383,
"Longitude": 174.8402
},
{
"Name": "Raumati Beach",
"PostCode": "5255",
"Latitude": -40.9167,
"Longitude": 174.9833
},
{
"Name": "Reikorangi",
"PostCode": "5391",
"Latitude": -40.9,
"Longitude": 175.0833
},
{
"Name": "Riversdale Beach",
"PostCode": "5872",
"Latitude": -41.0883,
"Longitude": 176.0702
},
{
"Name": "Rongotai",
"PostCode": "6241",
"Latitude": -41.3212,
"Longitude": 174.8016
},
{
"Name": "Silverstream",
"PostCode": "5142",
"Latitude": -41.15,
"Longitude": 175.0
},
{
"Name": "Solway",
"PostCode": "5888",
"Latitude": -40.9583,
"Longitude": 175.6102
},
{
"Name": "Stokes Valley",
"PostCode": "5141",
"Latitude": -41.1783,
"Longitude": 174.9802
},
{
"Name": "Strathmore Park",
"PostCode": "6244",
"Latitude": -41.3289,
"Longitude": 174.8199
},
{
"Name": "Taita",
"PostCode": "5011",
"Latitude": -41.2,
"Longitude": 174.95
},
{
"Name": "Taita",
"PostCode": "5041",
"Latitude": -41.2,
"Longitude": 174.95
},
{
"Name": "Tauweru",
"PostCode": "5890",
"Latitude": -40.9667,
"Longitude": 175.8
},
{
"Name": "Te Horo",
"PostCode": "5544",
"Latitude": -40.8,
"Longitude": 175.1
},
{
"Name": "Tinui",
"PostCode": "5889",
"Latitude": -40.8833,
"Longitude": 176.0667
},
{
"Name": "Tinui",
"PostCode": "5894",
"Latitude": -40.8833,
"Longitude": 176.0667
},
{
"Name": "Trentham",
"PostCode": "5143",
"Latitude": -41.1333,
"Longitude": 175.0333
},
{
"Name": "Upper Hutt",
"PostCode": "5371",
"Latitude": -41.1383,
"Longitude": 175.0502
},
{
"Name": "Upper Tauheru",
"PostCode": "5886",
"Latitude": -40.9069,
"Longitude": 175.8111
},
{
"Name": "Waikanae",
"PostCode": "5036",
"Latitude": -40.8833,
"Longitude": 175.0667
},
{
"Name": "Waikanae",
"PostCode": "5250",
"Latitude": -40.8833,
"Longitude": 175.0667
},
{
"Name": "Wainuiomata",
"PostCode": "5014",
"Latitude": -41.2667,
"Longitude": 174.95
},
{
"Name": "Wainuiomata",
"PostCode": "5048",
"Latitude": -41.2667,
"Longitude": 174.95
},
{
"Name": "Waipawa",
"PostCode": "5782",
"Latitude": -41.4122,
"Longitude": 175.5153
},
{
"Name": "Waitangirua",
"PostCode": "5024",
"Latitude": -41.1183,
"Longitude": 174.8802
},
{
"Name": "Wellington",
"PostCode": "6021",
"Latitude": -41.2866,
"Longitude": 174.7756
},
{
"Name": "Wellington",
"PostCode": "6149",
"Latitude": -41.2866,
"Longitude": 174.7756
},
{
"Name": "Whitby",
"PostCode": "5245",
"Latitude": -41.1083,
"Longitude": 174.8902
}
]
}
]
}
]
},
{
"Name": "West Coast",
"Code": "G3",
"Provinces": [
{
"Communities": [
{
"Places": [
{
"Name": "Ahaura",
"PostCode": "7843",
"Latitude": -42.3492,
"Longitude": 171.5393
},
{
"Name": "Aickens",
"PostCode": "7875",
"Latitude": -42.7833,
"Longitude": 171.6167
},
{
"Name": "Barrytown",
"PostCode": "7873",
"Latitude": -42.25,
"Longitude": 171.3333
},
{
"Name": "Bell Hill",
"PostCode": "7872",
"Latitude": -42.55,
"Longitude": 171.6
},
{
"Name": "Carters Beach",
"PostCode": "7825",
"Latitude": -41.75,
"Longitude": 171.5667
},
{
"Name": "Carters Beach",
"PostCode": "7866",
"Latitude": -41.75,
"Longitude": 171.5667
},
{
"Name": "Charleston",
"PostCode": "7865",
"Latitude": -41.9059,
"Longitude": 171.4383
},
{
"Name": "Cobden",
"PostCode": "7840",
"Latitude": -42.4436,
"Longitude": 171.2129
},
{
"Name": "Crushington",
"PostCode": "7895",
"Latitude": -42.15,
"Longitude": 171.9
},
{
"Name": "Fergusons",
"PostCode": "7885",
"Latitude": -42.9667,
"Longitude": 170.7333
},
{
"Name": "Franz Josef/Waiau",
"PostCode": "7856",
"Latitude": -43.3891,
"Longitude": 170.1819
},
{
"Name": "Goldsborough",
"PostCode": "7882",
"Latitude": -42.6667,
"Longitude": 171.1167
},
{
"Name": "Granity",
"PostCode": "7823",
"Latitude": -41.6333,
"Longitude": 171.85
},
{
"Name": "Harihari",
"PostCode": "7884",
"Latitude": -43.15,
"Longitude": 170.55
},
{
"Name": "Hector",
"PostCode": "7822",
"Latitude": -41.6,
"Longitude": 171.8833
},
{
"Name": "Hector",
"PostCode": "7867",
"Latitude": -41.6,
"Longitude": 171.8833
},
{
"Name": "Hokitika",
"PostCode": "7810",
"Latitude": -42.7167,
"Longitude": 170.9667
},
{
"Name": "Hokitika",
"PostCode": "7842",
"Latitude": -42.7167,
"Longitude": 170.9667
},
{
"Name": "Ikamatua",
"PostCode": "7846",
"Latitude": -42.2667,
"Longitude": 171.6833
},
{
"Name": "Ikamatua",
"PostCode": "7871",
"Latitude": -42.2667,
"Longitude": 171.6833
},
{
"Name": "Kaniere",
"PostCode": "7811",
"Latitude": -42.75,
"Longitude": 171.0
},
{
"Name": "Kowhitirangi",
"PostCode": "7881",
"Latitude": -42.8667,
"Longitude": 171.0167
},
{
"Name": "Kowhitirangi",
"PostCode": "7883",
"Latitude": -42.8667,
"Longitude": 171.0167
},
{
"Name": "Kumara",
"PostCode": "7832",
"Latitude": -42.6283,
"Longitude": 171.1801
},
{
"Name": "Kumara",
"PostCode": "7861",
"Latitude": -42.6283,
"Longitude": 171.1801
},
{
"Name": "Marsden",
"PostCode": "7805",
"Latitude": -42.5667,
"Longitude": 171.2167
},
{
"Name": "Moana",
"PostCode": "7845",
"Latitude": -42.5833,
"Longitude": 171.4667
},
{
"Name": "Mokihinui Mine",
"PostCode": "7891",
"Latitude": -41.5833,
"Longitude": 172.0167
},
{
"Name": "Oparara",
"PostCode": "7893",
"Latitude": -41.2167,
"Longitude": 172.1167
},
{
"Name": "Reefton",
"PostCode": "7830",
"Latitude": -42.1167,
"Longitude": 171.8667
},
{
"Name": "Reefton",
"PostCode": "7851",
"Latitude": -42.1167,
"Longitude": 171.8667
},
{
"Name": "Rewanui",
"PostCode": "7803",
"Latitude": -42.3833,
"Longitude": 171.3167
},
{
"Name": "Roa",
"PostCode": "7804",
"Latitude": -42.35,
"Longitude": 171.3833
},
{
"Name": "Ross",
"PostCode": "7812",
"Latitude": -42.8883,
"Longitude": 170.8101
},
{
"Name": "Ross",
"PostCode": "7860",
"Latitude": -42.8883,
"Longitude": 170.8101
},
{
"Name": "Runanga",
"PostCode": "7802",
"Latitude": -42.3983,
"Longitude": 171.2501
},
{
"Name": "Runanga",
"PostCode": "7841",
"Latitude": -42.3983,
"Longitude": 171.2501
},
{
"Name": "Springs Junction",
"PostCode": "7847",
"Latitude": -42.3167,
"Longitude": 172.1833
},
{
"Name": "Te Kuha",
"PostCode": "7892",
"Latitude": -41.8333,
"Longitude": 171.65
},
{
"Name": "Waimangaroa",
"PostCode": "7848",
"Latitude": -41.7167,
"Longitude": 171.7667
},
{
"Name": "Weheka",
"PostCode": "7859",
"Latitude": -43.4648,
"Longitude": 170.0168
},
{
"Name": "Whataroa",
"PostCode": "7857",
"Latitude": -43.2833,
"Longitude": 170.4167
}
]
}
]
}
]
},
{
"Name": "Tasman",
"Code": "TAS",
"Provinces": [
{
"Communities": [
{
"Places": [
{
"Name": "Baton",
"PostCode": "7073",
"Latitude": -41.3167,
"Longitude": 172.7167
},
{
"Name": "Braeburn",
"PostCode": "7175",
"Latitude": -41.1833,
"Longitude": 173.0
},
{
"Name": "Brightwater",
"PostCode": "7022",
"Latitude": -41.3833,
"Longitude": 173.1167
},
{
"Name": "Brightwater",
"PostCode": "7051",
"Latitude": -41.3833,
"Longitude": 173.1167
},
{
"Name": "Brightwater",
"PostCode": "7091",
"Latitude": -41.3833,
"Longitude": 173.1167
},
{
"Name": "Collingwood",
"PostCode": "7054",
"Latitude": -40.6772,
"Longitude": 172.6807
},
{
"Name": "East Takaka",
"PostCode": "7183",
"Latitude": -40.9167,
"Longitude": 172.8333
},
{
"Name": "Hiwipango",
"PostCode": "7095",
"Latitude": -41.5167,
"Longitude": 172.9333
},
{
"Name": "Kairuru",
"PostCode": "7198",
"Latitude": -41.0333,
"Longitude": 172.9333
},
{
"Name": "Lake Rotoroa",
"PostCode": "7072",
"Latitude": -41.8,
"Longitude": 172.6
},
{
"Name": "Mahana",
"PostCode": "7173",
"Latitude": -41.2667,
"Longitude": 173.05
},
{
"Name": "Mapua",
"PostCode": "7005",
"Latitude": -41.25,
"Longitude": 173.1
},
{
"Name": "Mapua",
"PostCode": "7048",
"Latitude": -41.25,
"Longitude": 173.1
},
{
"Name": "Matakitaki",
"PostCode": "7077",
"Latitude": -41.9667,
"Longitude": 172.3333
},
{
"Name": "Motupiko",
"PostCode": "7096",
"Latitude": -41.45,
"Longitude": 172.8
},
{
"Name": "Ngatimoti",
"PostCode": "7196",
"Latitude": -41.2167,
"Longitude": 172.9
},
{
"Name": "Onekaka",
"PostCode": "7182",
"Latitude": -40.75,
"Longitude": 172.7
},
{
"Name": "Richmond",
"PostCode": "7020",
"Latitude": -41.3333,
"Longitude": 173.1833
},
{
"Name": "Richmond",
"PostCode": "7050",
"Latitude": -41.3333,
"Longitude": 173.1833
},
{
"Name": "Richmond",
"PostCode": "7081",
"Latitude": -41.3333,
"Longitude": 173.1833
},
{
"Name": "Riwaka",
"PostCode": "7146",
"Latitude": -41.0833,
"Longitude": 173.0
},
{
"Name": "Saint Arnaud",
"PostCode": "7053",
"Latitude": -41.8,
"Longitude": 172.8333
},
{
"Name": "Sandy Bay",
"PostCode": "7197",
"Latitude": -41.0167,
"Longitude": 172.9833
},
{
"Name": "Takaka",
"PostCode": "7110",
"Latitude": -40.85,
"Longitude": 172.8
},
{
"Name": "Takaka",
"PostCode": "7142",
"Latitude": -40.85,
"Longitude": 172.8
},
{
"Name": "Tapawera",
"PostCode": "7055",
"Latitude": -41.4,
"Longitude": 172.8167
},
{
"Name": "Upper Moutere",
"PostCode": "7144",
"Latitude": -41.2667,
"Longitude": 173.0
},
{
"Name": "Wakefield",
"PostCode": "7025",
"Latitude": -41.4,
"Longitude": 173.05
},
{
"Name": "Wakefield",
"PostCode": "7052",
"Latitude": -41.4,
"Longitude": 173.05
}
]
}
]
}
]
}
]