[
{
"Provinces": [
{
"Communities": [
{
"Places": [
{
"Name": "Ada",
"PostCode": "24430",
"Location": {
"Latitude": 45.8025,
"Longitude": 20.1258
}
},
{
"Name": "Adaševci",
"PostCode": "22244",
"Location": {
"Latitude": 45.0793,
"Longitude": 19.2213
}
},
{
"Name": "Adorjan",
"PostCode": "24425",
"Location": {
"Latitude": 46.0033,
"Longitude": 20.0401
}
},
{
"Name": "Adrani",
"PostCode": "36203",
"Location": {
"Latitude": 43.7626,
"Longitude": 20.6347
}
},
{
"Name": "Aleksa Šantić",
"PostCode": "25212",
"Location": {
"Latitude": 45.9284,
"Longitude": 19.3325
}
},
{
"Name": "Aleksandrovac",
"PostCode": "12370",
"Location": {
"Latitude": 44.4492,
"Longitude": 21.2131
}
},
{
"Name": "Aleksandrovac",
"PostCode": "37230",
"Location": {
"Latitude": 43.4586,
"Longitude": 21.0525
}
},
{
"Name": "Aleksandrovo",
"PostCode": "23217",
"Location": {
"Latitude": 45.6376,
"Longitude": 20.5929
}
},
{
"Name": "Aleksinac",
"PostCode": "18220",
"Location": {
"Latitude": 43.5417,
"Longitude": 21.7078
}
},
{
"Name": "Aleksinački Rudnik",
"PostCode": "18226",
"Location": {
"Latitude": 43.5209,
"Longitude": 21.7001
}
},
{
"Name": "Alibunar",
"PostCode": "26310",
"Location": {
"Latitude": 45.0808,
"Longitude": 20.9658
}
},
{
"Name": "Aljinovići",
"PostCode": "31307",
"Location": {
"Latitude": 43.3377,
"Longitude": 19.8487
}
},
{
"Name": "Altina",
"PostCode": "11283",
"Location": {
"Latitude": 44.7174,
"Longitude": 20.1605
}
},
{
"Name": "Apatin",
"PostCode": "25260",
"Location": {
"Latitude": 45.6726,
"Longitude": 18.978
}
},
{
"Name": "Aradac",
"PostCode": "23207",
"Location": {
"Latitude": 45.3835,
"Longitude": 20.3014
}
},
{
"Name": "Aranđelovac",
"PostCode": "34300",
"Location": {
"Latitude": 44.3069,
"Longitude": 20.56
}
},
{
"Name": "Arilje",
"PostCode": "31230",
"Location": {
"Latitude": 43.7531,
"Longitude": 20.0956
}
},
{
"Name": "Ašanja",
"PostCode": "22418",
"Location": {
"Latitude": 44.7564,
"Longitude": 20.0759
}
},
{
"Name": "Azanja",
"PostCode": "11423",
"Location": {
"Latitude": 44.4331,
"Longitude": 20.8797
}
},
{
"Name": "Babin Kal",
"PostCode": "18315",
"Location": {
"Latitude": 43.2939,
"Longitude": 22.3787
}
},
{
"Name": "Babušnica",
"PostCode": "18330",
"Location": {
"Latitude": 43.0641,
"Longitude": 22.4138
}
},
{
"Name": "Bač",
"PostCode": "21420",
"Location": {
"Latitude": 45.3919,
"Longitude": 19.2367
}
},
{
"Name": "Bačevci",
"PostCode": "31258",
"Location": {
"Latitude": 44.0882,
"Longitude": 19.5119
}
},
{
"Name": "Bačina",
"PostCode": "37265",
"Location": {
"Latitude": 43.7261,
"Longitude": 21.2979
}
},
{
"Name": "Bačinci",
"PostCode": "22225",
"Location": {
"Latitude": 45.0816,
"Longitude": 19.307
}
},
{
"Name": "Bačka Palanka",
"PostCode": "21400",
"Location": {
"Latitude": 45.2497,
"Longitude": 19.3966
}
},
{
"Name": "Bačka Topola",
"PostCode": "24300",
"Location": {
"Latitude": 45.8152,
"Longitude": 19.6318
}
},
{
"Name": "Bački Breg",
"PostCode": "25275",
"Location": {
"Latitude": 45.9203,
"Longitude": 18.9294
}
},
{
"Name": "Bački Brestovac",
"PostCode": "25242",
"Location": {
"Latitude": 45.6182,
"Longitude": 19.2709
}
},
{
"Name": "Bački Gračac",
"PostCode": "25252",
"Location": {
"Latitude": 45.5545,
"Longitude": 19.3235
}
},
{
"Name": "Bački Jarak",
"PostCode": "21234",
"Location": {
"Latitude": 45.37,
"Longitude": 19.8751
}
},
{
"Name": "Bački Monoštor",
"PostCode": "25272",
"Location": {
"Latitude": 45.7944,
"Longitude": 18.934
}
},
{
"Name": "Bački Petrovac",
"PostCode": "21470",
"Location": {
"Latitude": 45.3606,
"Longitude": 19.5917
}
},
{
"Name": "Bački Sokolac",
"PostCode": "24343",
"Location": {
"Latitude": 45.8496,
"Longitude": 19.5402
}
},
{
"Name": "Bački Vinogradi",
"PostCode": "24415",
"Location": {
"Latitude": 46.123,
"Longitude": 19.8559
}
},
{
"Name": "Bačko Dobro Polje",
"PostCode": "21465",
"Location": {
"Latitude": 45.5015,
"Longitude": 19.6898
}
},
{
"Name": "Bačko Gradište",
"PostCode": "21217",
"Location": {
"Latitude": 45.5327,
"Longitude": 20.0308
}
},
{
"Name": "Bačko Novo Selo",
"PostCode": "21429",
"Location": {
"Latitude": 45.2934,
"Longitude": 19.1411
}
},
{
"Name": "Bačko Petrovo Selo",
"PostCode": "21226",
"Location": {
"Latitude": 45.7068,
"Longitude": 20.0793
}
},
{
"Name": "Badnjevac",
"PostCode": "34226",
"Location": {
"Latitude": 44.1317,
"Longitude": 20.9824
}
},
{
"Name": "Badovinci",
"PostCode": "15358",
"Location": {
"Latitude": 44.7853,
"Longitude": 19.3715
}
},
{
"Name": "Bagrdan",
"PostCode": "35204",
"Location": {
"Latitude": 44.0711,
"Longitude": 21.1787
}
},
{
"Name": "Bajina Bašta",
"PostCode": "31250",
"Location": {
"Latitude": 43.9708,
"Longitude": 19.5675
}
},
{
"Name": "Bajmok",
"PostCode": "24210",
"Location": {
"Latitude": 45.9714,
"Longitude": 19.4225
}
},
{
"Name": "Bajša",
"PostCode": "24331",
"Location": {
"Latitude": 45.7799,
"Longitude": 19.5852
}
},
{
"Name": "Balajinac",
"PostCode": "18257",
"Location": {
"Latitude": 43.2744,
"Longitude": 21.7775
}
},
{
"Name": "Baljevac na Ibru",
"PostCode": "36344",
"Location": {
"Latitude": 43.5159,
"Longitude": 20.6346
}
},
{
"Name": "Banatska Dubica",
"PostCode": "23251",
"Location": {
"Latitude": 45.2715,
"Longitude": 20.8283
}
},
{
"Name": "Banatska Palanka",
"PostCode": "26324",
"Location": {
"Latitude": 44.8453,
"Longitude": 21.3318
}
},
{
"Name": "Banatska Subotica",
"PostCode": "26327",
"Location": {
"Latitude": 44.9833,
"Longitude": 21.3451
}
},
{
"Name": "Banatska Topola",
"PostCode": "23315",
"Location": {
"Latitude": 45.6725,
"Longitude": 20.4653
}
},
{
"Name": "Banatski Brestovac",
"PostCode": "26234",
"Location": {
"Latitude": 44.7274,
"Longitude": 20.809
}
},
{
"Name": "Banatski Despotovac",
"PostCode": "23242",
"Location": {
"Latitude": 45.3661,
"Longitude": 20.6641
}
},
{
"Name": "Banatski Dvor",
"PostCode": "11467",
"Location": {
"Latitude": 44.5545,
"Longitude": 20.4037
}
},
{
"Name": "Banatski Karlovac",
"PostCode": "26320",
"Location": {
"Latitude": 45.0499,
"Longitude": 21.018
}
},
{
"Name": "Banatsko Aranđelovo",
"PostCode": "23332",
"Location": {
"Latitude": 46.0645,
"Longitude": 20.2424
}
},
{
"Name": "Banatsko Karađorđevo",
"PostCode": "23216",
"Location": {
"Latitude": 45.5869,
"Longitude": 20.5642
}
},
{
"Name": "Banatsko Novo Selo",
"PostCode": "26314",
"Location": {
"Latitude": 44.9894,
"Longitude": 20.7836
}
},
{
"Name": "Banatsko Veliko Selo",
"PostCode": "23312",
"Location": {
"Latitude": 45.8196,
"Longitude": 20.6077
}
},
{
"Name": "Banatsko Višnjićevo",
"PostCode": "23237",
"Location": {
"Latitude": 45.4467,
"Longitude": 20.6808
}
},
{
"Name": "Banja",
"PostCode": "34304",
"Location": {
"Latitude": 44.2789,
"Longitude": 20.6214
}
},
{
"Name": "Banja (Priboj)",
"PostCode": "31337",
"Location": {
"Latitude": 42.992,
"Longitude": 21.3208
}
},
{
"Name": "Banja Koviljača",
"PostCode": "15316",
"Location": {
"Latitude": 44.5146,
"Longitude": 19.1528
}
},
{
"Name": "Banjani",
"PostCode": "14214",
"Location": {
"Latitude": 44.5377,
"Longitude": 19.9803
}
},
{
"Name": "Banoštor",
"PostCode": "21312",
"Location": {
"Latitude": 45.2126,
"Longitude": 19.6118
}
},
{
"Name": "Banovo Polje",
"PostCode": "15362",
"Location": {
"Latitude": 44.9104,
"Longitude": 19.4492
}
},
{
"Name": "Barajevo",
"PostCode": "11460",
"Location": {
"Latitude": 44.6089,
"Longitude": 20.4547
}
},
{
"Name": "Baranda",
"PostCode": "26205",
"Location": {
"Latitude": 45.0846,
"Longitude": 20.4426
}
},
{
"Name": "Barbatovac",
"PostCode": "18426",
"Location": {
"Latitude": 43.2281,
"Longitude": 21.2589
}
},
{
"Name": "Bare",
"PostCode": "12227",
"Location": {
"Latitude": 44.6468,
"Longitude": 21.3306
}
},
{
"Name": "Bare",
"PostCode": "34205",
"Location": {
"Latitude": 44.0439,
"Longitude": 20.687
}
},
{
"Name": "Bare",
"PostCode": "36315",
"Location": {
"Latitude": 43.1742,
"Longitude": 19.7509
}
},
{
"Name": "Barič",
"PostCode": "11504",
"Location": {
"Latitude": 44.6507,
"Longitude": 20.2594
}
},
{
"Name": "Barice",
"PostCode": "26367",
"Location": {
"Latitude": 45.1819,
"Longitude": 21.0828
}
},
{
"Name": "Barlovo",
"PostCode": "18432",
"Location": {
"Latitude": 43.1815,
"Longitude": 21.3534
}
},
{
"Name": "Baroševac",
"PostCode": "11565",
"Location": {
"Latitude": 44.3986,
"Longitude": 20.3689
}
},
{
"Name": "Bašaid",
"PostCode": "23316",
"Location": {
"Latitude": 45.641,
"Longitude": 20.4143
}
},
{
"Name": "Batočina",
"PostCode": "34227",
"Location": {
"Latitude": 44.157,
"Longitude": 21.0534
}
},
{
"Name": "Batrovci",
"PostCode": "22251",
"Location": {
"Latitude": 45.0527,
"Longitude": 19.1323
}
},
{
"Name": "Bavanište",
"PostCode": "26222",
"Location": {
"Latitude": 44.8191,
"Longitude": 20.8765
}
},
{
"Name": "Bečej",
"PostCode": "21220",
"Location": {
"Latitude": 45.6163,
"Longitude": 20.0333
}
},
{
"Name": "Bečmen",
"PostCode": "11279",
"Location": {
"Latitude": 44.7798,
"Longitude": 20.2058
}
},
{
"Name": "Begaljica",
"PostCode": "11308",
"Location": {
"Latitude": 44.6336,
"Longitude": 20.695
}
},
{
"Name": "Begeč",
"PostCode": "21411",
"Location": {
"Latitude": 45.2367,
"Longitude": 19.6231
}
},
{
"Name": "Begejci",
"PostCode": "23232",
"Location": {
"Latitude": 45.5093,
"Longitude": 20.609
}
},
{
"Name": "Bela Crkva",
"PostCode": "15313",
"Location": {
"Latitude": 44.3955,
"Longitude": 19.4796
}
},
{
"Name": "Bela Crkva",
"PostCode": "26340",
"Location": {
"Latitude": 44.8975,
"Longitude": 21.4172
}
},
{
"Name": "Bela Palanka",
"PostCode": "18310",
"Location": {
"Latitude": 43.2183,
"Longitude": 22.3111
}
},
{
"Name": "Bela Voda",
"PostCode": "37253",
"Location": {
"Latitude": 43.6172,
"Longitude": 21.1993
}
},
{
"Name": "Bela Zemlja",
"PostCode": "31311",
"Location": {
"Latitude": 43.8115,
"Longitude": 19.7949
}
},
{
"Name": "Belanovica",
"PostCode": "14246",
"Location": {
"Latitude": 44.2495,
"Longitude": 20.3961
}
},
{
"Name": "Bele Vode",
"PostCode": "32259",
"Location": {
"Latitude": 43.4061,
"Longitude": 20.2853
}
},
{
"Name": "Belegiš",
"PostCode": "22306",
"Location": {
"Latitude": 45.0192,
"Longitude": 20.3332
}
},
{
"Name": "Beli Potok",
"PostCode": "11223",
"Location": {
"Latitude": 44.7063,
"Longitude": 20.5177
}
},
{
"Name": "Beli Potok",
"PostCode": "19366",
"Location": {
"Latitude": 43.5328,
"Longitude": 22.0833
}
},
{
"Name": "Beljina",
"PostCode": "11461",
"Location": {
"Latitude": 44.5153,
"Longitude": 20.406
}
},
{
"Name": "Belo Blato",
"PostCode": "23205",
"Location": {
"Latitude": 45.2728,
"Longitude": 20.375
}
},
{
"Name": "Beloljin",
"PostCode": "18424",
"Location": {
"Latitude": 43.2385,
"Longitude": 21.3967
}
},
{
"Name": "Belosavci",
"PostCode": "34312",
"Location": {
"Latitude": 44.3315,
"Longitude": 20.6746
}
},
{
"Name": "Belotinac",
"PostCode": "18411",
"Location": {
"Latitude": 43.2651,
"Longitude": 21.8525
}
},
{
"Name": "Belušić",
"PostCode": "35263",
"Location": {
"Latitude": 43.7829,
"Longitude": 21.1483
}
},
{
"Name": "Beočin",
"PostCode": "21300",
"Location": {
"Latitude": 45.2083,
"Longitude": 19.7206
}
},
{
"Name": "Beograd",
"PostCode": "11000",
"Location": {
"Latitude": 44.804,
"Longitude": 20.4651
}
},
{
"Name": "Berkasovo",
"PostCode": "22242",
"Location": {
"Latitude": 45.1459,
"Longitude": 19.2527
}
},
{
"Name": "Beršići",
"PostCode": "32305",
"Location": {
"Latitude": 44.0568,
"Longitude": 20.313
}
},
{
"Name": "Bešenovo",
"PostCode": "22212",
"Location": {
"Latitude": 45.0836,
"Longitude": 19.7041
}
},
{
"Name": "Beška",
"PostCode": "22324",
"Location": {
"Latitude": 45.1309,
"Longitude": 20.067
}
},
{
"Name": "Bezdan",
"PostCode": "25270",
"Location": {
"Latitude": 45.8494,
"Longitude": 18.924
}
},
{
"Name": "Bikić Do",
"PostCode": "22254",
"Location": {
"Latitude": 45.1542,
"Longitude": 19.2926
}
},
{
"Name": "Bikovo",
"PostCode": "24206",
"Location": {
"Latitude": 46.0217,
"Longitude": 19.7597
}
},
{
"Name": "Biljača",
"PostCode": "17522",
"Location": {
"Latitude": 42.3552,
"Longitude": 21.7478
}
},
{
"Name": "Bingula",
"PostCode": "22253",
"Location": {
"Latitude": 45.0995,
"Longitude": 19.4486
}
},
{
"Name": "Bioska",
"PostCode": "31241",
"Location": {
"Latitude": 43.8718,
"Longitude": 19.6629
}
},
{
"Name": "Bistar",
"PostCode": "17546",
"Location": {
"Latitude": 42.3744,
"Longitude": 22.4394
}
},
{
"Name": "Bistrica",
"PostCode": "31325",
"Location": {
"Latitude": 43.4652,
"Longitude": 19.7094
}
},
{
"Name": "Blace",
"PostCode": "18420",
"Location": {
"Latitude": 43.2953,
"Longitude": 21.2858
}
},
{
"Name": "Blaževo",
"PostCode": "37226",
"Location": {
"Latitude": 43.2289,
"Longitude": 20.9086
}
},
{
"Name": "Bobovo",
"PostCode": "35217",
"Location": {
"Latitude": 44.237,
"Longitude": 21.2751
}
},
{
"Name": "Bočar",
"PostCode": "23274",
"Location": {
"Latitude": 45.7699,
"Longitude": 20.2839
}
},
{
"Name": "Bođani",
"PostCode": "21427",
"Location": {
"Latitude": 45.3896,
"Longitude": 19.1067
}
},
{
"Name": "Bogaraš",
"PostCode": "24408",
"Location": {
"Latitude": 45.9344,
"Longitude": 19.9275
}
},
{
"Name": "Bogatić",
"PostCode": "15350",
"Location": {
"Latitude": 44.8375,
"Longitude": 19.4806
}
},
{
"Name": "Bogojevo",
"PostCode": "25245",
"Location": {
"Latitude": 45.5301,
"Longitude": 19.1302
}
},
{
"Name": "Bogovađa",
"PostCode": "14225",
"Location": {
"Latitude": 44.3275,
"Longitude": 20.2005
}
},
{
"Name": "Bogovina",
"PostCode": "19372",
"Location": {
"Latitude": 43.893,
"Longitude": 21.9499
}
},
{
"Name": "Bogutovac",
"PostCode": "36341",
"Location": {
"Latitude": 43.6663,
"Longitude": 20.5495
}
},
{
"Name": "Bojnik",
"PostCode": "16205",
"Location": {
"Latitude": 43.0122,
"Longitude": 21.721
}
},
{
"Name": "Boka",
"PostCode": "23252",
"Location": {
"Latitude": 45.3554,
"Longitude": 20.8299
}
},
{
"Name": "Boleč",
"PostCode": "11307",
"Location": {
"Latitude": 44.7265,
"Longitude": 20.6064
}
},
{
"Name": "Boljevac",
"PostCode": "19370",
"Location": {
"Latitude": 43.8303,
"Longitude": 21.9531
}
},
{
"Name": "Boljevci",
"PostCode": "11275",
"Location": {
"Latitude": 44.7235,
"Longitude": 20.2235
}
},
{
"Name": "Boljkovci",
"PostCode": "32312",
"Location": {
"Latitude": 44.1435,
"Longitude": 20.3456
}
},
{
"Name": "Bor",
"PostCode": "19210",
"Location": {
"Latitude": 44.0749,
"Longitude": 22.0959
}
},
{
"Name": "Borča",
"PostCode": "11211",
"Location": {
"Latitude": 44.8697,
"Longitude": 20.4541
}
},
{
"Name": "Borski Brestovac",
"PostCode": "19229",
"Location": {
"Latitude": 44.1452,
"Longitude": 22.2265
}
},
{
"Name": "Bosilegrad",
"PostCode": "17540",
"Location": {
"Latitude": 42.5011,
"Longitude": 22.4724
}
},
{
"Name": "Bošnjace",
"PostCode": "16232",
"Location": {
"Latitude": 42.9463,
"Longitude": 21.8272
}
},
{
"Name": "Bošnjane",
"PostCode": "37262",
"Location": {
"Latitude": 43.6638,
"Longitude": 21.3656
}
},
{
"Name": "Bosut",
"PostCode": "22217",
"Location": {
"Latitude": 44.9298,
"Longitude": 19.3609
}
},
{
"Name": "Botoš",
"PostCode": "23243",
"Location": {
"Latitude": 45.3084,
"Longitude": 20.6351
}
},
{
"Name": "Božetići",
"PostCode": "31322",
"Location": {
"Latitude": 43.4484,
"Longitude": 19.9722
}
},
{
"Name": "Boževac",
"PostCode": "12313",
"Location": {
"Latitude": 44.5418,
"Longitude": 21.3943
}
},
{
"Name": "Božica",
"PostCode": "17537",
"Location": {
"Latitude": 42.6151,
"Longitude": 22.4035
}
},
{
"Name": "Braćevac",
"PostCode": "19315",
"Location": {
"Latitude": 44.0697,
"Longitude": 22.5041
}
},
{
"Name": "Bradarac",
"PostCode": "12206",
"Location": {
"Latitude": 44.69,
"Longitude": 21.2282
}
},
{
"Name": "Braničevo",
"PostCode": "12222",
"Location": {
"Latitude": 44.705,
"Longitude": 21.5383
}
},
{
"Name": "Brankovina",
"PostCode": "14201",
"Location": {
"Latitude": 44.3466,
"Longitude": 19.8984
}
},
{
"Name": "Bratljevo",
"PostCode": "32256",
"Location": {
"Latitude": 43.4656,
"Longitude": 20.1943
}
},
{
"Name": "Brđani",
"PostCode": "32303",
"Location": {
"Latitude": 43.9574,
"Longitude": 20.387
}
},
{
"Name": "Brekovo",
"PostCode": "31234",
"Location": {
"Latitude": 43.6453,
"Longitude": 20.0115
}
},
{
"Name": "Bresnica",
"PostCode": "32213",
"Location": {
"Latitude": 43.8745,
"Longitude": 20.5901
}
},
{
"Name": "Brestovac",
"PostCode": "16253",
"Location": {
"Latitude": 43.1532,
"Longitude": 21.8777
}
},
{
"Name": "Brestovačka Banja",
"PostCode": "19216",
"Location": {
"Latitude": 44.0594,
"Longitude": 22.1315
}
},
{
"Name": "Brežđe",
"PostCode": "14244",
"Location": {
"Latitude": 44.1726,
"Longitude": 20.0606
}
},
{
"Name": "Brezjak",
"PostCode": "15309",
"Location": {
"Latitude": 44.5097,
"Longitude": 19.3413
}
},
{
"Name": "Brezna",
"PostCode": "32307",
"Location": {
"Latitude": 44.0518,
"Longitude": 20.2809
}
},
{
"Name": "Brezova",
"PostCode": "32253",
"Location": {
"Latitude": 43.5142,
"Longitude": 20.4881
}
},
{
"Name": "Brgule",
"PostCode": "14212",
"Location": {
"Latitude": 44.5234,
"Longitude": 20.1749
}
},
{
"Name": "Brnjica",
"PostCode": "12230",
"Location": {
"Latitude": 44.6524,
"Longitude": 21.7687
}
},
{
"Name": "Brodarevo",
"PostCode": "31305",
"Location": {
"Latitude": 43.229,
"Longitude": 19.7196
}
},
{
"Name": "Brograd",
"PostCode": "11031",
"Location": {
"Latitude": 44.8249,
"Longitude": 20.4331
}
},
{
"Name": "Brus",
"PostCode": "37220",
"Location": {
"Latitude": 43.3846,
"Longitude": 21.0289
}
},
{
"Name": "Brusnik",
"PostCode": "19313",
"Location": {
"Latitude": 44.1067,
"Longitude": 22.4481
}
},
{
"Name": "Brvenik",
"PostCode": "36346",
"Location": {
"Latitude": 43.3544,
"Longitude": 20.6461
}
},
{
"Name": "Brza Palanka",
"PostCode": "19323",
"Location": {
"Latitude": 44.4709,
"Longitude": 22.4468
}
},
{
"Name": "Brzan",
"PostCode": "34228",
"Location": {
"Latitude": 44.124,
"Longitude": 21.1151
}
},
{
"Name": "Brzeće",
"PostCode": "37225",
"Location": {
"Latitude": 43.3017,
"Longitude": 20.885
}
},
{
"Name": "Bučje",
"PostCode": "19369",
"Location": {
"Latitude": 43.68,
"Longitude": 22.1272
}
},
{
"Name": "Buđanovci",
"PostCode": "22421",
"Location": {
"Latitude": 44.8939,
"Longitude": 19.8634
}
},
{
"Name": "Budisava",
"PostCode": "21242",
"Location": {
"Latitude": 45.2814,
"Longitude": 19.9939
}
},
{
"Name": "Bujanovac",
"PostCode": "17520",
"Location": {
"Latitude": 42.4592,
"Longitude": 21.7667
}
},
{
"Name": "Bukovac",
"PostCode": "21209",
"Location": {
"Latitude": 45.1897,
"Longitude": 19.8952
}
},
{
"Name": "Bukovica",
"PostCode": "32251",
"Location": {
"Latitude": 43.6139,
"Longitude": 20.1826
}
},
{
"Name": "Bukovik",
"PostCode": "34301",
"Location": {
"Latitude": 44.3294,
"Longitude": 20.5174
}
},
{
"Name": "Bukurovac",
"PostCode": "34217",
"Location": {
"Latitude": 44.0178,
"Longitude": 21.0629
}
},
{
"Name": "Bumbarevo Brdo",
"PostCode": "34242",
"Location": {
"Latitude": 43.9114,
"Longitude": 20.6245
}
},
{
"Name": "Bunar",
"PostCode": "35273",
"Location": {
"Latitude": 43.92,
"Longitude": 21.147
}
},
{
"Name": "Burdimo",
"PostCode": "18368",
"Location": {
"Latitude": 43.4099,
"Longitude": 22.2372
}
},
{
"Name": "Burovac",
"PostCode": "12307",
"Location": {
"Latitude": 44.2728,
"Longitude": 21.3578
}
},
{
"Name": "Čačak",
"PostCode": "32000",
"Location": {
"Latitude": 43.8914,
"Longitude": 20.3497
}
},
{
"Name": "Čajetina",
"PostCode": "31310",
"Location": {
"Latitude": 43.7498,
"Longitude": 19.7127
}
},
{
"Name": "Čalma",
"PostCode": "22231",
"Location": {
"Latitude": 45.0795,
"Longitude": 19.507
}
},
{
"Name": "Čantavir",
"PostCode": "24220",
"Location": {
"Latitude": 45.921,
"Longitude": 19.7661
}
},
{
"Name": "Čečina",
"PostCode": "18417",
"Location": {
"Latitude": 43.1985,
"Longitude": 21.8698
}
},
{
"Name": "Čelarevo",
"PostCode": "21413",
"Location": {
"Latitude": 45.27,
"Longitude": 19.5248
}
},
{
"Name": "Čenej",
"PostCode": "21233",
"Location": {
"Latitude": 45.3683,
"Longitude": 19.8042
}
},
{
"Name": "Čenta",
"PostCode": "23266",
"Location": {
"Latitude": 45.1081,
"Longitude": 20.3895
}
},
{
"Name": "Čerević",
"PostCode": "21311",
"Location": {
"Latitude": 45.2201,
"Longitude": 19.6625
}
},
{
"Name": "Cerovac",
"PostCode": "15224",
"Location": {
"Latitude": 44.6771,
"Longitude": 19.7514
}
},
{
"Name": "Cerovac",
"PostCode": "34321",
"Location": {
"Latitude": 44.0956,
"Longitude": 20.8489
}
},
{
"Name": "Čestereg",
"PostCode": "23215",
"Location": {
"Latitude": 45.5636,
"Longitude": 20.5319
}
},
{
"Name": "Ćićevac",
"PostCode": "37210",
"Location": {
"Latitude": 43.7188,
"Longitude": 21.4408
}
},
{
"Name": "Čitluk",
"PostCode": "18232",
"Location": {
"Latitude": 43.6441,
"Longitude": 22.022
}
},
{
"Name": "Čitluk",
"PostCode": "37208",
"Location": {
"Latitude": 43.594,
"Longitude": 21.2719
}
},
{
"Name": "Čoka",
"PostCode": "23320",
"Location": {
"Latitude": 45.9425,
"Longitude": 20.1433
}
},
{
"Name": "Čonoplja",
"PostCode": "25210",
"Location": {
"Latitude": 45.8113,
"Longitude": 19.2513
}
},
{
"Name": "Čortanovci",
"PostCode": "22326",
"Location": {
"Latitude": 45.1546,
"Longitude": 20.0185
}
},
{
"Name": "Crepaja",
"PostCode": "26213",
"Location": {
"Latitude": 45.0098,
"Longitude": 20.637
}
},
{
"Name": "Crkvine",
"PostCode": "36321",
"Location": {
"Latitude": 43.0512,
"Longitude": 20.3879
}
},
{
"Name": "Crna Bara",
"PostCode": "15355",
"Location": {
"Latitude": 44.8737,
"Longitude": 19.3948
}
},
{
"Name": "Crna Bara",
"PostCode": "23328",
"Location": {
"Latitude": 45.9733,
"Longitude": 20.2761
}
},
{
"Name": "Crna Trava",
"PostCode": "16215",
"Location": {
"Latitude": 42.8099,
"Longitude": 22.2988
}
},
{
"Name": "Crnoklište",
"PostCode": "18304",
"Location": {
"Latitude": 43.2338,
"Longitude": 22.4676
}
},
{
"Name": "Crvena Crkva",
"PostCode": "26323",
"Location": {
"Latitude": 44.9003,
"Longitude": 21.3653
}
},
{
"Name": "Crvena Reka",
"PostCode": "18313",
"Location": {
"Latitude": 43.2717,
"Longitude": 22.2328
}
},
{
"Name": "Crvenka",
"PostCode": "25220",
"Location": {
"Latitude": 45.661,
"Longitude": 19.4543
}
},
{
"Name": "Čukojevac",
"PostCode": "36220",
"Location": {
"Latitude": 43.7111,
"Longitude": 20.8362
}
},
{
"Name": "Čumić",
"PostCode": "34322",
"Location": {
"Latitude": 44.1476,
"Longitude": 20.7821
}
},
{
"Name": "Ćuprija",
"PostCode": "35230",
"Location": {
"Latitude": 43.9275,
"Longitude": 21.37
}
},
{
"Name": "Ćurlina",
"PostCode": "18262",
"Location": {
"Latitude": 43.26,
"Longitude": 21.8858
}
},
{
"Name": "Čurug",
"PostCode": "21238",
"Location": {
"Latitude": 45.4722,
"Longitude": 20.0686
}
},
{
"Name": "Đala",
"PostCode": "23335",
"Location": {
"Latitude": 46.0627,
"Longitude": 20.1606
}
},
{
"Name": "Darosava",
"PostCode": "34305",
"Location": {
"Latitude": 44.3341,
"Longitude": 20.4531
}
},
{
"Name": "Dašnica",
"PostCode": "37271",
"Location": {
"Latitude": 43.475,
"Longitude": 21.1593
}
},
{
"Name": "Debeljača",
"PostCode": "26214",
"Location": {
"Latitude": 45.0707,
"Longitude": 20.6015
}
},
{
"Name": "Debrc",
"PostCode": "15214",
"Location": {
"Latitude": 44.6227,
"Longitude": 19.9027
}
},
{
"Name": "Deč",
"PostCode": "22441",
"Location": {
"Latitude": 44.8353,
"Longitude": 20.1139
}
},
{
"Name": "Deliblato",
"PostCode": "26225",
"Location": {
"Latitude": 44.8388,
"Longitude": 21.0386
}
},
{
"Name": "Delimeđe",
"PostCode": "36307",
"Location": {
"Latitude": 43.1041,
"Longitude": 20.3022
}
},
{
"Name": "Deronje",
"PostCode": "25254",
"Location": {
"Latitude": 45.4553,
"Longitude": 19.2203
}
},
{
"Name": "Desimirovac",
"PostCode": "34321",
"Location": {
"Latitude": 44.0725,
"Longitude": 20.8802
}
},
{
"Name": "Despotovac",
"PostCode": "35213",
"Location": {
"Latitude": 44.0925,
"Longitude": 21.4469
}
},
{
"Name": "Despotovo",
"PostCode": "21468",
"Location": {
"Latitude": 45.4598,
"Longitude": 19.5265
}
},
{
"Name": "Devojački Bunar",
"PostCode": "26316",
"Location": {
"Latitude": 45.0338,
"Longitude": 20.8717
}
},
{
"Name": "Deževa",
"PostCode": "36305",
"Location": {
"Latitude": 43.2038,
"Longitude": 20.4797
}
},
{
"Name": "Dimitrovgrad",
"PostCode": "18320",
"Location": {
"Latitude": 43.0142,
"Longitude": 22.7756
}
},
{
"Name": "Divci",
"PostCode": "14222",
"Location": {
"Latitude": 44.3013,
"Longitude": 20.03
}
},
{
"Name": "Divčibare",
"PostCode": "14204",
"Location": {
"Latitude": 44.106,
"Longitude": 19.9925
}
},
{
"Name": "Divljaka",
"PostCode": "31236",
"Location": {
"Latitude": 43.6783,
"Longitude": 20.1211
}
},
{
"Name": "Divoš",
"PostCode": "22232",
"Location": {
"Latitude": 45.1109,
"Longitude": 19.5098
}
},
{
"Name": "Divostin",
"PostCode": "34204",
"Location": {
"Latitude": 44.0229,
"Longitude": 20.8335
}
},
{
"Name": "Dobanovci",
"PostCode": "11272",
"Location": {
"Latitude": 44.8263,
"Longitude": 20.2249
}
},
{
"Name": "Dobra",
"PostCode": "12224",
"Location": {
"Latitude": 44.6357,
"Longitude": 21.9085
}
},
{
"Name": "Dobri Do",
"PostCode": "18408",
"Location": {
"Latitude": 42.926,
"Longitude": 21.3904
}
},
{
"Name": "Dobrić",
"PostCode": "15235",
"Location": {
"Latitude": 44.7022,
"Longitude": 19.5793
}
},
{
"Name": "Dobrica",
"PostCode": "26354",
"Location": {
"Latitude": 45.2134,
"Longitude": 20.8499
}
},
{
"Name": "Dobrinci",
"PostCode": "22412",
"Location": {
"Latitude": 44.9537,
"Longitude": 19.9266
}
},
{
"Name": "Dolac",
"PostCode": "18314",
"Location": {
"Latitude": 43.319,
"Longitude": 22.1982
}
},
{
"Name": "Doljevac",
"PostCode": "18410",
"Location": {
"Latitude": 43.1982,
"Longitude": 21.8326
}
},
{
"Name": "Dolovo",
"PostCode": "26227",
"Location": {
"Latitude": 44.8982,
"Longitude": 20.8779
}
},
{
"Name": "Donja Bela Reka",
"PostCode": "19213",
"Location": {
"Latitude": 44.0724,
"Longitude": 22.2061
}
},
{
"Name": "Donja Borina",
"PostCode": "15317",
"Location": {
"Latitude": 44.4352,
"Longitude": 19.179
}
},
{
"Name": "Donja Kamenica",
"PostCode": "19352",
"Location": {
"Latitude": 43.4882,
"Longitude": 22.3263
}
},
{
"Name": "Donja Ljubata",
"PostCode": "17544",
"Location": {
"Latitude": 42.4892,
"Longitude": 22.3425
}
},
{
"Name": "Donja Mutnica",
"PostCode": "35255",
"Location": {
"Latitude": 43.8517,
"Longitude": 21.5613
}
},
{
"Name": "Donja Orovica",
"PostCode": "15323",
"Location": {
"Latitude": 44.22,
"Longitude": 19.4729
}
},
{
"Name": "Donja Rečica",
"PostCode": "18404",
"Location": {
"Latitude": 43.2903,
"Longitude": 21.4964
}
},
{
"Name": "Donja Šatornja",
"PostCode": "34314",
"Location": {
"Latitude": 44.1941,
"Longitude": 20.6021
}
},
{
"Name": "Donja Trnava",
"PostCode": "18421",
"Location": {
"Latitude": 43.2541,
"Longitude": 21.5327
}
},
{
"Name": "Donje Crnatovo",
"PostCode": "18414",
"Location": {
"Latitude": 43.1523,
"Longitude": 21.7727
}
},
{
"Name": "Donje Crniljevo",
"PostCode": "15227",
"Location": {
"Latitude": 44.4677,
"Longitude": 19.6257
}
},
{
"Name": "Donje Međurovo",
"PostCode": "18254",
"Location": {
"Latitude": 43.2974,
"Longitude": 21.8233
}
},
{
"Name": "Donje Tlamino",
"PostCode": "17547",
"Location": {
"Latitude": 42.3599,
"Longitude": 22.4259
}
},
{
"Name": "Donje Vidovo",
"PostCode": "35258",
"Location": {
"Latitude": 43.8029,
"Longitude": 21.3681
}
},
{
"Name": "Donje Zuniče",
"PostCode": "19345",
"Location": {
"Latitude": 43.6226,
"Longitude": 22.2768
}
},
{
"Name": "Donji Dušnik",
"PostCode": "18242",
"Location": {
"Latitude": 43.1636,
"Longitude": 22.1044
}
},
{
"Name": "Donji Krčin",
"PostCode": "37258",
"Location": {
"Latitude": 43.7351,
"Longitude": 21.1836
}
},
{
"Name": "Donji Milanovac",
"PostCode": "19220",
"Location": {
"Latitude": 44.4659,
"Longitude": 22.1517
}
},
{
"Name": "Donji Stajevac",
"PostCode": "17526",
"Location": {
"Latitude": 42.4012,
"Longitude": 22.1597
}
},
{
"Name": "Doroslovo",
"PostCode": "25243",
"Location": {
"Latitude": 45.607,
"Longitude": 19.1887
}
},
{
"Name": "Dračić",
"PostCode": "14203",
"Location": {
"Latitude": 44.2157,
"Longitude": 19.9003
}
},
{
"Name": "Draginac",
"PostCode": "15311",
"Location": {
"Latitude": 44.5084,
"Longitude": 19.4163
}
},
{
"Name": "Draginje",
"PostCode": "15226",
"Location": {
"Latitude": 44.533,
"Longitude": 19.7625
}
},
{
"Name": "Draglica",
"PostCode": "31317",
"Location": {
"Latitude": 43.5766,
"Longitude": 19.7445
}
},
{
"Name": "Dragobraća",
"PostCode": "34231",
"Location": {
"Latitude": 43.9677,
"Longitude": 20.8382
}
},
{
"Name": "Dragocvet",
"PostCode": "35272",
"Location": {
"Latitude": 43.9404,
"Longitude": 21.2139
}
},
{
"Name": "Dragoševac",
"PostCode": "35262",
"Location": {
"Latitude": 43.8824,
"Longitude": 21.2259
}
},
{
"Name": "Dragovo",
"PostCode": "35265",
"Location": {
"Latitude": 43.7872,
"Longitude": 21.1007
}
},
{
"Name": "Draževac",
"PostCode": "11506",
"Location": {
"Latitude": 44.5958,
"Longitude": 20.2217
}
},
{
"Name": "Draževac",
"PostCode": "18223",
"Location": {
"Latitude": 43.45,
"Longitude": 21.7904
}
},
{
"Name": "Drenovac",
"PostCode": "15212",
"Location": {
"Latitude": 44.8665,
"Longitude": 19.7094
}
},
{
"Name": "Drenovac",
"PostCode": "35257",
"Location": {
"Latitude": 43.7637,
"Longitude": 21.427
}
},
{
"Name": "Drlače",
"PostCode": "15324",
"Location": {
"Latitude": 44.1432,
"Longitude": 19.4889
}
},
{
"Name": "Drugovac",
"PostCode": "11432",
"Location": {
"Latitude": 44.5461,
"Longitude": 20.8316
}
},
{
"Name": "Dublje",
"PostCode": "15359",
"Location": {
"Latitude": 44.8012,
"Longitude": 19.509
}
},
{
"Name": "Duboka",
"PostCode": "12255",
"Location": {
"Latitude": 44.5222,
"Longitude": 21.7603
}
},
{
"Name": "Dubovac",
"PostCode": "26224",
"Location": {
"Latitude": 44.7955,
"Longitude": 21.2086
}
},
{
"Name": "Dubovo",
"PostCode": "18406",
"Location": {
"Latitude": 43.1114,
"Longitude": 21.6952
}
},
{
"Name": "Dubravica",
"PostCode": "12207",
"Location": {
"Latitude": 44.6964,
"Longitude": 21.0802
}
},
{
"Name": "Dudovica",
"PostCode": "11561",
"Location": {
"Latitude": 44.2983,
"Longitude": 20.2631
}
},
{
"Name": "Duga Poljana",
"PostCode": "36312",
"Location": {
"Latitude": 43.2515,
"Longitude": 20.2278
}
},
{
"Name": "Dugo Polje",
"PostCode": "18237",
"Location": {
"Latitude": 43.6286,
"Longitude": 21.9523
}
},
{
"Name": "Đunis",
"PostCode": "37202",
"Location": {
"Latitude": 43.5291,
"Longitude": 21.3944
}
},
{
"Name": "Dupljaja",
"PostCode": "26328",
"Location": {
"Latitude": 44.9287,
"Longitude": 21.2776
}
},
{
"Name": "Đurđevo",
"PostCode": "21239",
"Location": {
"Latitude": 45.4005,
"Longitude": 19.9397
}
},
{
"Name": "Đurđevo",
"PostCode": "34215",
"Location": {
"Latitude": 44.0178,
"Longitude": 21.0629
}
},
{
"Name": "Đurđin",
"PostCode": "24213",
"Location": {
"Latitude": 46.0136,
"Longitude": 19.493
}
},
{
"Name": "Dušanovac",
"PostCode": "19335",
"Location": {
"Latitude": 44.2935,
"Longitude": 22.5236
}
},
{
"Name": "Dvorane",
"PostCode": "37206",
"Location": {
"Latitude": 43.4978,
"Longitude": 21.4119
}
},
{
"Name": "Džep",
"PostCode": "17514",
"Location": {
"Latitude": 42.7682,
"Longitude": 22.0883
}
},
{
"Name": "Džigolj",
"PostCode": "18405",
"Location": {
"Latitude": 43.3356,
"Longitude": 21.5605
}
},
{
"Name": "Ečka",
"PostCode": "23203",
"Location": {
"Latitude": 45.3233,
"Longitude": 20.4429
}
},
{
"Name": "Elemir",
"PostCode": "23208",
"Location": {
"Latitude": 45.4426,
"Longitude": 20.3
}
},
{
"Name": "Erdeč",
"PostCode": "34207",
"Location": {
"Latitude": 43.9714,
"Longitude": 20.8999
}
},
{
"Name": "Erdevik",
"PostCode": "22230",
"Location": {
"Latitude": 45.1172,
"Longitude": 19.4088
}
},
{
"Name": "Farkaždin",
"PostCode": "23264",
"Location": {
"Latitude": 45.1917,
"Longitude": 20.4724
}
},
{
"Name": "Feketić",
"PostCode": "24323",
"Location": {
"Latitude": 45.6643,
"Longitude": 19.6997
}
},
{
"Name": "Futog",
"PostCode": "21410",
"Location": {
"Latitude": 45.2387,
"Longitude": 19.7142
}
},
{
"Name": "Gadžin Han",
"PostCode": "18240",
"Location": {
"Latitude": 43.2228,
"Longitude": 22.0319
}
},
{
"Name": "Gaj",
"PostCode": "26223",
"Location": {
"Latitude": 44.7953,
"Longitude": 21.0659
}
},
{
"Name": "Gajdobra",
"PostCode": "21432",
"Location": {
"Latitude": 45.3506,
"Longitude": 19.4458
}
},
{
"Name": "Gakovo",
"PostCode": "25282",
"Location": {
"Latitude": 45.9331,
"Longitude": 19.1005
}
},
{
"Name": "Gamzigradska Banja",
"PostCode": "19228",
"Location": {
"Latitude": 44.1452,
"Longitude": 22.2265
}
},
{
"Name": "Gardinovci",
"PostCode": "21247",
"Location": {
"Latitude": 45.2036,
"Longitude": 20.1356
}
},
{
"Name": "Gibarac",
"PostCode": "22258",
"Location": {
"Latitude": 45.1039,
"Longitude": 19.2637
}
},
{
"Name": "Glavinci",
"PostCode": "35261",
"Location": {
"Latitude": 43.9248,
"Longitude": 21.251
}
},
{
"Name": "Globoder",
"PostCode": "37251",
"Location": {
"Latitude": 43.5634,
"Longitude": 21.1739
}
},
{
"Name": "Glogonj",
"PostCode": "26202",
"Location": {
"Latitude": 44.9864,
"Longitude": 20.5275
}
},
{
"Name": "Gložan",
"PostCode": "21412",
"Location": {
"Latitude": 45.2795,
"Longitude": 19.5684
}
},
{
"Name": "Glušci",
"PostCode": "15356",
"Location": {
"Latitude": 44.8902,
"Longitude": 19.5491
}
},
{
"Name": "Gnjilan",
"PostCode": "18309",
"Location": {
"Latitude": 43.1589,
"Longitude": 22.5583
}
},
{
"Name": "Golobok",
"PostCode": "11316",
"Location": {
"Latitude": 44.4547,
"Longitude": 21.0041
}
},
{
"Name": "Golubac",
"PostCode": "12223",
"Location": {
"Latitude": 44.653,
"Longitude": 21.632
}
},
{
"Name": "Golubinci",
"PostCode": "22308",
"Location": {
"Latitude": 44.9853,
"Longitude": 20.0634
}
},
{
"Name": "Goračići",
"PostCode": "32232",
"Location": {
"Latitude": 43.774,
"Longitude": 20.3365
}
},
{
"Name": "Goričani",
"PostCode": "32225",
"Location": {
"Latitude": 43.7939,
"Longitude": 20.53
}
},
{
"Name": "Gornja Dobrinja",
"PostCode": "31214",
"Location": {
"Latitude": 43.9543,
"Longitude": 20.0866
}
},
{
"Name": "Gornja Draguša",
"PostCode": "18425",
"Location": {
"Latitude": 43.2795,
"Longitude": 21.3603
}
},
{
"Name": "Gornja Lisina",
"PostCode": "17538",
"Location": {
"Latitude": 42.5579,
"Longitude": 22.3632
}
},
{
"Name": "Gornja Sabanta",
"PostCode": "34206",
"Location": {
"Latitude": 43.942,
"Longitude": 21.0037
}
},
{
"Name": "Gornja Toplica",
"PostCode": "14243",
"Location": {
"Latitude": 44.223,
"Longitude": 20.1679
}
},
{
"Name": "Gornja Toponica",
"PostCode": "18202",
"Location": {
"Latitude": 43.4014,
"Longitude": 21.8071
}
},
{
"Name": "Gornja Trepča",
"PostCode": "32215",
"Location": {
"Latitude": 43.941,
"Longitude": 20.4833
}
},
{
"Name": "Gornja Trnava",
"PostCode": "34324",
"Location": {
"Latitude": 44.1848,
"Longitude": 20.765
}
},
{
"Name": "Gornji Banjani",
"PostCode": "32306",
"Location": {
"Latitude": 44.1035,
"Longitude": 20.268
}
},
{
"Name": "Gornji Barbeš",
"PostCode": "18241",
"Location": {
"Latitude": 43.1997,
"Longitude": 21.9508
}
},
{
"Name": "Gornji Breg",
"PostCode": "24406",
"Location": {
"Latitude": 45.92,
"Longitude": 20.0177
}
},
{
"Name": "Gornji Brestovac",
"PostCode": "16244",
"Location": {
"Latitude": 42.8298,
"Longitude": 21.5432
}
},
{
"Name": "Gornji Matejevac",
"PostCode": "18204",
"Location": {
"Latitude": 43.3647,
"Longitude": 21.9679
}
},
{
"Name": "Gornji Milanovac",
"PostCode": "32300",
"Location": {
"Latitude": 44.026,
"Longitude": 20.4615
}
},
{
"Name": "Gornji Stepoš",
"PostCode": "37221",
"Location": {
"Latitude": 43.5066,
"Longitude": 21.2959
}
},
{
"Name": "Gornji Stupanj",
"PostCode": "37234",
"Location": {
"Latitude": 43.4727,
"Longitude": 21.185
}
},
{
"Name": "Gospođinci",
"PostCode": "21237",
"Location": {
"Latitude": 45.4038,
"Longitude": 19.9881
}
},
{
"Name": "Gostilje",
"PostCode": "31313",
"Location": {
"Latitude": 43.6529,
"Longitude": 19.8298
}
},
{
"Name": "Grabovac",
"PostCode": "11508",
"Location": {
"Latitude": 44.6005,
"Longitude": 20.0854
}
},
{
"Name": "Grabovci",
"PostCode": "22423",
"Location": {
"Latitude": 44.765,
"Longitude": 19.8449
}
},
{
"Name": "Grabovica",
"PostCode": "19327",
"Location": {
"Latitude": 44.4935,
"Longitude": 22.4894
}
},
{
"Name": "Gradina",
"PostCode": "18321",
"Location": {
"Latitude": 43.0024,
"Longitude": 22.8029
}
},
{
"Name": "Gradskovo",
"PostCode": "19205",
"Location": {
"Latitude": 44.021,
"Longitude": 22.3874
}
},
{
"Name": "Grdelica",
"PostCode": "16220",
"Location": {
"Latitude": 42.9016,
"Longitude": 22.0705
}
},
{
"Name": "Grebenac",
"PostCode": "26347",
"Location": {
"Latitude": 44.9017,
"Longitude": 21.2353
}
},
{
"Name": "Grejač",
"PostCode": "18219",
"Location": {
"Latitude": 43.4193,
"Longitude": 21.7328
}
},
{
"Name": "Grgurevci",
"PostCode": "22213",
"Location": {
"Latitude": 45.1043,
"Longitude": 19.6464
}
},
{
"Name": "Grlište",
"PostCode": "19342",
"Location": {
"Latitude": 43.813,
"Longitude": 22.2449
}
},
{
"Name": "Grljan",
"PostCode": "19341",
"Location": {
"Latitude": 43.86,
"Longitude": 22.2931
}
},
{
"Name": "Grocka",
"PostCode": "11306",
"Location": {
"Latitude": 44.6715,
"Longitude": 20.7165
}
},
{
"Name": "Grošnica",
"PostCode": "34202",
"Location": {
"Latitude": 43.954,
"Longitude": 20.876
}
},
{
"Name": "Gruža",
"PostCode": "34230",
"Location": {
"Latitude": 43.899,
"Longitude": 20.7694
}
},
{
"Name": "Guberevac",
"PostCode": "34232",
"Location": {
"Latitude": 43.8321,
"Longitude": 20.773
}
},
{
"Name": "Guberevac (Leskovac)",
"PostCode": "16211",
"Location": {
"Latitude": 42.9181,
"Longitude": 22.2328
}
},
{
"Name": "Guča",
"PostCode": "32230",
"Location": {
"Latitude": 43.7789,
"Longitude": 20.2256
}
},
{
"Name": "Gudurica",
"PostCode": "26335",
"Location": {
"Latitude": 45.1682,
"Longitude": 21.4426
}
},
{
"Name": "Gunaroš",
"PostCode": "24312",
"Location": {
"Latitude": 45.7603,
"Longitude": 19.8278
}
},
{
"Name": "Guševac",
"PostCode": "18208",
"Location": {
"Latitude": 43.3914,
"Longitude": 22.2752
}
},
{
"Name": "Hajdučica",
"PostCode": "26370",
"Location": {
"Latitude": 45.2501,
"Longitude": 20.9602
}
},
{
"Name": "Hajdukovo",
"PostCode": "24415",
"Location": {
"Latitude": 46.123,
"Longitude": 19.8559
}
},
{
"Name": "Hetin",
"PostCode": "23235",
"Location": {
"Latitude": 45.662,
"Longitude": 20.7914
}
},
{
"Name": "Horgoš",
"PostCode": "24410",
"Location": {
"Latitude": 46.1539,
"Longitude": 19.9677
}
},
{
"Name": "Hrtkovci",
"PostCode": "22427",
"Location": {
"Latitude": 44.8815,
"Longitude": 19.7637
}
},
{
"Name": "Iđoš",
"PostCode": "23323",
"Location": {
"Latitude": 45.8265,
"Longitude": 20.3179
}
},
{
"Name": "Idvor",
"PostCode": "26207",
"Location": {
"Latitude": 45.189,
"Longitude": 20.5144
}
},
{
"Name": "Ilandža",
"PostCode": "26352",
"Location": {
"Latitude": 45.169,
"Longitude": 20.9201
}
},
{
"Name": "Ilićevo",
"PostCode": "34203",
"Location": {
"Latitude": 43.9945,
"Longitude": 20.8796
}
},
{
"Name": "Ilinci",
"PostCode": "22250",
"Location": {
"Latitude": 45.1135,
"Longitude": 19.1239
}
},
{
"Name": "Inđija",
"PostCode": "22320",
"Location": {
"Latitude": 45.0482,
"Longitude": 20.0816
}
},
{
"Name": "Irig",
"PostCode": "22406",
"Location": {
"Latitude": 45.0523,
"Longitude": 19.8445
}
},
{
"Name": "Ivanjica",
"PostCode": "32250",
"Location": {
"Latitude": 43.5803,
"Longitude": 20.2311
}
},
{
"Name": "Ivanovo",
"PostCode": "26233",
"Location": {
"Latitude": 44.7395,
"Longitude": 20.6978
}
},
{
"Name": "Izbište",
"PostCode": "26343",
"Location": {
"Latitude": 45.0225,
"Longitude": 21.1839
}
},
{
"Name": "Jablanica",
"PostCode": "31314",
"Location": {
"Latitude": 43.6726,
"Longitude": 19.7818
}
},
{
"Name": "Jabučje",
"PostCode": "14226",
"Location": {
"Latitude": 44.3694,
"Longitude": 20.1653
}
},
{
"Name": "Jabuka",
"PostCode": "26201",
"Location": {
"Latitude": 44.9492,
"Longitude": 20.5998
}
},
{
"Name": "Jabuka",
"PostCode": "31306",
"Location": {
"Latitude": 43.3534,
"Longitude": 19.5131
}
},
{
"Name": "Jabukovac",
"PostCode": "19304",
"Location": {
"Latitude": 44.3484,
"Longitude": 22.3822
}
},
{
"Name": "Jadranska Lešnica",
"PostCode": "15308",
"Location": {
"Latitude": 44.5973,
"Longitude": 19.3521
}
},
{
"Name": "Jagnjilo",
"PostCode": "11412",
"Location": {
"Latitude": 44.3774,
"Longitude": 20.7294
}
},
{
"Name": "Jagodina",
"PostCode": "35000",
"Location": {
"Latitude": 43.9771,
"Longitude": 21.2612
}
},
{
"Name": "Jakovo",
"PostCode": "11276",
"Location": {
"Latitude": 44.7537,
"Longitude": 20.2601
}
},
{
"Name": "Jamena",
"PostCode": "22248",
"Location": {
"Latitude": 44.884,
"Longitude": 19.0638
}
},
{
"Name": "Janošik",
"PostCode": "26362",
"Location": {
"Latitude": 45.1714,
"Longitude": 21.0066
}
},
{
"Name": "Jarak",
"PostCode": "22426",
"Location": {
"Latitude": 44.9184,
"Longitude": 19.7548
}
},
{
"Name": "Jarkovac",
"PostCode": "23250",
"Location": {
"Latitude": 45.2698,
"Longitude": 20.7608
}
},
{
"Name": "Jarmenovci",
"PostCode": "34318",
"Location": {
"Latitude": 44.1849,
"Longitude": 20.5462
}
},
{
"Name": "Jaša Tomić",
"PostCode": "23230",
"Location": {
"Latitude": 45.4472,
"Longitude": 20.8555
}
},
{
"Name": "Jasenovo",
"PostCode": "26346",
"Location": {
"Latitude": 44.9359,
"Longitude": 21.3014
}
},
{
"Name": "Jasenovo",
"PostCode": "31319",
"Location": {
"Latitude": 43.555,
"Longitude": 19.8889
}
},
{
"Name": "Jasenovo",
"PostCode": "35241",
"Location": {
"Latitude": 44.1531,
"Longitude": 21.3077
}
},
{
"Name": "Jasika",
"PostCode": "37252",
"Location": {
"Latitude": 43.6147,
"Longitude": 21.298
}
},
{
"Name": "Jazovo",
"PostCode": "23327",
"Location": {
"Latitude": 45.8988,
"Longitude": 20.2213
}
},
{
"Name": "Jelašnica",
"PostCode": "17531",
"Location": {
"Latitude": 42.6404,
"Longitude": 22.0883
}
},
{
"Name": "Jelašnica",
"PostCode": "18206",
"Location": {
"Latitude": 43.2897,
"Longitude": 22.0514
}
},
{
"Name": "Jelen Do",
"PostCode": "31215",
"Location": {
"Latitude": 43.8949,
"Longitude": 20.1122
}
},
{
"Name": "Jelovik",
"PostCode": "34309",
"Location": {
"Latitude": 44.2644,
"Longitude": 20.4553
}
},
{
"Name": "Jermenovci",
"PostCode": "26363",
"Location": {
"Latitude": 45.1863,
"Longitude": 21.0455
}
},
{
"Name": "Ježevica",
"PostCode": "31213",
"Location": {
"Latitude": 43.9664,
"Longitude": 20.0292
}
},
{
"Name": "Ježevica",
"PostCode": "32222",
"Location": {
"Latitude": 43.8205,
"Longitude": 20.4029
}
},
{
"Name": "Jošanica",
"PostCode": "18234",
"Location": {
"Latitude": 43.7282,
"Longitude": 21.7741
}
},
{
"Name": "Jošanička Banja",
"PostCode": "36345",
"Location": {
"Latitude": 43.3894,
"Longitude": 20.7505
}
},
{
"Name": "Jovac",
"PostCode": "35205",
"Location": {
"Latitude": 43.9586,
"Longitude": 21.243
}
},
{
"Name": "Jovanovac",
"PostCode": "18258",
"Location": {
"Latitude": 43.3453,
"Longitude": 21.6848
}
},
{
"Name": "Jovanovac",
"PostCode": "34211",
"Location": {
"Latitude": 43.7448,
"Longitude": 21.5098
}
},
{
"Name": "Jugbogdanovac",
"PostCode": "18253",
"Location": {
"Latitude": 43.2855,
"Longitude": 21.7795
}
},
{
"Name": "Junkovac",
"PostCode": "11562",
"Location": {
"Latitude": 44.4496,
"Longitude": 20.3492
}
},
{
"Name": "Kać",
"PostCode": "21241",
"Location": {
"Latitude": 45.3041,
"Longitude": 19.943
}
},
{
"Name": "Kačarevo",
"PostCode": "26212",
"Location": {
"Latitude": 44.9672,
"Longitude": 20.6996
}
},
{
"Name": "Kajtasovo",
"PostCode": "26329",
"Location": {
"Latitude": 44.8764,
"Longitude": 21.255
}
},
{
"Name": "Kalna",
"PostCode": "19353",
"Location": {
"Latitude": 43.4166,
"Longitude": 22.4063
}
},
{
"Name": "Kaluđerica",
"PostCode": "11130",
"Location": {
"Latitude": 44.7542,
"Longitude": 20.5541
}
},
{
"Name": "Kaluđerske Bare",
"PostCode": "31257",
"Location": {
"Latitude": 43.9876,
"Longitude": 19.5616
}
},
{
"Name": "Kamenica",
"PostCode": "14252",
"Location": {
"Latitude": 44.343,
"Longitude": 19.7233
}
},
{
"Name": "Kamenica",
"PostCode": "15222",
"Location": {
"Latitude": 44.4733,
"Longitude": 19.722
}
},
{
"Name": "Kamenica",
"PostCode": "18324",
"Location": {
"Latitude": 43.1343,
"Longitude": 22.8929
}
},
{
"Name": "Kanjiža",
"PostCode": "24420",
"Location": {
"Latitude": 46.0667,
"Longitude": 20.05
}
},
{
"Name": "Kaona",
"PostCode": "32234",
"Location": {
"Latitude": 43.7118,
"Longitude": 20.4064
}
},
{
"Name": "Kaonik",
"PostCode": "37256",
"Location": {
"Latitude": 43.5592,
"Longitude": 21.4969
}
},
{
"Name": "Karađorđevo",
"PostCode": "21421",
"Location": {
"Latitude": 45.2922,
"Longitude": 19.3043
}
},
{
"Name": "Karađorđevo",
"PostCode": "24308",
"Location": {
"Latitude": 45.8582,
"Longitude": 19.591
}
},
{
"Name": "Karan (Užice)",
"PostCode": "31204",
"Location": {
"Latitude": 43.7488,
"Longitude": 19.8882
}
},
{
"Name": "Karavukovo",
"PostCode": "25255",
"Location": {
"Latitude": 45.4983,
"Longitude": 19.1942
}
},
{
"Name": "Karlovčić",
"PostCode": "22443",
"Location": {
"Latitude": 44.8232,
"Longitude": 20.045
}
},
{
"Name": "Katun Božički",
"PostCode": "18225",
"Location": {
"Latitude": 43.5209,
"Longitude": 21.7001
}
},
{
"Name": "Kelebija",
"PostCode": "24104",
"Location": {
"Latitude": 45.9185,
"Longitude": 19.769
}
},
{
"Name": "Kevi",
"PostCode": "24407",
"Location": {
"Latitude": 45.8503,
"Longitude": 19.8803
}
},
{
"Name": "Kikinda",
"PostCode": "23300",
"Location": {
"Latitude": 45.8297,
"Longitude": 20.4653
}
},
{
"Name": "Kisač",
"PostCode": "21211",
"Location": {
"Latitude": 45.3542,
"Longitude": 19.7297
}
},
{
"Name": "Kladovo",
"PostCode": "19320",
"Location": {
"Latitude": 44.6115,
"Longitude": 22.6095
}
},
{
"Name": "Kladurovo",
"PostCode": "12304",
"Location": {
"Latitude": 44.4369,
"Longitude": 21.5441
}
},
{
"Name": "Klajić",
"PostCode": "16236",
"Location": {
"Latitude": 42.8237,
"Longitude": 21.7313
}
},
{
"Name": "Klek",
"PostCode": "23211",
"Location": {
"Latitude": 45.4225,
"Longitude": 20.4805
}
},
{
"Name": "Klenak",
"PostCode": "22424",
"Location": {
"Latitude": 44.7885,
"Longitude": 19.71
}
},
{
"Name": "Klenike",
"PostCode": "17524",
"Location": {
"Latitude": 42.3897,
"Longitude": 21.8889
}
},
{
"Name": "Klenje",
"PostCode": "12258",
"Location": {
"Latitude": 44.6011,
"Longitude": 21.5306
}
},
{
"Name": "Klenje",
"PostCode": "15357",
"Location": {
"Latitude": 44.8079,
"Longitude": 19.4351
}
},
{
"Name": "Kličevac",
"PostCode": "12209",
"Location": {
"Latitude": 44.7593,
"Longitude": 21.2904
}
},
{
"Name": "Klisura",
"PostCode": "17535",
"Location": {
"Latitude": 42.7575,
"Longitude": 22.4077
}
},
{
"Name": "Kljajićevo",
"PostCode": "25221",
"Location": {
"Latitude": 45.7704,
"Longitude": 19.277
}
},
{
"Name": "Klokočevac",
"PostCode": "19222",
"Location": {
"Latitude": 44.346,
"Longitude": 22.1798
}
},
{
"Name": "Knić",
"PostCode": "34240",
"Location": {
"Latitude": 43.9269,
"Longitude": 20.7189
}
},
{
"Name": "Knićanin",
"PostCode": "23265",
"Location": {
"Latitude": 45.19,
"Longitude": 20.3222
}
},
{
"Name": "Knjaževac",
"PostCode": "19350",
"Location": {
"Latitude": 43.5663,
"Longitude": 22.257
}
},
{
"Name": "Kobišnica",
"PostCode": "19316",
"Location": {
"Latitude": 44.199,
"Longitude": 22.5959
}
},
{
"Name": "Koceljeva",
"PostCode": "15220",
"Location": {
"Latitude": 44.4736,
"Longitude": 19.8117
}
},
{
"Name": "Kokin Brod",
"PostCode": "31318",
"Location": {
"Latitude": 43.5144,
"Longitude": 19.8014
}
},
{
"Name": "Kolare",
"PostCode": "35242",
"Location": {
"Latitude": 43.9012,
"Longitude": 21.2416
}
},
{
"Name": "Kolari",
"PostCode": "11431",
"Location": {
"Latitude": 44.5843,
"Longitude": 20.9014
}
},
{
"Name": "Kolut",
"PostCode": "25274",
"Location": {
"Latitude": 45.8929,
"Longitude": 18.9276
}
},
{
"Name": "Komirić",
"PostCode": "14254",
"Location": {
"Latitude": 44.4123,
"Longitude": 19.5415
}
},
{
"Name": "Konak",
"PostCode": "23253",
"Location": {
"Latitude": 45.3158,
"Longitude": 20.9147
}
},
{
"Name": "Konarevo",
"PostCode": "36340",
"Location": {
"Latitude": 43.702,
"Longitude": 20.6123
}
},
{
"Name": "Končarevo",
"PostCode": "35219",
"Location": {
"Latitude": 43.9751,
"Longitude": 21.3137
}
},
{
"Name": "Konjuh",
"PostCode": "37254",
"Location": {
"Latitude": 43.6433,
"Longitude": 21.1814
}
},
{
"Name": "Kopaonik",
"PostCode": "36354",
"Location": {
"Latitude": 43.286,
"Longitude": 20.8092
}
},
{
"Name": "Koprivnica",
"PostCode": "19223",
"Location": {
"Latitude": 44.0478,
"Longitude": 22.3255
}
},
{
"Name": "Koraćica",
"PostCode": "11415",
"Location": {
"Latitude": 44.451,
"Longitude": 20.6201
}
},
{
"Name": "Korbevac",
"PostCode": "17545",
"Location": {
"Latitude": 42.5894,
"Longitude": 22.0225
}
},
{
"Name": "Korbovo",
"PostCode": "19329",
"Location": {
"Latitude": 44.5237,
"Longitude": 22.7073
}
},
{
"Name": "Korenita",
"PostCode": "15302",
"Location": {
"Latitude": 44.5121,
"Longitude": 19.2891
}
},
{
"Name": "Korman",
"PostCode": "18216",
"Location": {
"Latitude": 43.4528,
"Longitude": 21.703
}
},
{
"Name": "Korman",
"PostCode": "34224",
"Location": {
"Latitude": 44.0503,
"Longitude": 20.9928
}
},
{
"Name": "Kosančić",
"PostCode": "16206",
"Location": {
"Latitude": 43.0883,
"Longitude": 21.7779
}
},
{
"Name": "Kosjerić",
"PostCode": "31260",
"Location": {
"Latitude": 43.9961,
"Longitude": 19.9069
}
},
{
"Name": "Kostojevići",
"PostCode": "31254",
"Location": {
"Latitude": 44.0075,
"Longitude": 19.6872
}
},
{
"Name": "Kostolac",
"PostCode": "12208",
"Location": {
"Latitude": 44.735,
"Longitude": 21.1956
}
},
{
"Name": "Kotraža",
"PostCode": "32235",
"Location": {
"Latitude": 43.7008,
"Longitude": 20.2241
}
},
{
"Name": "Kovačevac",
"PostCode": "11409",
"Location": {
"Latitude": 44.44,
"Longitude": 20.74
}
},
{
"Name": "Kovačica",
"PostCode": "26210",
"Location": {
"Latitude": 45.1117,
"Longitude": 20.6214
}
},
{
"Name": "Kovilj",
"PostCode": "21243",
"Location": {
"Latitude": 45.2342,
"Longitude": 20.0233
}
},
{
"Name": "Kovilje",
"PostCode": "32257",
"Location": {
"Latitude": 43.5195,
"Longitude": 20.2792
}
},
{
"Name": "Kovin",
"PostCode": "26220",
"Location": {
"Latitude": 44.7475,
"Longitude": 20.9761
}
},
{
"Name": "Kragujevac",
"PostCode": "34000",
"Location": {
"Latitude": 44.0167,
"Longitude": 20.9167
}
},
{
"Name": "Krajišnik",
"PostCode": "23231",
"Location": {
"Latitude": 45.4528,
"Longitude": 20.7298
}
},
{
"Name": "Kraljevci",
"PostCode": "22411",
"Location": {
"Latitude": 44.9774,
"Longitude": 19.8833
}
},
{
"Name": "Kraljevo",
"PostCode": "36000",
"Location": {
"Latitude": 43.7258,
"Longitude": 20.6894
}
},
{
"Name": "Krčedin",
"PostCode": "22325",
"Location": {
"Latitude": 45.1387,
"Longitude": 20.1331
}
},
{
"Name": "Kremna",
"PostCode": "31242",
"Location": {
"Latitude": 43.8381,
"Longitude": 19.5743
}
},
{
"Name": "Krepoljin",
"PostCode": "12316",
"Location": {
"Latitude": 44.2627,
"Longitude": 21.6045
}
},
{
"Name": "Kriva Feja",
"PostCode": "17543",
"Location": {
"Latitude": 42.5591,
"Longitude": 22.1749
}
},
{
"Name": "Kriva Reka",
"PostCode": "37282",
"Location": {
"Latitude": 43.3747,
"Longitude": 20.8799
}
},
{
"Name": "Krivaja",
"PostCode": "24341",
"Location": {
"Latitude": 45.7083,
"Longitude": 19.6653
}
},
{
"Name": "Krivelj",
"PostCode": "19219",
"Location": {
"Latitude": 44.1294,
"Longitude": 22.0961
}
},
{
"Name": "Krivi Vir",
"PostCode": "19375",
"Location": {
"Latitude": 43.8231,
"Longitude": 21.749
}
},
{
"Name": "Krnješevci",
"PostCode": "22314",
"Location": {
"Latitude": 44.8888,
"Longitude": 20.138
}
},
{
"Name": "Krnjevo",
"PostCode": "11319",
"Location": {
"Latitude": 44.4093,
"Longitude": 21.0476
}
},
{
"Name": "Krupac",
"PostCode": "18307",
"Location": {
"Latitude": 43.1222,
"Longitude": 22.6724
}
},
{
"Name": "Krupanj",
"PostCode": "15314",
"Location": {
"Latitude": 44.3656,
"Longitude": 19.3619
}
},
{
"Name": "Krušar",
"PostCode": "35227",
"Location": {
"Latitude": 44.0176,
"Longitude": 21.3351
}
},
{
"Name": "Kruščić",
"PostCode": "25225",
"Location": {
"Latitude": 45.6139,
"Longitude": 19.3692
}
},
{
"Name": "Kruščica",
"PostCode": "31233",
"Location": {
"Latitude": 43.7026,
"Longitude": 19.9767
}
},
{
"Name": "Krušedol",
"PostCode": "22328",
"Location": {
"Latitude": 45.1134,
"Longitude": 19.9471
}
},
{
"Name": "Kruševac",
"PostCode": "37000",
"Location": {
"Latitude": 43.58,
"Longitude": 21.3339
}
},
{
"Name": "Kruševica",
"PostCode": "18409",
"Location": {
"Latitude": 43.1271,
"Longitude": 21.4452
}
},
{
"Name": "Kučevo",
"PostCode": "12240",
"Location": {
"Latitude": 44.4775,
"Longitude": 21.67
}
},
{
"Name": "Kucura",
"PostCode": "21466",
"Location": {
"Latitude": 45.5205,
"Longitude": 19.5887
}
},
{
"Name": "Kukljin",
"PostCode": "37255",
"Location": {
"Latitude": 43.6042,
"Longitude": 21.2338
}
},
{
"Name": "Kukujevci",
"PostCode": "22224",
"Location": {
"Latitude": 45.0697,
"Longitude": 19.3407
}
},
{
"Name": "Kula",
"PostCode": "25230",
"Location": {
"Latitude": 45.6089,
"Longitude": 19.5264
}
},
{
"Name": "Kulina",
"PostCode": "18214",
"Location": {
"Latitude": 43.4265,
"Longitude": 21.6165
}
},
{
"Name": "Kulpin",
"PostCode": "21472",
"Location": {
"Latitude": 45.4024,
"Longitude": 19.5881
}
},
{
"Name": "Kumane",
"PostCode": "23271",
"Location": {
"Latitude": 45.5395,
"Longitude": 20.229
}
},
{
"Name": "Kupci",
"PostCode": "37222",
"Location": {
"Latitude": 43.4552,
"Longitude": 21.2331
}
},
{
"Name": "Kupinik",
"PostCode": "26368",
"Location": {
"Latitude": 45.2925,
"Longitude": 21.137
}
},
{
"Name": "Kupinovo",
"PostCode": "22419",
"Location": {
"Latitude": 44.7071,
"Longitude": 20.0496
}
},
{
"Name": "Kupusina",
"PostCode": "25262",
"Location": {
"Latitude": 45.7376,
"Longitude": 19.0108
}
},
{
"Name": "Kuršumlija",
"PostCode": "18430",
"Location": {
"Latitude": 43.1383,
"Longitude": 21.2734
}
},
{
"Name": "Kuršumlijska Banja",
"PostCode": "18435",
"Location": {
"Latitude": 43.1896,
"Longitude": 21.2124
}
},
{
"Name": "Kusadak",
"PostCode": "11425",
"Location": {
"Latitude": 44.4002,
"Longitude": 20.805
}
},
{
"Name": "Kusić",
"PostCode": "26349",
"Location": {
"Latitude": 44.8767,
"Longitude": 21.4792
}
},
{
"Name": "Kušići",
"PostCode": "32258",
"Location": {
"Latitude": 43.6094,
"Longitude": 20.2706
}
},
{
"Name": "Kušiljevo",
"PostCode": "35226",
"Location": {
"Latitude": 44.2844,
"Longitude": 21.2061
}
},
{
"Name": "Kuštilj",
"PostCode": "26336",
"Location": {
"Latitude": 45.0349,
"Longitude": 21.3799
}
},
{
"Name": "Kuzmin",
"PostCode": "22223",
"Location": {
"Latitude": 45.0223,
"Longitude": 19.4046
}
},
{
"Name": "Laćarak",
"PostCode": "22221",
"Location": {
"Latitude": 44.997,
"Longitude": 19.5699
}
},
{
"Name": "Lađevci",
"PostCode": "36204",
"Location": {
"Latitude": 43.8172,
"Longitude": 20.6099
}
},
{
"Name": "Lajkovac",
"PostCode": "14224",
"Location": {
"Latitude": 44.3694,
"Longitude": 20.1653
}
},
{
"Name": "Lalić",
"PostCode": "25234",
"Location": {
"Latitude": 45.5193,
"Longitude": 19.3658
}
},
{
"Name": "Lalinac",
"PostCode": "18201",
"Location": {
"Latitude": 43.4446,
"Longitude": 22.0177
}
},
{
"Name": "Lapovo",
"PostCode": "34220",
"Location": {
"Latitude": 44.1842,
"Longitude": 21.0973
}
},
{
"Name": "Lazarevac",
"PostCode": "11550",
"Location": {
"Latitude": 44.3853,
"Longitude": 20.2557
}
},
{
"Name": "Lazarevo",
"PostCode": "23241",
"Location": {
"Latitude": 45.3889,
"Longitude": 20.54
}
},
{
"Name": "Laznica",
"PostCode": "12321",
"Location": {
"Latitude": 44.2403,
"Longitude": 21.81
}
},
{
"Name": "Lebane",
"PostCode": "16230",
"Location": {
"Latitude": 42.9239,
"Longitude": 21.7375
}
},
{
"Name": "Lece",
"PostCode": "16248",
"Location": {
"Latitude": 42.9043,
"Longitude": 21.5252
}
},
{
"Name": "Ledinci",
"PostCode": "21207",
"Location": {
"Latitude": 45.187,
"Longitude": 19.8055
}
},
{
"Name": "Lelić",
"PostCode": "14205",
"Location": {
"Latitude": 44.2303,
"Longitude": 19.8293
}
},
{
"Name": "Lenovac",
"PostCode": "19343",
"Location": {
"Latitude": 43.8052,
"Longitude": 22.1649
}
},
{
"Name": "Lepenac",
"PostCode": "37224",
"Location": {
"Latitude": 43.3447,
"Longitude": 21.0916
}
},
{
"Name": "Lepenica",
"PostCode": "17513",
"Location": {
"Latitude": 42.6696,
"Longitude": 22.0304
}
},
{
"Name": "Leskovac",
"PostCode": "16000",
"Location": {
"Latitude": 42.9981,
"Longitude": 21.9461
}
},
{
"Name": "Lešnica",
"PostCode": "15307",
"Location": {
"Latitude": 44.6525,
"Longitude": 19.31
}
},
{
"Name": "Leštane",
"PostCode": "11309",
"Location": {
"Latitude": 44.7312,
"Longitude": 20.5757
}
},
{
"Name": "Ležimir",
"PostCode": "22207",
"Location": {
"Latitude": 45.1232,
"Longitude": 19.5707
}
},
{
"Name": "Lički Hanovi",
"PostCode": "18245",
"Location": {
"Latitude": 43.1642,
"Longitude": 22.0396
}
},
{
"Name": "Lipar",
"PostCode": "25232",
"Location": {
"Latitude": 45.6139,
"Longitude": 19.3692
}
},
{
"Name": "Lipe",
"PostCode": "11310",
"Location": {
"Latitude": 44.641,
"Longitude": 20.9999
}
},
{
"Name": "Lipljan",
"PostCode": "14000",
"Location": {
"Latitude": 44.2751,
"Longitude": 19.8982
}
},
{
"Name": "Lipnički Šor",
"PostCode": "15341",
"Location": {
"Latitude": 44.5806,
"Longitude": 19.2657
}
},
{
"Name": "Lipolist",
"PostCode": "15305",
"Location": {
"Latitude": 44.6978,
"Longitude": 19.501
}
},
{
"Name": "Ljig",
"PostCode": "14240",
"Location": {
"Latitude": 44.2301,
"Longitude": 20.2382
}
},
{
"Name": "Ljuba",
"PostCode": "22255",
"Location": {
"Latitude": 45.1578,
"Longitude": 19.389
}
},
{
"Name": "Ljuberađa",
"PostCode": "18217",
"Location": {
"Latitude": 43.4528,
"Longitude": 21.703
}
},
{
"Name": "Ljubiš",
"PostCode": "31209",
"Location": {
"Latitude": 43.6167,
"Longitude": 19.8565
}
},
{
"Name": "Ljubovija",
"PostCode": "15320",
"Location": {
"Latitude": 44.1894,
"Longitude": 19.3767
}
},
{
"Name": "Ljukovo",
"PostCode": "22321",
"Location": {
"Latitude": 45.026,
"Longitude": 20.0274
}
},
{
"Name": "Ljutovo",
"PostCode": "24215",
"Location": {
"Latitude": 46.0136,
"Longitude": 19.493
}
},
{
"Name": "Loćika",
"PostCode": "35274",
"Location": {
"Latitude": 43.8583,
"Longitude": 21.1867
}
},
{
"Name": "Lok",
"PostCode": "21248",
"Location": {
"Latitude": 45.2158,
"Longitude": 20.2122
}
},
{
"Name": "Lokve",
"PostCode": "26361",
"Location": {
"Latitude": 45.152,
"Longitude": 21.0307
}
},
{
"Name": "Lovćenac",
"PostCode": "24322",
"Location": {
"Latitude": 45.6816,
"Longitude": 19.6921
}
},
{
"Name": "Loznica",
"PostCode": "15300",
"Location": {
"Latitude": 44.5312,
"Longitude": 19.2427
}
},
{
"Name": "Lozovik",
"PostCode": "11317",
"Location": {
"Latitude": 44.4673,
"Longitude": 21.1015
}
},
{
"Name": "Lubnica",
"PostCode": "19208",
"Location": {
"Latitude": 43.8673,
"Longitude": 22.1972
}
},
{
"Name": "Lučani",
"PostCode": "32240",
"Location": {
"Latitude": 43.8608,
"Longitude": 20.1381
}
},
{
"Name": "Lug",
"PostCode": "21315",
"Location": {
"Latitude": 45.1822,
"Longitude": 19.5452
}
},
{
"Name": "Lugavčina",
"PostCode": "11321",
"Location": {
"Latitude": 44.5231,
"Longitude": 21.0708
}
},
{
"Name": "Luka",
"PostCode": "19234",
"Location": {
"Latitude": 44.1703,
"Longitude": 22.1836
}
},
{
"Name": "Lukare",
"PostCode": "36306",
"Location": {
"Latitude": 43.0731,
"Longitude": 20.4628
}
},
{
"Name": "Lukićevo",
"PostCode": "23261",
"Location": {
"Latitude": 45.3382,
"Longitude": 20.4989
}
},
{
"Name": "Lukino Selo",
"PostCode": "23224",
"Location": {
"Latitude": 45.3024,
"Longitude": 20.4263
}
},
{
"Name": "Lukovo",
"PostCode": "19371",
"Location": {
"Latitude": 43.8029,
"Longitude": 21.8393
}
},
{
"Name": "Lukovska Banja",
"PostCode": "18437",
"Location": {
"Latitude": 43.1896,
"Longitude": 21.2124
}
},
{
"Name": "Lunovo Selo",
"PostCode": "31203",
"Location": {
"Latitude": 43.8826,
"Longitude": 19.9382
}
},
{
"Name": "Lužane",
"PostCode": "18228",
"Location": {
"Latitude": 43.4808,
"Longitude": 21.725
}
},
{
"Name": "Lužnice",
"PostCode": "34325",
"Location": {
"Latitude": 44.1072,
"Longitude": 20.8178
}
},
{
"Name": "Mačkat",
"PostCode": "31312",
"Location": {
"Latitude": 43.7918,
"Longitude": 19.782
}
},
{
"Name": "Mačvanska Mitrovica",
"PostCode": "22202",
"Location": {
"Latitude": 44.9674,
"Longitude": 19.5931
}
},
{
"Name": "Mačvanski Pričinović",
"PostCode": "15211",
"Location": {
"Latitude": 44.8497,
"Longitude": 19.6311
}
},
{
"Name": "Maglić",
"PostCode": "21473",
"Location": {
"Latitude": 45.3625,
"Longitude": 19.5321
}
},
{
"Name": "Majdan",
"PostCode": "23333",
"Location": {
"Latitude": 46.0945,
"Longitude": 20.2599
}
},
{
"Name": "Majdanpek",
"PostCode": "19250",
"Location": {
"Latitude": 44.4277,
"Longitude": 21.946
}
},
{
"Name": "Majilovac",
"PostCode": "12221",
"Location": {
"Latitude": 44.6917,
"Longitude": 21.362
}
},
{
"Name": "Majur",
"PostCode": "15353",
"Location": {
"Latitude": 44.773,
"Longitude": 19.648
}
},
{
"Name": "Majur",
"PostCode": "35270",
"Location": {
"Latitude": 43.9476,
"Longitude": 21.2923
}
},
{
"Name": "Mala Bosna",
"PostCode": "24217",
"Location": {
"Latitude": 46.0395,
"Longitude": 19.5725
}
},
{
"Name": "Mala Krsna",
"PostCode": "11313",
"Location": {
"Latitude": 44.5862,
"Longitude": 21.0074
}
},
{
"Name": "Mala Moštanica",
"PostCode": "11261",
"Location": {
"Latitude": 44.6383,
"Longitude": 20.306
}
},
{
"Name": "Mala Plana",
"PostCode": "18423",
"Location": {
"Latitude": 43.2535,
"Longitude": 21.4761
}
},
{
"Name": "Malča",
"PostCode": "18207",
"Location": {
"Latitude": 43.3343,
"Longitude": 22.0312
}
},
{
"Name": "Male Pčelice",
"PostCode": "34216",
"Location": {
"Latitude": 44.0034,
"Longitude": 20.8545
}
},
{
"Name": "Male Pijace",
"PostCode": "24416",
"Location": {
"Latitude": 46.0674,
"Longitude": 19.9217
}
},
{
"Name": "Mali Beograd",
"PostCode": "24309",
"Location": {
"Latitude": 45.8847,
"Longitude": 19.6353
}
},
{
"Name": "Mali Iđoš",
"PostCode": "24321",
"Location": {
"Latitude": 45.7083,
"Longitude": 19.6653
}
},
{
"Name": "Mali Izvor",
"PostCode": "19347",
"Location": {
"Latitude": 43.7274,
"Longitude": 22.3184
}
},
{
"Name": "Mali Jasenovac",
"PostCode": "19209",
"Location": {
"Latitude": 44.0351,
"Longitude": 22.4492
}
},
{
"Name": "Mali Požarevac",
"PostCode": "11235",
"Location": {
"Latitude": 44.5633,
"Longitude": 20.6543
}
},
{
"Name": "Mali Zvornik",
"PostCode": "15318",
"Location": {
"Latitude": 44.3734,
"Longitude": 19.1065
}
},
{
"Name": "Malo Crniće",
"PostCode": "12311",
"Location": {
"Latitude": 44.5561,
"Longitude": 21.2856
}
},
{
"Name": "Malo Krčmare",
"PostCode": "34212",
"Location": {
"Latitude": 44.155,
"Longitude": 20.9268
}
},
{
"Name": "Malošište",
"PostCode": "18415",
"Location": {
"Latitude": 43.2399,
"Longitude": 21.8676
}
},
{
"Name": "Manđelos",
"PostCode": "22208",
"Location": {
"Latitude": 45.0837,
"Longitude": 19.5976
}
},
{
"Name": "Manojlovce",
"PostCode": "16201",
"Location": {
"Latitude": 43.0143,
"Longitude": 22.0147
}
},
{
"Name": "Maradik",
"PostCode": "22327",
"Location": {
"Latitude": 45.1014,
"Longitude": 19.9928
}
},
{
"Name": "Margita",
"PostCode": "26364",
"Location": {
"Latitude": 45.216,
"Longitude": 21.1753
}
},
{
"Name": "Markovac",
"PostCode": "11325",
"Location": {
"Latitude": 44.2388,
"Longitude": 21.1071
}
},
{
"Name": "Markovica",
"PostCode": "32243",
"Location": {
"Latitude": 43.8541,
"Longitude": 20.2151
}
},
{
"Name": "Maršić",
"PostCode": "34209",
"Location": {
"Latitude": 44.0326,
"Longitude": 20.9777
}
},
{
"Name": "Martinci",
"PostCode": "22222",
"Location": {
"Latitude": 45.0112,
"Longitude": 19.4597
}
},
{
"Name": "Martonoš",
"PostCode": "24417",
"Location": {
"Latitude": 46.1146,
"Longitude": 20.0589
}
},
{
"Name": "Mataruška Banja",
"PostCode": "36201",
"Location": {
"Latitude": 43.6882,
"Longitude": 20.6101
}
},
{
"Name": "Međa",
"PostCode": "23234",
"Location": {
"Latitude": 45.5381,
"Longitude": 20.8068
}
},
{
"Name": "Medoševac",
"PostCode": "18209",
"Location": {
"Latitude": 43.326,
"Longitude": 21.8616
}
},
{
"Name": "Međulužje",
"PostCode": "11405",
"Location": {
"Latitude": 44.4092,
"Longitude": 20.6893
}
},
{
"Name": "Međurečje",
"PostCode": "32255",
"Location": {
"Latitude": 43.5336,
"Longitude": 20.2276
}
},
{
"Name": "Medveđa",
"PostCode": "16240",
"Location": {
"Latitude": 42.8431,
"Longitude": 21.5833
}
},
{
"Name": "Medveđa",
"PostCode": "35224",
"Location": {
"Latitude": 44.1509,
"Longitude": 21.343
}
},
{
"Name": "Medveđa",
"PostCode": "37244",
"Location": {
"Latitude": 43.6307,
"Longitude": 21.0757
}
},
{
"Name": "Melenci",
"PostCode": "23270",
"Location": {
"Latitude": 45.5168,
"Longitude": 20.3196
}
},
{
"Name": "Meljak",
"PostCode": "11426",
"Location": {
"Latitude": 44.6231,
"Longitude": 20.3692
}
},
{
"Name": "Melnica",
"PostCode": "12305",
"Location": {
"Latitude": 44.3921,
"Longitude": 21.5336
}
},
{
"Name": "Merćez",
"PostCode": "18436",
"Location": {
"Latitude": 43.2378,
"Longitude": 21.0662
}
},
{
"Name": "Merdare",
"PostCode": "18445",
"Location": {
"Latitude": 42.9291,
"Longitude": 21.263
}
},
{
"Name": "Merošina",
"PostCode": "18252",
"Location": {
"Latitude": 43.2836,
"Longitude": 21.7204
}
},
{
"Name": "Metlić",
"PostCode": "15233",
"Location": {
"Latitude": 44.5731,
"Longitude": 19.6299
}
},
{
"Name": "Metovnica",
"PostCode": "19204",
"Location": {
"Latitude": 43.9609,
"Longitude": 22.1379
}
},
{
"Name": "Mihajlovac",
"PostCode": "11312",
"Location": {
"Latitude": 44.5438,
"Longitude": 20.9732
}
},
{
"Name": "Mihajlovac",
"PostCode": "19322",
"Location": {
"Latitude": 44.3662,
"Longitude": 22.4982
}
},
{
"Name": "Mihajlovo",
"PostCode": "23202",
"Location": {
"Latitude": 45.4708,
"Longitude": 20.4151
}
},
{
"Name": "Mijatovac",
"PostCode": "35236",
"Location": {
"Latitude": 43.9527,
"Longitude": 21.3403
}
},
{
"Name": "Milentija",
"PostCode": "37227",
"Location": {
"Latitude": 43.4325,
"Longitude": 20.9822
}
},
{
"Name": "Mileševo",
"PostCode": "21227",
"Location": {
"Latitude": 45.7346,
"Longitude": 19.8213
}
},
{
"Name": "Miletićevo",
"PostCode": "26373",
"Location": {
"Latitude": 45.3051,
"Longitude": 21.064
}
},
{
"Name": "Miloševac",
"PostCode": "11318",
"Location": {
"Latitude": 44.4411,
"Longitude": 21.1108
}
},
{
"Name": "Miloševo",
"PostCode": "35268",
"Location": {
"Latitude": 44.1058,
"Longitude": 21.1509
}
},
{
"Name": "Milutovac",
"PostCode": "37246",
"Location": {
"Latitude": 43.6875,
"Longitude": 21.1291
}
},
{
"Name": "Minićevo",
"PostCode": "19340",
"Location": {
"Latitude": 43.6843,
"Longitude": 22.2933
}
},
{
"Name": "Mionica",
"PostCode": "14242",
"Location": {
"Latitude": 44.2519,
"Longitude": 20.0817
}
},
{
"Name": "Mirosaljci",
"PostCode": "11567",
"Location": {
"Latitude": 44.4374,
"Longitude": 20.4176
}
},
{
"Name": "Miroševce",
"PostCode": "16204",
"Location": {
"Latitude": 42.8655,
"Longitude": 21.8381
}
},
{
"Name": "Mišićevo",
"PostCode": "24211",
"Location": {
"Latitude": 45.9951,
"Longitude": 19.49
}
},
{
"Name": "Mitrovac",
"PostCode": "31251",
"Location": {
"Latitude": 43.9215,
"Longitude": 19.4237
}
},
{
"Name": "Mladenovac",
"PostCode": "11400",
"Location": {
"Latitude": 44.4386,
"Longitude": 20.6992
}
},
{
"Name": "Mladenovo",
"PostCode": "21422",
"Location": {
"Latitude": 45.3034,
"Longitude": 19.2617
}
},
{
"Name": "Mokra Gora",
"PostCode": "31243",
"Location": {
"Latitude": 43.7885,
"Longitude": 19.5003
}
},
{
"Name": "Mokranja",
"PostCode": "19317",
"Location": {
"Latitude": 44.1581,
"Longitude": 22.5442
}
},
{
"Name": "Mokrin",
"PostCode": "23305",
"Location": {
"Latitude": 45.9336,
"Longitude": 20.4122
}
},
{
"Name": "Mol",
"PostCode": "24435",
"Location": {
"Latitude": 45.7646,
"Longitude": 20.1329
}
},
{
"Name": "Molovin",
"PostCode": "22256",
"Location": {
"Latitude": 45.183,
"Longitude": 19.3121
}
},
{
"Name": "Morović",
"PostCode": "22245",
"Location": {
"Latitude": 45.0099,
"Longitude": 19.2151
}
},
{
"Name": "Mošorin",
"PostCode": "21245",
"Location": {
"Latitude": 45.302,
"Longitude": 20.1692
}
},
{
"Name": "Mozgovo",
"PostCode": "18229",
"Location": {
"Latitude": 43.6589,
"Longitude": 21.6611
}
},
{
"Name": "Mramor",
"PostCode": "18251",
"Location": {
"Latitude": 43.3155,
"Longitude": 21.7817
}
},
{
"Name": "Mramorak",
"PostCode": "26226",
"Location": {
"Latitude": 44.8802,
"Longitude": 20.9709
}
},
{
"Name": "Mrčajevci",
"PostCode": "32210",
"Location": {
"Latitude": 43.868,
"Longitude": 20.5269
}
},
{
"Name": "Mršinci",
"PostCode": "32224",
"Location": {
"Latitude": 43.8001,
"Longitude": 20.4835
}
},
{
"Name": "Muhovac",
"PostCode": "17529",
"Location": {
"Latitude": 42.5696,
"Longitude": 21.7542
}
},
{
"Name": "Mužlja",
"PostCode": "23206",
"Location": {
"Latitude": 45.3441,
"Longitude": 20.4091
}
},
{
"Name": "Nadalj",
"PostCode": "21216",
"Location": {
"Latitude": 45.5086,
"Longitude": 19.9236
}
},
{
"Name": "Nakovo",
"PostCode": "23311",
"Location": {
"Latitude": 45.875,
"Longitude": 20.5671
}
},
{
"Name": "Natalinci",
"PostCode": "34313",
"Location": {
"Latitude": 44.2529,
"Longitude": 20.8037
}
},
{
"Name": "Negotin",
"PostCode": "19300",
"Location": {
"Latitude": 44.2264,
"Longitude": 22.5308
}
},
{
"Name": "Negotin",
"PostCode": "19310",
"Location": {
"Latitude": 44.2264,
"Longitude": 22.5308
}
},
{
"Name": "Neresnica",
"PostCode": "12242",
"Location": {
"Latitude": 44.4425,
"Longitude": 21.7262
}
},
{
"Name": "Neštin",
"PostCode": "21314",
"Location": {
"Latitude": 45.2231,
"Longitude": 19.4542
}
},
{
"Name": "Neuzina",
"PostCode": "23245",
"Location": {
"Latitude": 45.3446,
"Longitude": 20.7142
}
},
{
"Name": "Nikinci",
"PostCode": "22422",
"Location": {
"Latitude": 44.8502,
"Longitude": 19.8232
}
},
{
"Name": "Nikoličevo",
"PostCode": "19311",
"Location": {
"Latitude": 43.9609,
"Longitude": 22.2376
}
},
{
"Name": "Nikolinci",
"PostCode": "26322",
"Location": {
"Latitude": 45.0525,
"Longitude": 21.067
}
},
{
"Name": "Niš",
"PostCode": "18000",
"Location": {
"Latitude": 43.3247,
"Longitude": 21.9033
}
},
{
"Name": "Niševac",
"PostCode": "18366",
"Location": {
"Latitude": 43.4586,
"Longitude": 22.0985
}
},
{
"Name": "Niška Banja",
"PostCode": "18205",
"Location": {
"Latitude": 43.2951,
"Longitude": 22.0057
}
},
{
"Name": "Njegoševo",
"PostCode": "24311",
"Location": {
"Latitude": 45.7623,
"Longitude": 19.7535
}
},
{
"Name": "Noćaj",
"PostCode": "22203",
"Location": {
"Latitude": 44.9268,
"Longitude": 19.5504
}
},
{
"Name": "Nova Crnja",
"PostCode": "23218",
"Location": {
"Latitude": 45.6683,
"Longitude": 20.605
}
},
{
"Name": "Nova Crvenka",
"PostCode": "25224",
"Location": {
"Latitude": 45.6956,
"Longitude": 19.4877
}
},
{
"Name": "Nova Gajdobra",
"PostCode": "21431",
"Location": {
"Latitude": 45.3309,
"Longitude": 19.4361
}
},
{
"Name": "Nova Pazova",
"PostCode": "22330",
"Location": {
"Latitude": 44.9437,
"Longitude": 20.2193
}
},
{
"Name": "Nova Varoš",
"PostCode": "31320",
"Location": {
"Latitude": 43.4606,
"Longitude": 19.8114
}
},
{
"Name": "Novi Banovci",
"PostCode": "22304",
"Location": {
"Latitude": 44.9569,
"Longitude": 20.2808
}
},
{
"Name": "Novi Bečej",
"PostCode": "23272",
"Location": {
"Latitude": 45.5986,
"Longitude": 20.1356
}
},
{
"Name": "Novi Bračin",
"PostCode": "37216",
"Location": {
"Latitude": 43.7531,
"Longitude": 21.5047
}
},
{
"Name": "Novi Itebej",
"PostCode": "23236",
"Location": {
"Latitude": 45.5592,
"Longitude": 20.7003
}
},
{
"Name": "Novi Karlovci",
"PostCode": "22322",
"Location": {
"Latitude": 45.0764,
"Longitude": 20.1795
}
},
{
"Name": "Novi Kneževac",
"PostCode": "23330",
"Location": {
"Latitude": 46.05,
"Longitude": 20.1
}
},
{
"Name": "Novi Kozarci",
"PostCode": "23313",
"Location": {
"Latitude": 45.7824,
"Longitude": 20.6229
}
},
{
"Name": "Novi Kozjak",
"PostCode": "26353",
"Location": {
"Latitude": 45.1826,
"Longitude": 20.8638
}
},
{
"Name": "Novi Pazar",
"PostCode": "36300",
"Location": {
"Latitude": 43.1367,
"Longitude": 20.5122
}
},
{
"Name": "Novi Sad",
"PostCode": "21102",
"Location": {
"Latitude": 45.2517,
"Longitude": 19.8369
}
},
{
"Name": "Novi Slankamen",
"PostCode": "22323",
"Location": {
"Latitude": 45.1255,
"Longitude": 20.2391
}
},
{
"Name": "Novi Žednik",
"PostCode": "24223",
"Location": {
"Latitude": 45.9412,
"Longitude": 19.6714
}
},
{
"Name": "Novo Lanište",
"PostCode": "35271",
"Location": {
"Latitude": 44.0317,
"Longitude": 21.2384
}
},
{
"Name": "Novo Miloševo",
"PostCode": "23273",
"Location": {
"Latitude": 45.7192,
"Longitude": 20.3036
}
},
{
"Name": "Novo Orahovo",
"PostCode": "24351",
"Location": {
"Latitude": 45.8482,
"Longitude": 19.774
}
},
{
"Name": "Novo Selo",
"PostCode": "18250",
"Location": {
"Latitude": 43.3179,
"Longitude": 21.8164
}
},
{
"Name": "Novo Selo",
"PostCode": "36216",
"Location": {
"Latitude": 43.6504,
"Longitude": 20.8734
}
},
{
"Name": "Obrenovac",
"PostCode": "11500",
"Location": {
"Latitude": 44.6549,
"Longitude": 20.2002
}
},
{
"Name": "Obrež",
"PostCode": "22417",
"Location": {
"Latitude": 44.7367,
"Longitude": 19.9741
}
},
{
"Name": "Obrež",
"PostCode": "37266",
"Location": {
"Latitude": 43.7684,
"Longitude": 21.3482
}
},
{
"Name": "Obrovac",
"PostCode": "21423",
"Location": {
"Latitude": 45.3211,
"Longitude": 19.3505
}
},
{
"Name": "Odžaci",
"PostCode": "25250",
"Location": {
"Latitude": 45.5067,
"Longitude": 19.2611
}
},
{
"Name": "Ogar",
"PostCode": "22416",
"Location": {
"Latitude": 44.7923,
"Longitude": 19.9477
}
},
{
"Name": "Omoljica",
"PostCode": "26230",
"Location": {
"Latitude": 44.7589,
"Longitude": 20.7341
}
},
{
"Name": "Oparić",
"PostCode": "35267",
"Location": {
"Latitude": 43.7512,
"Longitude": 21.1227
}
},
{
"Name": "Opovo",
"PostCode": "26204",
"Location": {
"Latitude": 45.0522,
"Longitude": 20.4303
}
},
{
"Name": "Orane",
"PostCode": "16233",
"Location": {
"Latitude": 42.9863,
"Longitude": 21.6278
}
},
{
"Name": "Orašac",
"PostCode": "34308",
"Location": {
"Latitude": 44.3306,
"Longitude": 20.5867
}
},
{
"Name": "Orešković",
"PostCode": "24344",
"Location": {
"Latitude": 45.8269,
"Longitude": 19.5594
}
},
{
"Name": "Oreškovica",
"PostCode": "12308",
"Location": {
"Latitude": 44.3171,
"Longitude": 21.3251
}
},
{
"Name": "Orid",
"PostCode": "15213",
"Location": {
"Latitude": 44.7103,
"Longitude": 19.7997
}
},
{
"Name": "Orlovat",
"PostCode": "23263",
"Location": {
"Latitude": 45.2417,
"Longitude": 20.5809
}
},
{
"Name": "Orom",
"PostCode": "24207",
"Location": {
"Latitude": 45.9771,
"Longitude": 19.8346
}
},
{
"Name": "Osanica",
"PostCode": "12317",
"Location": {
"Latitude": 44.2813,
"Longitude": 21.6677
}
},
{
"Name": "Osečina",
"PostCode": "14253",
"Location": {
"Latitude": 44.3731,
"Longitude": 19.6014
}
},
{
"Name": "Osipaonica",
"PostCode": "11314",
"Location": {
"Latitude": 44.5461,
"Longitude": 21.0548
}
},
{
"Name": "Osnić",
"PostCode": "19378",
"Location": {
"Latitude": 43.8868,
"Longitude": 22.0991
}
},
{
"Name": "Ostojićevo",
"PostCode": "23326",
"Location": {
"Latitude": 45.8886,
"Longitude": 20.1664
}
},
{
"Name": "Oštrelj",
"PostCode": "19226",
"Location": {
"Latitude": 44.0704,
"Longitude": 22.1593
}
},
{
"Name": "Ostrovica",
"PostCode": "18312",
"Location": {
"Latitude": 43.3148,
"Longitude": 22.1245
}
},
{
"Name": "Ostružnica",
"PostCode": "11251",
"Location": {
"Latitude": 44.7277,
"Longitude": 20.3185
}
},
{
"Name": "Ovča",
"PostCode": "11212",
"Location": {
"Latitude": 44.8835,
"Longitude": 20.5334
}
},
{
"Name": "Ovčar Banja",
"PostCode": "32242",
"Location": {
"Latitude": 43.8981,
"Longitude": 20.1858
}
},
{
"Name": "Pačir",
"PostCode": "24342",
"Location": {
"Latitude": 45.9002,
"Longitude": 19.4417
}
},
{
"Name": "Padej",
"PostCode": "23325",
"Location": {
"Latitude": 45.8276,
"Longitude": 20.1628
}
},
{
"Name": "Padež",
"PostCode": "37257",
"Location": {
"Latitude": 43.6632,
"Longitude": 21.2858
}
},
{
"Name": "Padina",
"PostCode": "26215",
"Location": {
"Latitude": 45.1199,
"Longitude": 20.7286
}
},
{
"Name": "Padinska Skela",
"PostCode": "11213",
"Location": {
"Latitude": 44.9429,
"Longitude": 20.4255
}
},
{
"Name": "Palić",
"PostCode": "24413",
"Location": {
"Latitude": 46.1065,
"Longitude": 19.7565
}
},
{
"Name": "Pambukovica",
"PostCode": "14213",
"Location": {
"Latitude": 44.4409,
"Longitude": 19.9231
}
},
{
"Name": "Pančevo",
"PostCode": "26101",
"Location": {
"Latitude": 44.8718,
"Longitude": 20.6417
}
},
{
"Name": "Panonija",
"PostCode": "24330",
"Location": {
"Latitude": 45.7799,
"Longitude": 19.5852
}
},
{
"Name": "Paraćin",
"PostCode": "35250",
"Location": {
"Latitude": 43.8608,
"Longitude": 21.4078
}
},
{
"Name": "Parage",
"PostCode": "21434",
"Location": {
"Latitude": 45.4147,
"Longitude": 19.4031
}
},
{
"Name": "Parunovac",
"PostCode": "37201",
"Location": {
"Latitude": 43.5702,
"Longitude": 21.3656
}
},
{
"Name": "Pavliš",
"PostCode": "26333",
"Location": {
"Latitude": 45.1057,
"Longitude": 21.2395
}
},
{
"Name": "Pečanjevce",
"PostCode": "16251",
"Location": {
"Latitude": 43.1351,
"Longitude": 21.9164
}
},
{
"Name": "Pećinci",
"PostCode": "22410",
"Location": {
"Latitude": 44.9089,
"Longitude": 19.9664
}
},
{
"Name": "Pecka",
"PostCode": "14207",
"Location": {
"Latitude": 44.2932,
"Longitude": 19.5407
}
},
{
"Name": "Pejkovac",
"PostCode": "18413",
"Location": {
"Latitude": 43.2261,
"Longitude": 21.7329
}
},
{
"Name": "Pepeljevac",
"PostCode": "37231",
"Location": {
"Latitude": 43.5644,
"Longitude": 21.2555
}
},
{
"Name": "Perlez",
"PostCode": "23260",
"Location": {
"Latitude": 45.2081,
"Longitude": 20.382
}
},
{
"Name": "Perućac",
"PostCode": "31256",
"Location": {
"Latitude": 43.9545,
"Longitude": 19.4353
}
},
{
"Name": "Petlovača",
"PostCode": "15304",
"Location": {
"Latitude": 44.7222,
"Longitude": 19.4467
}
},
{
"Name": "Petrovac na Mlavi",
"PostCode": "12300",
"Location": {
"Latitude": 44.3367,
"Longitude": 21.4466
}
},
{
"Name": "Petrovaradin",
"PostCode": "21131",
"Location": {
"Latitude": 45.2467,
"Longitude": 19.8794
}
},
{
"Name": "Pinosava",
"PostCode": "11226",
"Location": {
"Latitude": 44.6954,
"Longitude": 20.483
}
},
{
"Name": "Pirot",
"PostCode": "18300",
"Location": {
"Latitude": 43.1531,
"Longitude": 22.5861
}
},
{
"Name": "Pivnice",
"PostCode": "21469",
"Location": {
"Latitude": 45.4704,
"Longitude": 19.4554
}
},
{
"Name": "Plana",
"PostCode": "35247",
"Location": {
"Latitude": 43.8204,
"Longitude": 21.5474
}
},
{
"Name": "Plandište",
"PostCode": "26360",
"Location": {
"Latitude": 45.2272,
"Longitude": 21.1217
}
},
{
"Name": "Platičevo",
"PostCode": "22420",
"Location": {
"Latitude": 44.8221,
"Longitude": 19.7949
}
},
{
"Name": "Plavna",
"PostCode": "19307",
"Location": {
"Latitude": 44.2959,
"Longitude": 22.2598
}
},
{
"Name": "Plavna",
"PostCode": "21428",
"Location": {
"Latitude": 45.3491,
"Longitude": 19.1269
}
},
{
"Name": "Plažane",
"PostCode": "35212",
"Location": {
"Latitude": 44.1457,
"Longitude": 21.4112
}
},
{
"Name": "Pleš",
"PostCode": "37238",
"Location": {
"Latitude": 43.4844,
"Longitude": 20.9181
}
},
{
"Name": "Ploča",
"PostCode": "37237",
"Location": {
"Latitude": 43.4484,
"Longitude": 20.86
}
},
{
"Name": "Pločica",
"PostCode": "26229",
"Location": {
"Latitude": 44.7203,
"Longitude": 20.8842
}
},
{
"Name": "Pobeda",
"PostCode": "24313",
"Location": {
"Latitude": 45.7613,
"Longitude": 19.7906
}
},
{
"Name": "Počekovina",
"PostCode": "37243",
"Location": {
"Latitude": 43.5924,
"Longitude": 21.0835
}
},
{
"Name": "Poćuta",
"PostCode": "14206",
"Location": {
"Latitude": 44.2106,
"Longitude": 19.7327
}
},
{
"Name": "Podgorac",
"PostCode": "19233",
"Location": {
"Latitude": 43.9391,
"Longitude": 21.9491
}
},
{
"Name": "Podunavci",
"PostCode": "36215",
"Location": {
"Latitude": 43.6715,
"Longitude": 20.8301
}
},
{
"Name": "Podvis",
"PostCode": "19362",
"Location": {
"Latitude": 43.5473,
"Longitude": 22.1873
}
},
{
"Name": "Podvrška",
"PostCode": "19321",
"Location": {
"Latitude": 44.5852,
"Longitude": 22.4994
}
},
{
"Name": "Poganovo",
"PostCode": "18326",
"Location": {
"Latitude": 42.9697,
"Longitude": 22.6668
}
},
{
"Name": "Pojate",
"PostCode": "37214",
"Location": {
"Latitude": 43.7421,
"Longitude": 21.4555
}
},
{
"Name": "Poljana",
"PostCode": "12372",
"Location": {
"Latitude": 44.5322,
"Longitude": 21.2026
}
},
{
"Name": "Popinci",
"PostCode": "22428",
"Location": {
"Latitude": 44.9283,
"Longitude": 20.007
}
},
{
"Name": "Popovac",
"PostCode": "18260",
"Location": {
"Latitude": 43.3337,
"Longitude": 21.8297
}
},
{
"Name": "Popovac",
"PostCode": "35254",
"Location": {
"Latitude": 43.9095,
"Longitude": 21.5035
}
},
{
"Name": "Popučke",
"PostCode": "14221",
"Location": {
"Latitude": 44.2928,
"Longitude": 19.9542
}
},
{
"Name": "Porodin",
"PostCode": "12375",
"Location": {
"Latitude": 44.3171,
"Longitude": 21.221
}
},
{
"Name": "Potočac",
"PostCode": "35207",
"Location": {
"Latitude": 43.8148,
"Longitude": 21.3153
}
},
{
"Name": "Požarevac",
"PostCode": "12000",
"Location": {
"Latitude": 44.6213,
"Longitude": 21.1878
}
},
{
"Name": "Požega",
"PostCode": "31210",
"Location": {
"Latitude": 43.8489,
"Longitude": 20.0363
}
},
{
"Name": "Prahovo",
"PostCode": "19330",
"Location": {
"Latitude": 44.2936,
"Longitude": 22.5831
}
},
{
"Name": "Pranjani",
"PostCode": "32308",
"Location": {
"Latitude": 43.9944,
"Longitude": 20.1828
}
},
{
"Name": "Predejane",
"PostCode": "16222",
"Location": {
"Latitude": 42.8328,
"Longitude": 22.1291
}
},
{
"Name": "Prekonoga",
"PostCode": "18365",
"Location": {
"Latitude": 43.3955,
"Longitude": 22.103
}
},
{
"Name": "Preljina",
"PostCode": "32212",
"Location": {
"Latitude": 43.9135,
"Longitude": 20.4291
}
},
{
"Name": "Preševo",
"PostCode": "17523",
"Location": {
"Latitude": 42.3092,
"Longitude": 21.6492
}
},
{
"Name": "Prevešt",
"PostCode": "35264",
"Location": {
"Latitude": 43.7573,
"Longitude": 21.0426
}
},
{
"Name": "Prhovo",
"PostCode": "22442",
"Location": {
"Latitude": 44.8825,
"Longitude": 20.0083
}
},
{
"Name": "Priboj",
"PostCode": "31330",
"Location": {
"Latitude": 42.992,
"Longitude": 21.3208
}
},
{
"Name": "Priboj Vranjski",
"PostCode": "17511",
"Location": {
"Latitude": 42.6057,
"Longitude": 22.0121
}
},
{
"Name": "Pričević",
"PostCode": "14251",
"Location": {
"Latitude": 44.2797,
"Longitude": 19.7689
}
},
{
"Name": "Prigrevica",
"PostCode": "25263",
"Location": {
"Latitude": 45.6764,
"Longitude": 19.0881
}
},
{
"Name": "Prijepolje",
"PostCode": "31300",
"Location": {
"Latitude": 43.39,
"Longitude": 19.6487
}
},
{
"Name": "Prilički Kiseljak",
"PostCode": "32252",
"Location": {
"Latitude": 43.5195,
"Longitude": 20.2792
}
},
{
"Name": "Privina Glava",
"PostCode": "22257",
"Location": {
"Latitude": 45.1419,
"Longitude": 19.2958
}
},
{
"Name": "Prnjavor",
"PostCode": "15306",
"Location": {
"Latitude": 44.7006,
"Longitude": 19.3869
}
},
{
"Name": "Progar",
"PostCode": "11280",
"Location": {
"Latitude": 44.7174,
"Longitude": 20.1605
}
},
{
"Name": "Prokuplje",
"PostCode": "18400",
"Location": {
"Latitude": 43.2342,
"Longitude": 21.5881
}
},
{
"Name": "Prolom Banja",
"PostCode": "18433",
"Location": {
"Latitude": 43.1896,
"Longitude": 21.2124
}
},
{
"Name": "Provo",
"PostCode": "15215",
"Location": {
"Latitude": 44.6696,
"Longitude": 19.9104
}
},
{
"Name": "Pružatovac",
"PostCode": "11413",
"Location": {
"Latitude": 44.4179,
"Longitude": 20.6279
}
},
{
"Name": "Pukovac",
"PostCode": "18255",
"Location": {
"Latitude": 43.1644,
"Longitude": 21.8525
}
},
{
"Name": "Putinci",
"PostCode": "22404",
"Location": {
"Latitude": 44.9926,
"Longitude": 19.971
}
},
{
"Name": "Rabrovo",
"PostCode": "12254",
"Location": {
"Latitude": 44.5764,
"Longitude": 21.5138
}
},
{
"Name": "Rača",
"PostCode": "18440",
"Location": {
"Latitude": 43.008,
"Longitude": 21.3211
}
},
{
"Name": "Rača Kragujevačka",
"PostCode": "34210",
"Location": {
"Latitude": 44.0178,
"Longitude": 21.0629
}
},
{
"Name": "Radalj",
"PostCode": "15321",
"Location": {
"Latitude": 44.3964,
"Longitude": 19.1773
}
},
{
"Name": "Radičević",
"PostCode": "21225",
"Location": {
"Latitude": 45.5819,
"Longitude": 19.9167
}
},
{
"Name": "Radinac",
"PostCode": "11311",
"Location": {
"Latitude": 44.6273,
"Longitude": 20.968
}
},
{
"Name": "Radljevo",
"PostCode": "14211",
"Location": {
"Latitude": 44.4624,
"Longitude": 20.1906
}
},
{
"Name": "Radojevo",
"PostCode": "23221",
"Location": {
"Latitude": 45.7462,
"Longitude": 20.7892
}
},
{
"Name": "Radovnica",
"PostCode": "17561",
"Location": {
"Latitude": 42.4336,
"Longitude": 22.2286
}
},
{
"Name": "Radujevac",
"PostCode": "19334",
"Location": {
"Latitude": 44.2668,
"Longitude": 22.6679
}
},
{
"Name": "Rainovača",
"PostCode": "15342",
"Location": {
"Latitude": 44.5806,
"Longitude": 19.2657
}
},
{
"Name": "Rajac",
"PostCode": "19314",
"Location": {
"Latitude": 44.0941,
"Longitude": 22.5571
}
},
{
"Name": "Rajković",
"PostCode": "14202",
"Location": {
"Latitude": 44.2248,
"Longitude": 20.0131
}
},
{
"Name": "Rakovac",
"PostCode": "21299",
"Location": {
"Latitude": 45.2078,
"Longitude": 19.7679
}
},
{
"Name": "Ralja",
"PostCode": "11233",
"Location": {
"Latitude": 44.5722,
"Longitude": 20.5622
}
},
{
"Name": "Ranilović",
"PostCode": "34302",
"Location": {
"Latitude": 44.3981,
"Longitude": 20.5168
}
},
{
"Name": "Ranovac",
"PostCode": "12304",
"Location": {
"Latitude": 44.4441,
"Longitude": 21.4762
}
},
{
"Name": "Rašanac",
"PostCode": "12315",
"Location": {
"Latitude": 44.4609,
"Longitude": 21.3623
}
},
{
"Name": "Raševica",
"PostCode": "35206",
"Location": {
"Latitude": 43.8392,
"Longitude": 21.3247
}
},
{
"Name": "Raška",
"PostCode": "36350",
"Location": {
"Latitude": 43.2872,
"Longitude": 20.6153
}
},
{
"Name": "Rastina",
"PostCode": "25283",
"Location": {
"Latitude": 45.9601,
"Longitude": 19.0354
}
},
{
"Name": "Rataje",
"PostCode": "37236",
"Location": {
"Latitude": 43.4778,
"Longitude": 21.1425
}
},
{
"Name": "Ratari",
"PostCode": "11411",
"Location": {
"Latitude": 44.3537,
"Longitude": 20.8298
}
},
{
"Name": "Ratina",
"PostCode": "36212",
"Location": {
"Latitude": 43.7014,
"Longitude": 20.7516
}
},
{
"Name": "Ratkovo",
"PostCode": "25253",
"Location": {
"Latitude": 45.4557,
"Longitude": 19.3373
}
},
{
"Name": "Ravna Dubrava",
"PostCode": "18246",
"Location": {
"Latitude": 43.0748,
"Longitude": 22.1871
}
},
{
"Name": "Ravni",
"PostCode": "31206",
"Location": {
"Latitude": 43.7397,
"Longitude": 19.898
}
},
{
"Name": "Ravni Topolovac",
"PostCode": "23212",
"Location": {
"Latitude": 45.4608,
"Longitude": 20.5694
}
},
{
"Name": "Ravnje",
"PostCode": "22205",
"Location": {
"Latitude": 44.9433,
"Longitude": 19.4228
}
},
{
"Name": "Ravno Selo",
"PostCode": "21471",
"Location": {
"Latitude": 45.4497,
"Longitude": 19.621
}
},
{
"Name": "Ražana",
"PostCode": "31265",
"Location": {
"Latitude": 44.0684,
"Longitude": 19.9186
}
},
{
"Name": "Ražanj",
"PostCode": "37215",
"Location": {
"Latitude": 43.6722,
"Longitude": 21.5494
}
},
{
"Name": "Razbojna",
"PostCode": "37223",
"Location": {
"Latitude": 43.3471,
"Longitude": 21.1659
}
},
{
"Name": "Razgojna",
"PostCode": "16252",
"Location": {
"Latitude": 43.1171,
"Longitude": 21.955
}
},
{
"Name": "Rekovac",
"PostCode": "35260",
"Location": {
"Latitude": 43.863,
"Longitude": 21.0934
}
},
{
"Name": "Resavica",
"PostCode": "35237",
"Location": {
"Latitude": 44.0695,
"Longitude": 21.5174
}
},
{
"Name": "Resnik",
"PostCode": "34225",
"Location": {
"Latitude": 44.1076,
"Longitude": 20.9254
}
},
{
"Name": "Rgotina",
"PostCode": "19214",
"Location": {
"Latitude": 44.0116,
"Longitude": 22.2739
}
},
{
"Name": "Ribare",
"PostCode": "35220",
"Location": {
"Latitude": 44.0101,
"Longitude": 21.2851
}
},
{
"Name": "Ribare",
"PostCode": "37259",
"Location": {
"Latitude": 43.4545,
"Longitude": 21.5327
}
},
{
"Name": "Ribari",
"PostCode": "15310",
"Location": {
"Latitude": 44.7096,
"Longitude": 19.4247
}
},
{
"Name": "Ribariće",
"PostCode": "36309",
"Location": {
"Latitude": 42.9707,
"Longitude": 20.4697
}
},
{
"Name": "Ribarska Banja",
"PostCode": "37205",
"Location": {
"Latitude": 43.5291,
"Longitude": 21.3944
}
},
{
"Name": "Riđica",
"PostCode": "25280",
"Location": {
"Latitude": 45.9909,
"Longitude": 19.1064
}
},
{
"Name": "Ripanj",
"PostCode": "11232",
"Location": {
"Latitude": 44.6386,
"Longitude": 20.5214
}
},
{
"Name": "Ristovac",
"PostCode": "17521",
"Location": {
"Latitude": 42.4666,
"Longitude": 21.8412
}
},
{
"Name": "Ritiševo",
"PostCode": "26331",
"Location": {
"Latitude": 45.0645,
"Longitude": 21.2281
}
},
{
"Name": "Roćevići",
"PostCode": "36205",
"Location": {
"Latitude": 43.7133,
"Longitude": 20.5125
}
},
{
"Name": "Rogača (Sopot)",
"PostCode": "11453",
"Location": {
"Latitude": 44.492,
"Longitude": 20.5135
}
},
{
"Name": "Rogačica",
"PostCode": "31255",
"Location": {
"Latitude": 44.0372,
"Longitude": 19.6324
}
},
{
"Name": "Roge",
"PostCode": "31237",
"Location": {
"Latitude": 43.7691,
"Longitude": 19.9986
}
},
{
"Name": "Rogljevo",
"PostCode": "19318",
"Location": {
"Latitude": 44.1246,
"Longitude": 22.564
}
},
{
"Name": "Rožanstvo",
"PostCode": "31208",
"Location": {
"Latitude": 43.7153,
"Longitude": 19.8384
}
},
{
"Name": "Rudna Glava",
"PostCode": "19257",
"Location": {
"Latitude": 44.3406,
"Longitude": 22.0642
}
},
{
"Name": "Rudnica",
"PostCode": "36353",
"Location": {
"Latitude": 43.2368,
"Longitude": 20.6844
}
},
{
"Name": "Rudnik",
"PostCode": "32313",
"Location": {
"Latitude": 44.1398,
"Longitude": 20.494
}
},
{
"Name": "Rudno",
"PostCode": "36222",
"Location": {
"Latitude": 43.4147,
"Longitude": 20.4818
}
},
{
"Name": "Rudovci",
"PostCode": "11566",
"Location": {
"Latitude": 44.3736,
"Longitude": 20.4123
}
},
{
"Name": "Ruma",
"PostCode": "22400",
"Location": {
"Latitude": 45.0081,
"Longitude": 19.8222
}
},
{
"Name": "Rumenka",
"PostCode": "21201",
"Location": {
"Latitude": 45.294,
"Longitude": 19.7431
}
},
{
"Name": "Ruplje",
"PostCode": "16223",
"Location": {
"Latitude": 42.8395,
"Longitude": 22.2255
}
},
{
"Name": "Rušanj",
"PostCode": "11194",
"Location": {
"Latitude": 44.6848,
"Longitude": 20.4499
}
},
{
"Name": "Ruski Krstur",
"PostCode": "25233",
"Location": {
"Latitude": 45.5639,
"Longitude": 19.42
}
},
{
"Name": "Rusko Selo",
"PostCode": "23314",
"Location": {
"Latitude": 45.7629,
"Longitude": 20.5712
}
},
{
"Name": "Rutevac",
"PostCode": "18224",
"Location": {
"Latitude": 43.5908,
"Longitude": 21.6111
}
},
{
"Name": "Šabac",
"PostCode": "15000",
"Location": {
"Latitude": 44.7467,
"Longitude": 19.69
}
},
{
"Name": "Sajan",
"PostCode": "23324",
"Location": {
"Latitude": 45.8423,
"Longitude": 20.2782
}
},
{
"Name": "Šajkaš",
"PostCode": "21244",
"Location": {
"Latitude": 45.2732,
"Longitude": 20.0905
}
},
{
"Name": "Sakule",
"PostCode": "26206",
"Location": {
"Latitude": 45.1467,
"Longitude": 20.4862
}
},
{
"Name": "Salaš",
"PostCode": "19224",
"Location": {
"Latitude": 44.1122,
"Longitude": 22.318
}
},
{
"Name": "Salaš Noćajski",
"PostCode": "22204",
"Location": {
"Latitude": 44.9472,
"Longitude": 19.5861
}
},
{
"Name": "Samaila",
"PostCode": "36202",
"Location": {
"Latitude": 43.7623,
"Longitude": 20.5468
}
},
{
"Name": "Samoš",
"PostCode": "26350",
"Location": {
"Latitude": 45.2026,
"Longitude": 20.7739
}
},
{
"Name": "Sanad",
"PostCode": "23331",
"Location": {
"Latitude": 45.976,
"Longitude": 20.1082
}
},
{
"Name": "Saraorci",
"PostCode": "11315",
"Location": {
"Latitude": 44.4905,
"Longitude": 21.0816
}
},
{
"Name": "Šarbanovac",
"PostCode": "18235",
"Location": {
"Latitude": 43.7052,
"Longitude": 21.882
}
},
{
"Name": "Šarbanovac",
"PostCode": "19373",
"Location": {
"Latitude": 43.9613,
"Longitude": 22.0752
}
},
{
"Name": "Šašinci",
"PostCode": "22425",
"Location": {
"Latitude": 44.9651,
"Longitude": 19.7415
}
},
{
"Name": "Sastav Reka",
"PostCode": "16213",
"Location": {
"Latitude": 42.9181,
"Longitude": 22.2328
}
},
{
"Name": "Sastavci",
"PostCode": "31335",
"Location": {
"Latitude": 42.992,
"Longitude": 21.3208
}
},
{
"Name": "Savinac",
"PostCode": "19377",
"Location": {
"Latitude": 43.9056,
"Longitude": 22.0423
}
},
{
"Name": "Savino Selo",
"PostCode": "21467",
"Location": {
"Latitude": 45.5066,
"Longitude": 19.5223
}
},
{
"Name": "Seča Reka",
"PostCode": "31262",
"Location": {
"Latitude": 44.0104,
"Longitude": 19.8361
}
},
{
"Name": "Sečanica",
"PostCode": "18203",
"Location": {
"Latitude": 43.3737,
"Longitude": 21.75
}
},
{
"Name": "Sečanj",
"PostCode": "23240",
"Location": {
"Latitude": 45.3667,
"Longitude": 20.7722
}
},
{
"Name": "Sedlare",
"PostCode": "35211",
"Location": {
"Latitude": 44.1987,
"Longitude": 21.294
}
},
{
"Name": "Sefkerin",
"PostCode": "26203",
"Location": {
"Latitude": 45.005,
"Longitude": 20.4826
}
},
{
"Name": "Selenča",
"PostCode": "21425",
"Location": {
"Latitude": 45.4096,
"Longitude": 19.3002
}
},
{
"Name": "Seleuš",
"PostCode": "26351",
"Location": {
"Latitude": 45.1277,
"Longitude": 20.9146
}
},
{
"Name": "Selevac",
"PostCode": "11407",
"Location": {
"Latitude": 44.4953,
"Longitude": 20.873
}
},
{
"Name": "Senje",
"PostCode": "35233",
"Location": {
"Latitude": 43.9651,
"Longitude": 21.4836
}
},
{
"Name": "Senjski Rudnik",
"PostCode": "35234",
"Location": {
"Latitude": 43.9958,
"Longitude": 21.5697
}
},
{
"Name": "Senta",
"PostCode": "24400",
"Location": {
"Latitude": 45.9275,
"Longitude": 20.0772
}
},
{
"Name": "Šepšin",
"PostCode": "11433",
"Location": {
"Latitude": 44.5414,
"Longitude": 20.7045
}
},
{
"Name": "Šetonje",
"PostCode": "12309",
"Location": {
"Latitude": 44.2723,
"Longitude": 21.4744
}
},
{
"Name": "Sevojno",
"PostCode": "31205",
"Location": {
"Latitude": 43.8496,
"Longitude": 19.9108
}
},
{
"Name": "Sibač",
"PostCode": "22440",
"Location": {
"Latitude": 44.906,
"Longitude": 19.9334
}
},
{
"Name": "Sibnica",
"PostCode": "11454",
"Location": {
"Latitude": 44.4644,
"Longitude": 20.4533
}
},
{
"Name": "Sićevo",
"PostCode": "18311",
"Location": {
"Latitude": 43.3409,
"Longitude": 22.0841
}
},
{
"Name": "Šid",
"PostCode": "22239",
"Location": {
"Latitude": 45.1283,
"Longitude": 19.2264
}
},
{
"Name": "Sijarinska Banja",
"PostCode": "16246",
"Location": {
"Latitude": 42.7777,
"Longitude": 21.6037
}
},
{
"Name": "Sikirica",
"PostCode": "35256",
"Location": {
"Latitude": 43.7789,
"Longitude": 21.4189
}
},
{
"Name": "Sikole",
"PostCode": "19225",
"Location": {
"Latitude": 44.1772,
"Longitude": 22.3034
}
},
{
"Name": "Silbaš",
"PostCode": "21433",
"Location": {
"Latitude": 45.3938,
"Longitude": 19.4611
}
},
{
"Name": "Šilopaj",
"PostCode": "32311",
"Location": {
"Latitude": 44.1121,
"Longitude": 20.4116
}
},
{
"Name": "Šimanovci",
"PostCode": "22310",
"Location": {
"Latitude": 44.8739,
"Longitude": 20.0918
}
},
{
"Name": "Simićevo",
"PostCode": "12373",
"Location": {
"Latitude": 44.3933,
"Longitude": 21.2107
}
},
{
"Name": "Siokovac",
"PostCode": "35203",
"Location": {
"Latitude": 43.9771,
"Longitude": 21.1803
}
},
{
"Name": "Sip",
"PostCode": "19326",
"Location": {
"Latitude": 44.5321,
"Longitude": 22.5271
}
},
{
"Name": "Sipić",
"PostCode": "34213",
"Location": {
"Latitude": 44.1677,
"Longitude": 20.9606
}
},
{
"Name": "Sirča",
"PostCode": "36208",
"Location": {
"Latitude": 43.7464,
"Longitude": 20.721
}
},
{
"Name": "Sirig",
"PostCode": "21214",
"Location": {
"Latitude": 45.4403,
"Longitude": 19.8104
}
},
{
"Name": "Sirogojno",
"PostCode": "31207",
"Location": {
"Latitude": 43.689,
"Longitude": 19.8875
}
},
{
"Name": "Sivac",
"PostCode": "25223",
"Location": {
"Latitude": 45.7045,
"Longitude": 19.3827
}
},
{
"Name": "Sjenica",
"PostCode": "36310",
"Location": {
"Latitude": 43.2731,
"Longitude": 19.9994
}
},
{
"Name": "Skela",
"PostCode": "11509",
"Location": {
"Latitude": 44.682,
"Longitude": 20.0576
}
},
{
"Name": "Skobalj",
"PostCode": "11322",
"Location": {
"Latitude": 44.5646,
"Longitude": 21.0331
}
},
{
"Name": "Skorenovac",
"PostCode": "26228",
"Location": {
"Latitude": 44.765,
"Longitude": 20.9041
}
},
{
"Name": "Skorica",
"PostCode": "37218",
"Location": {
"Latitude": 43.7891,
"Longitude": 21.5647
}
},
{
"Name": "Slanci",
"PostCode": "11215",
"Location": {
"Latitude": 44.8077,
"Longitude": 20.5718
}
},
{
"Name": "Slatina",
"PostCode": "19221",
"Location": {
"Latitude": 44.0415,
"Longitude": 22.1597
}
},
{
"Name": "Slavkovica",
"PostCode": "14245",
"Location": {
"Latitude": 44.1707,
"Longitude": 20.2457
}
},
{
"Name": "Šljivovica",
"PostCode": "31244",
"Location": {
"Latitude": 43.7947,
"Longitude": 19.6573
}
},
{
"Name": "Šljivovo",
"PostCode": "37239",
"Location": {
"Latitude": 43.4084,
"Longitude": 21.072
}
},
{
"Name": "Slovac",
"PostCode": "14223",
"Location": {
"Latitude": 44.3412,
"Longitude": 20.0719
}
},
{
"Name": "Smederevo",
"PostCode": "11300",
"Location": {
"Latitude": 44.6644,
"Longitude": 20.9276
}
},
{
"Name": "Smederevska Palanka",
"PostCode": "11420",
"Location": {
"Latitude": 44.3655,
"Longitude": 20.9588
}
},
{
"Name": "Smilovci",
"PostCode": "18323",
"Location": {
"Latitude": 43.0853,
"Longitude": 22.8512
}
},
{
"Name": "Smoljinac",
"PostCode": "12312",
"Location": {
"Latitude": 44.6062,
"Longitude": 21.3461
}
},
{
"Name": "Soko Banja",
"PostCode": "18230",
"Location": {
"Latitude": 43.6433,
"Longitude": 21.8711
}
},
{
"Name": "Sombor",
"PostCode": "25101",
"Location": {
"Latitude": 45.7742,
"Longitude": 19.1122
}
},
{
"Name": "Sonta",
"PostCode": "25264",
"Location": {
"Latitude": 45.5943,
"Longitude": 19.0972
}
},
{
"Name": "Sopoćani",
"PostCode": "36308",
"Location": {
"Latitude": 43.0977,
"Longitude": 20.4453
}
},
{
"Name": "Sopot",
"PostCode": "11450",
"Location": {
"Latitude": 44.5197,
"Longitude": 20.5736
}
},
{
"Name": "Sot",
"PostCode": "22243",
"Location": {
"Latitude": 45.1608,
"Longitude": 19.3178
}
},
{
"Name": "Srbobran",
"PostCode": "21480",
"Location": {
"Latitude": 45.5539,
"Longitude": 19.8028
}
},
{
"Name": "Srednjevo",
"PostCode": "12253",
"Location": {
"Latitude": 44.6449,
"Longitude": 21.4893
}
},
{
"Name": "Sremčica",
"PostCode": "11253",
"Location": {
"Latitude": 44.6765,
"Longitude": 20.3923
}
},
{
"Name": "Sremska Kamenica",
"PostCode": "21208",
"Location": {
"Latitude": 45.2233,
"Longitude": 19.8426
}
},
{
"Name": "Sremska Mitrovica",
"PostCode": "22000",
"Location": {
"Latitude": 44.9764,
"Longitude": 19.6122
}
},
{
"Name": "Sremska Rača",
"PostCode": "22247",
"Location": {
"Latitude": 44.9208,
"Longitude": 19.2858
}
},
{
"Name": "Sremski Karlovci",
"PostCode": "21205",
"Location": {
"Latitude": 45.2028,
"Longitude": 19.9337
}
},
{
"Name": "Sremski Mihaljevci",
"PostCode": "22413",
"Location": {
"Latitude": 44.8587,
"Longitude": 20.0408
}
},
{
"Name": "Srpska Crnja",
"PostCode": "23220",
"Location": {
"Latitude": 45.7254,
"Longitude": 20.6901
}
},
{
"Name": "Srpski Itebej",
"PostCode": "23233",
"Location": {
"Latitude": 45.5672,
"Longitude": 20.7135
}
},
{
"Name": "Srpski Krstur",
"PostCode": "23334",
"Location": {
"Latitude": 46.1284,
"Longitude": 20.0927
}
},
{
"Name": "Srpski Miletić",
"PostCode": "25244",
"Location": {
"Latitude": 45.5594,
"Longitude": 19.2038
}
},
{
"Name": "Stajićevo",
"PostCode": "23204",
"Location": {
"Latitude": 45.2949,
"Longitude": 20.4584
}
},
{
"Name": "Stalać",
"PostCode": "37212",
"Location": {
"Latitude": 43.6774,
"Longitude": 21.4133
}
},
{
"Name": "Stanišić",
"PostCode": "25284",
"Location": {
"Latitude": 45.939,
"Longitude": 19.1671
}
},
{
"Name": "Stapar",
"PostCode": "25240",
"Location": {
"Latitude": 45.6643,
"Longitude": 19.2006
}
},
{
"Name": "Stara Moravica",
"PostCode": "24340",
"Location": {
"Latitude": 45.8695,
"Longitude": 19.4672
}
},
{
"Name": "Stara Pazova",
"PostCode": "22300",
"Location": {
"Latitude": 44.985,
"Longitude": 20.1608
}
},
{
"Name": "Starčevo",
"PostCode": "26232",
"Location": {
"Latitude": 44.8073,
"Longitude": 20.7055
}
},
{
"Name": "Stari Banovci",
"PostCode": "22305",
"Location": {
"Latitude": 44.9842,
"Longitude": 20.2838
}
},
{
"Name": "Stari Lec",
"PostCode": "26371",
"Location": {
"Latitude": 45.284,
"Longitude": 20.9643
}
},
{
"Name": "Stari Slankamen",
"PostCode": "22329",
"Location": {
"Latitude": 45.1425,
"Longitude": 20.2577
}
},
{
"Name": "Stari Žednik",
"PostCode": "24224",
"Location": {
"Latitude": 45.9486,
"Longitude": 19.6303
}
},
{
"Name": "Staro Selo",
"PostCode": "11324",
"Location": {
"Latitude": 44.2943,
"Longitude": 21.0887
}
},
{
"Name": "Štavalj",
"PostCode": "36311",
"Location": {
"Latitude": 43.274,
"Longitude": 20.1171
}
},
{
"Name": "Stave",
"PostCode": "14255",
"Location": {
"Latitude": 44.2588,
"Longitude": 19.6916
}
},
{
"Name": "Stejanovci",
"PostCode": "22405",
"Location": {
"Latitude": 45.0564,
"Longitude": 19.7241
}
},
{
"Name": "Stenjevac",
"PostCode": "35215",
"Location": {
"Latitude": 44.0864,
"Longitude": 21.5363
}
},
{
"Name": "Stepanovićevo",
"PostCode": "21212",
"Location": {
"Latitude": 45.4137,
"Longitude": 19.7
}
},
{
"Name": "Stepojevac",
"PostCode": "11564",
"Location": {
"Latitude": 44.5128,
"Longitude": 20.295
}
},
{
"Name": "Štitar",
"PostCode": "15354",
"Location": {
"Latitude": 44.7941,
"Longitude": 19.5953
}
},
{
"Name": "Štitare",
"PostCode": "36314",
"Location": {
"Latitude": 43.2263,
"Longitude": 20.3337
}
},
{
"Name": "Stojnik",
"PostCode": "34307",
"Location": {
"Latitude": 44.3762,
"Longitude": 20.6267
}
},
{
"Name": "Stopanja",
"PostCode": "37242",
"Location": {
"Latitude": 43.5802,
"Longitude": 21.1502
}
},
{
"Name": "Stragari",
"PostCode": "34323",
"Location": {
"Latitude": 44.1534,
"Longitude": 20.6613
}
},
{
"Name": "Straža",
"PostCode": "26345",
"Location": {
"Latitude": 44.9751,
"Longitude": 21.3019
}
},
{
"Name": "Strelac",
"PostCode": "18332",
"Location": {
"Latitude": 42.9842,
"Longitude": 22.4618
}
},
{
"Name": "Strižilo",
"PostCode": "35269",
"Location": {
"Latitude": 44.067,
"Longitude": 21.1085
}
},
{
"Name": "Stubal",
"PostCode": "17512",
"Location": {
"Latitude": 42.633,
"Longitude": 22.0334
}
},
{
"Name": "Štubik",
"PostCode": "19303",
"Location": {
"Latitude": 44.2922,
"Longitude": 22.3523
}
},
{
"Name": "Stubline",
"PostCode": "11507",
"Location": {
"Latitude": 44.5748,
"Longitude": 20.1348
}
},
{
"Name": "Studenica",
"PostCode": "36343",
"Location": {
"Latitude": 43.5159,
"Longitude": 20.6346
}
},
{
"Name": "Subotica",
"PostCode": "24000",
"Location": {
"Latitude": 46.1,
"Longitude": 19.6667
}
},
{
"Name": "Subotica (Kod Svilajnca)",
"PostCode": "35209",
"Location": {
"Latitude": 43.9586,
"Longitude": 21.243
}
},
{
"Name": "Subotinac",
"PostCode": "18227",
"Location": {
"Latitude": 43.6022,
"Longitude": 21.6935
}
},
{
"Name": "Subotište",
"PostCode": "22414",
"Location": {
"Latitude": 44.8451,
"Longitude": 19.9598
}
},
{
"Name": "Sukovo",
"PostCode": "18322",
"Location": {
"Latitude": 43.0499,
"Longitude": 22.647
}
},
{
"Name": "Sumrakovac",
"PostCode": "19376",
"Location": {
"Latitude": 43.9399,
"Longitude": 22.0305
}
},
{
"Name": "Šupljak",
"PostCode": "24418",
"Location": {
"Latitude": 46.1128,
"Longitude": 19.8129
}
},
{
"Name": "Supska",
"PostCode": "35228",
"Location": {
"Latitude": 43.9748,
"Longitude": 21.3678
}
},
{
"Name": "Surčin",
"PostCode": "11271",
"Location": {
"Latitude": 44.7931,
"Longitude": 20.2803
}
},
{
"Name": "Surduk",
"PostCode": "22307",
"Location": {
"Latitude": 45.0712,
"Longitude": 20.3251
}
},
{
"Name": "Surdulica",
"PostCode": "17530",
"Location": {
"Latitude": 42.6906,
"Longitude": 22.1708
}
},
{
"Name": "Šurjan",
"PostCode": "23254",
"Location": {
"Latitude": 45.3996,
"Longitude": 20.8747
}
},
{
"Name": "Susek",
"PostCode": "21313",
"Location": {
"Latitude": 45.2228,
"Longitude": 19.5335
}
},
{
"Name": "Sutjeska",
"PostCode": "23244",
"Location": {
"Latitude": 45.3831,
"Longitude": 20.6962
}
},
{
"Name": "Suvi Do",
"PostCode": "12322",
"Location": {
"Latitude": 44.2086,
"Longitude": 21.7275
}
},
{
"Name": "Suvojnica",
"PostCode": "17530",
"Location": {
"Latitude": 42.6597,
"Longitude": 22.1234
}
},
{
"Name": "Sveti Ilija",
"PostCode": "17508",
"Location": {
"Latitude": 42.4744,
"Longitude": 22.045
}
},
{
"Name": "Svetozar Miletić",
"PostCode": "25211",
"Location": {
"Latitude": 45.8522,
"Longitude": 19.2058
}
},
{
"Name": "Svilajnac",
"PostCode": "35210",
"Location": {
"Latitude": 44.2337,
"Longitude": 21.1967
}
},
{
"Name": "Svileuva",
"PostCode": "15221",
"Location": {
"Latitude": 44.5215,
"Longitude": 19.8279
}
},
{
"Name": "Svilojevo",
"PostCode": "25265",
"Location": {
"Latitude": 45.649,
"Longitude": 19.0664
}
},
{
"Name": "Svođe",
"PostCode": "16212",
"Location": {
"Latitude": 42.9773,
"Longitude": 22.2656
}
},
{
"Name": "Svojnovo",
"PostCode": "35259",
"Location": {
"Latitude": 43.7993,
"Longitude": 21.3063
}
},
{
"Name": "Svrljig",
"PostCode": "18360",
"Location": {
"Latitude": 43.4133,
"Longitude": 22.1211
}
},
{
"Name": "Takovo",
"PostCode": "32304",
"Location": {
"Latitude": 44.0428,
"Longitude": 20.3875
}
},
{
"Name": "Taraš",
"PostCode": "23209",
"Location": {
"Latitude": 45.4674,
"Longitude": 20.1987
}
},
{
"Name": "Tavankut",
"PostCode": "24214",
"Location": {
"Latitude": 46.0484,
"Longitude": 19.4872
}
},
{
"Name": "Tekeriš",
"PostCode": "15234",
"Location": {
"Latitude": 44.5573,
"Longitude": 19.5297
}
},
{
"Name": "Tekija",
"PostCode": "19325",
"Location": {
"Latitude": 44.6871,
"Longitude": 22.4143
}
},
{
"Name": "Telečka",
"PostCode": "25222",
"Location": {
"Latitude": 45.795,
"Longitude": 19.3818
}
},
{
"Name": "Temerin",
"PostCode": "21235",
"Location": {
"Latitude": 45.4086,
"Longitude": 19.8892
}
},
{
"Name": "Temerin",
"PostCode": "21236",
"Location": {
"Latitude": 45.4086,
"Longitude": 19.8892
}
},
{
"Name": "Temska",
"PostCode": "18355",
"Location": {
"Latitude": 43.2611,
"Longitude": 22.543
}
},
{
"Name": "Tešica",
"PostCode": "18212",
"Location": {
"Latitude": 43.4631,
"Longitude": 21.7495
}
},
{
"Name": "Titel",
"PostCode": "21240",
"Location": {
"Latitude": 45.2061,
"Longitude": 20.2944
}
},
{
"Name": "Toba",
"PostCode": "23222",
"Location": {
"Latitude": 45.6894,
"Longitude": 20.5571
}
},
{
"Name": "Tomaševac",
"PostCode": "23262",
"Location": {
"Latitude": 45.2685,
"Longitude": 20.6227
}
},
{
"Name": "Topola",
"PostCode": "34310",
"Location": {
"Latitude": 44.2542,
"Longitude": 20.6825
}
},
{
"Name": "Topolovnik",
"PostCode": "12226",
"Location": {
"Latitude": 44.7197,
"Longitude": 21.4423
}
},
{
"Name": "Toponica",
"PostCode": "34243",
"Location": {
"Latitude": 43.97,
"Longitude": 20.6737
}
},
{
"Name": "Torda",
"PostCode": "23214",
"Location": {
"Latitude": 45.5842,
"Longitude": 20.459
}
},
{
"Name": "Tornjoš",
"PostCode": "24352",
"Location": {
"Latitude": 45.8769,
"Longitude": 19.8352
}
},
{
"Name": "Totovo Selo",
"PostCode": "24427",
"Location": {
"Latitude": 45.9638,
"Longitude": 19.9174
}
},
{
"Name": "Tovariševo",
"PostCode": "21424",
"Location": {
"Latitude": 45.355,
"Longitude": 19.3243
}
},
{
"Name": "Trbušani",
"PostCode": "32205",
"Location": {
"Latitude": 43.908,
"Longitude": 20.3118
}
},
{
"Name": "Trešnjevac",
"PostCode": "24426",
"Location": {
"Latitude": 45.9789,
"Longitude": 19.9863
}
},
{
"Name": "Trešnjevica",
"PostCode": "35248",
"Location": {
"Latitude": 43.87,
"Longitude": 21.3251
}
},
{
"Name": "Trgovište",
"PostCode": "17525",
"Location": {
"Latitude": 42.3528,
"Longitude": 22.0622
}
},
{
"Name": "Trnavci",
"PostCode": "37235",
"Location": {
"Latitude": 43.4295,
"Longitude": 21.1166
}
},
{
"Name": "Trnjane",
"PostCode": "18213",
"Location": {
"Latitude": 43.5384,
"Longitude": 21.6335
}
},
{
"Name": "Trnjane",
"PostCode": "19306",
"Location": {
"Latitude": 44.2208,
"Longitude": 22.3588
}
},
{
"Name": "Tršić",
"PostCode": "15303",
"Location": {
"Latitude": 44.495,
"Longitude": 19.2649
}
},
{
"Name": "Trstenik",
"PostCode": "37240",
"Location": {
"Latitude": 43.6169,
"Longitude": 21.0025
}
},
{
"Name": "Trupale",
"PostCode": "18211",
"Location": {
"Latitude": 43.3581,
"Longitude": 21.7936
}
},
{
"Name": "Tulare",
"PostCode": "16247",
"Location": {
"Latitude": 42.7942,
"Longitude": 21.4605
}
},
{
"Name": "Turekovac",
"PostCode": "16231",
"Location": {
"Latitude": 42.9843,
"Longitude": 21.8816
}
},
{
"Name": "Turija",
"PostCode": "21215",
"Location": {
"Latitude": 45.5386,
"Longitude": 19.8564
}
},
{
"Name": "Turija (Kučevo)",
"PostCode": "12257",
"Location": {
"Latitude": 44.5672,
"Longitude": 21.6118
}
},
{
"Name": "Tutin",
"PostCode": "36320",
"Location": {
"Latitude": 42.9903,
"Longitude": 20.3314
}
},
{
"Name": "Ub",
"PostCode": "14210",
"Location": {
"Latitude": 44.4561,
"Longitude": 20.0739
}
},
{
"Name": "Ugao",
"PostCode": "36313",
"Location": {
"Latitude": 43.0501,
"Longitude": 20.0568
}
},
{
"Name": "Ugrinovci",
"PostCode": "11277",
"Location": {
"Latitude": 44.8763,
"Longitude": 20.1876
}
},
{
"Name": "Ugrinovci",
"PostCode": "32314",
"Location": {
"Latitude": 44.1737,
"Longitude": 20.387
}
},
{
"Name": "Uljma",
"PostCode": "26330",
"Location": {
"Latitude": 45.0421,
"Longitude": 21.1539
}
},
{
"Name": "Umčari",
"PostCode": "11430",
"Location": {
"Latitude": 44.5836,
"Longitude": 20.7342
}
},
{
"Name": "Umka",
"PostCode": "11260",
"Location": {
"Latitude": 44.6781,
"Longitude": 20.3047
}
},
{
"Name": "Urovica",
"PostCode": "19305",
"Location": {
"Latitude": 44.4003,
"Longitude": 22.4011
}
},
{
"Name": "Ušće",
"PostCode": "36342",
"Location": {
"Latitude": 43.4675,
"Longitude": 20.6146
}
},
{
"Name": "Utrine",
"PostCode": "24437",
"Location": {
"Latitude": 45.812,
"Longitude": 19.9
}
},
{
"Name": "Uzdin",
"PostCode": "26216",
"Location": {
"Latitude": 45.2051,
"Longitude": 20.6234
}
},
{
"Name": "Užice",
"PostCode": "31000",
"Location": {
"Latitude": 43.8586,
"Longitude": 19.8488
}
},
{
"Name": "Uzovnica",
"PostCode": "15319",
"Location": {
"Latitude": 44.2693,
"Longitude": 19.3524
}
},
{
"Name": "Vajska",
"PostCode": "21426",
"Location": {
"Latitude": 45.4108,
"Longitude": 19.1119
}
},
{
"Name": "Valjevo",
"PostCode": "14000",
"Location": {
"Latitude": 44.2751,
"Longitude": 19.8982
}
},
{
"Name": "Varda",
"PostCode": "31263",
"Location": {
"Latitude": 44.0436,
"Longitude": 19.7513
}
},
{
"Name": "Varna",
"PostCode": "15232",
"Location": {
"Latitude": 44.6791,
"Longitude": 19.6515
}
},
{
"Name": "Varvarin",
"PostCode": "37260",
"Location": {
"Latitude": 43.724,
"Longitude": 21.3624
}
},
{
"Name": "Vašica",
"PostCode": "22241",
"Location": {
"Latitude": 45.095,
"Longitude": 19.1861
}
},
{
"Name": "Vasilj",
"PostCode": "19367",
"Location": {
"Latitude": 43.5703,
"Longitude": 22.1558
}
},
{
"Name": "Vatin",
"PostCode": "26337",
"Location": {
"Latitude": 45.2328,
"Longitude": 21.2439
}
},
{
"Name": "Velesnica",
"PostCode": "19328",
"Location": {
"Latitude": 44.5189,
"Longitude": 22.5522
}
},
{
"Name": "Velika Drenova",
"PostCode": "37245",
"Location": {
"Latitude": 43.6269,
"Longitude": 21.1299
}
},
{
"Name": "Velika Grabovnica",
"PostCode": "16221",
"Location": {
"Latitude": 42.9246,
"Longitude": 22.0114
}
},
{
"Name": "Velika Greda",
"PostCode": "26366",
"Location": {
"Latitude": 45.2438,
"Longitude": 21.035
}
},
{
"Name": "Velika Ivanča",
"PostCode": "11414",
"Location": {
"Latitude": 44.4264,
"Longitude": 20.5803
}
},
{
"Name": "Velika Jasikova",
"PostCode": "19235",
"Location": {
"Latitude": 44.0831,
"Longitude": 22.361
}
},
{
"Name": "Velika Krsna",
"PostCode": "11408",
"Location": {
"Latitude": 44.4784,
"Longitude": 20.8052
}
},
{
"Name": "Velika Lomnica",
"PostCode": "37209",
"Location": {
"Latitude": 43.4957,
"Longitude": 21.3414
}
},
{
"Name": "Velika Moštanica",
"PostCode": "11262",
"Location": {
"Latitude": 44.6649,
"Longitude": 20.3539
}
},
{
"Name": "Velika Plana",
"PostCode": "11320",
"Location": {
"Latitude": 44.3339,
"Longitude": 21.0768
}
},
{
"Name": "Velika Plana",
"PostCode": "18403",
"Location": {
"Latitude": 43.3209,
"Longitude": 21.4405
}
},
{
"Name": "Velika Reka",
"PostCode": "15322",
"Location": {
"Latitude": 44.27,
"Longitude": 19.2281
}
},
{
"Name": "Velika Vrbnica",
"PostCode": "37233",
"Location": {
"Latitude": 43.4897,
"Longitude": 20.9688
}
},
{
"Name": "Veliki Borak",
"PostCode": "11462",
"Location": {
"Latitude": 44.5394,
"Longitude": 20.3505
}
},
{
"Name": "Veliki Crljeni",
"PostCode": "11563",
"Location": {
"Latitude": 44.4722,
"Longitude": 20.2907
}
},
{
"Name": "Veliki Drenovac",
"PostCode": "18222",
"Location": {
"Latitude": 43.412,
"Longitude": 21.7422
}
},
{
"Name": "Veliki Gaj",
"PostCode": "26365",
"Location": {
"Latitude": 45.2885,
"Longitude": 21.1706
}
},
{
"Name": "Veliki Izvor",
"PostCode": "19206",
"Location": {
"Latitude": 43.9184,
"Longitude": 22.3329
}
},
{
"Name": "Veliki Popović",
"PostCode": "35223",
"Location": {
"Latitude": 44.1179,
"Longitude": 21.3573
}
},
{
"Name": "Veliki Radinci",
"PostCode": "22211",
"Location": {
"Latitude": 45.0452,
"Longitude": 19.6747
}
},
{
"Name": "Veliki Šiljegovac",
"PostCode": "37204",
"Location": {
"Latitude": 43.519,
"Longitude": 21.5297
}
},
{
"Name": "Veliki Trnovac",
"PostCode": "17528",
"Location": {
"Latitude": 42.4791,
"Longitude": 21.7399
}
},
{
"Name": "Veliko Bonjince",
"PostCode": "18215",
"Location": {
"Latitude": 43.4528,
"Longitude": 21.703
}
},
{
"Name": "Veliko Gradište",
"PostCode": "12220",
"Location": {
"Latitude": 44.7633,
"Longitude": 21.5165
}
},
{
"Name": "Veliko Laole",
"PostCode": "12306",
"Location": {
"Latitude": 44.3195,
"Longitude": 21.4312
}
},
{
"Name": "Veliko Orašje",
"PostCode": "11323",
"Location": {
"Latitude": 44.3711,
"Longitude": 21.0879
}
},
{
"Name": "Veliko Središte",
"PostCode": "26334",
"Location": {
"Latitude": 45.1792,
"Longitude": 21.4035
}
},
{
"Name": "Venčane",
"PostCode": "34306",
"Location": {
"Latitude": 44.4067,
"Longitude": 20.4678
}
},
{
"Name": "Veternik",
"PostCode": "21203",
"Location": {
"Latitude": 45.2545,
"Longitude": 19.7588
}
},
{
"Name": "Vezičevo",
"PostCode": "12309",
"Location": {
"Latitude": 44.239,
"Longitude": 21.4302
}
},
{
"Name": "Viča",
"PostCode": "32233",
"Location": {
"Latitude": 43.7402,
"Longitude": 20.2913
}
},
{
"Name": "Vilovo",
"PostCode": "21246",
"Location": {
"Latitude": 45.2486,
"Longitude": 20.1552
}
},
{
"Name": "Vina",
"PostCode": "19368",
"Location": {
"Latitude": 43.6186,
"Longitude": 22.1458
}
},
{
"Name": "Vinča",
"PostCode": "11351",
"Location": {
"Latitude": 44.7626,
"Longitude": 20.6216
}
},
{
"Name": "Vinci",
"PostCode": "12229",
"Location": {
"Latitude": 44.711,
"Longitude": 21.6061
}
},
{
"Name": "Vionica",
"PostCode": "32254",
"Location": {
"Latitude": 43.4334,
"Longitude": 20.3541
}
},
{
"Name": "Višnjevac",
"PostCode": "24222",
"Location": {
"Latitude": 45.9515,
"Longitude": 19.7427
}
},
{
"Name": "Višnjićevo",
"PostCode": "22246",
"Location": {
"Latitude": 44.9673,
"Longitude": 19.2899
}
},
{
"Name": "Visoka Ržana",
"PostCode": "18306",
"Location": {
"Latitude": 43.1555,
"Longitude": 22.8107
}
},
{
"Name": "Vitanovac",
"PostCode": "36206",
"Location": {
"Latitude": 43.7264,
"Longitude": 20.7994
}
},
{
"Name": "Vitkovac",
"PostCode": "36207",
"Location": {
"Latitude": 43.7948,
"Longitude": 20.7836
}
},
{
"Name": "Vitoševac",
"PostCode": "37213",
"Location": {
"Latitude": 43.7471,
"Longitude": 21.5814
}
},
{
"Name": "Vladičin Han",
"PostCode": "17510",
"Location": {
"Latitude": 42.7078,
"Longitude": 22.0633
}
},
{
"Name": "Vladimirci",
"PostCode": "15225",
"Location": {
"Latitude": 44.6147,
"Longitude": 19.7853
}
},
{
"Name": "Vladimirovac",
"PostCode": "26315",
"Location": {
"Latitude": 45.0312,
"Longitude": 20.8657
}
},
{
"Name": "Vlajkovac",
"PostCode": "26332",
"Location": {
"Latitude": 45.0721,
"Longitude": 21.1994
}
},
{
"Name": "Vlaole",
"PostCode": "19258",
"Location": {
"Latitude": 44.2682,
"Longitude": 21.9847
}
},
{
"Name": "Vlase",
"PostCode": "17507",
"Location": {
"Latitude": 42.6949,
"Longitude": 21.8628
}
},
{
"Name": "Vlasina Okruglica",
"PostCode": "17532",
"Location": {
"Latitude": 42.6656,
"Longitude": 22.3192
}
},
{
"Name": "Vlasina Rid",
"PostCode": "17533",
"Location": {
"Latitude": 42.731,
"Longitude": 22.3219
}
},
{
"Name": "Vlasina Stojkovićevo",
"PostCode": "17534",
"Location": {
"Latitude": 42.6647,
"Longitude": 22.2748
}
},
{
"Name": "Vlaška",
"PostCode": "11406",
"Location": {
"Latitude": 44.5003,
"Longitude": 20.6873
}
},
{
"Name": "Vlasotince",
"PostCode": "16210",
"Location": {
"Latitude": 42.967,
"Longitude": 22.134
}
},
{
"Name": "Vodanj",
"PostCode": "11328",
"Location": {
"Latitude": 44.6096,
"Longitude": 20.8526
}
},
{
"Name": "Voganj",
"PostCode": "22429",
"Location": {
"Latitude": 45.0032,
"Longitude": 19.7561
}
},
{
"Name": "Vojka",
"PostCode": "22313",
"Location": {
"Latitude": 44.9371,
"Longitude": 20.1524
}
},
{
"Name": "Vojska",
"PostCode": "35208",
"Location": {
"Latitude": 44.0909,
"Longitude": 21.2161
}
},
{
"Name": "Vojvoda Stepa",
"PostCode": "23219",
"Location": {
"Latitude": 45.6854,
"Longitude": 20.6554
}
},
{
"Name": "Vojvodinci",
"PostCode": "26338",
"Location": {
"Latitude": 45.0156,
"Longitude": 21.3479
}
},
{
"Name": "Voluja",
"PostCode": "12256",
"Location": {
"Latitude": 44.4915,
"Longitude": 21.765
}
},
{
"Name": "Vračev Gaj",
"PostCode": "26348",
"Location": {
"Latitude": 44.8787,
"Longitude": 21.3674
}
},
{
"Name": "Vraćevšnica",
"PostCode": "32315",
"Location": {
"Latitude": 44.0417,
"Longitude": 20.619
}
},
{
"Name": "Vranić",
"PostCode": "11427",
"Location": {
"Latitude": 44.6024,
"Longitude": 20.3287
}
},
{
"Name": "Vranje",
"PostCode": "17501",
"Location": {
"Latitude": 42.5514,
"Longitude": 21.9003
}
},
{
"Name": "Vranjska Banja",
"PostCode": "17541",
"Location": {
"Latitude": 42.555,
"Longitude": 21.9922
}
},
{
"Name": "Vranovo",
"PostCode": "11329",
"Location": {
"Latitude": 44.601,
"Longitude": 20.9945
}
},
{
"Name": "Vratarnica",
"PostCode": "19344",
"Location": {
"Latitude": 43.7949,
"Longitude": 22.3034
}
},
{
"Name": "Vražogrnac",
"PostCode": "19312",
"Location": {
"Latitude": 43.9618,
"Longitude": 22.3199
}
},
{
"Name": "Vrba",
"PostCode": "36214",
"Location": {
"Latitude": 43.6904,
"Longitude": 20.7861
}
},
{
"Name": "Vrbas",
"PostCode": "21460",
"Location": {
"Latitude": 45.5714,
"Longitude": 19.6408
}
},
{
"Name": "Vrbica",
"PostCode": "23329",
"Location": {
"Latitude": 46.0058,
"Longitude": 20.3133
}
},
{
"Name": "Vrćenovica",
"PostCode": "18221",
"Location": {
"Latitude": 43.4312,
"Longitude": 21.6701
}
},
{
"Name": "Vrčin",
"PostCode": "11224",
"Location": {
"Latitude": 44.6685,
"Longitude": 20.5933
}
},
{
"Name": "Vrdnik",
"PostCode": "22408",
"Location": {
"Latitude": 45.1217,
"Longitude": 19.7923
}
},
{
"Name": "Vreoci",
"PostCode": "11560",
"Location": {
"Latitude": 44.4434,
"Longitude": 20.282
}
},
{
"Name": "Vrmdža",
"PostCode": "18236",
"Location": {
"Latitude": 43.7137,
"Longitude": 21.8186
}
},
{
"Name": "Vrnjačka Banja",
"PostCode": "36210",
"Location": {
"Latitude": 43.6273,
"Longitude": 20.8963
}
},
{
"Name": "Vrnjci",
"PostCode": "36217",
"Location": {
"Latitude": 43.6138,
"Longitude": 20.8781
}
},
{
"Name": "Vršac",
"PostCode": "26300",
"Location": {
"Latitude": 45.1167,
"Longitude": 21.3036
}
},
{
"Name": "Vučje",
"PostCode": "16203",
"Location": {
"Latitude": 42.8653,
"Longitude": 21.9105
}
},
{
"Name": "Vukovac",
"PostCode": "12318",
"Location": {
"Latitude": 44.259,
"Longitude": 21.7383
}
},
{
"Name": "Žabalj",
"PostCode": "21230",
"Location": {
"Latitude": 45.3722,
"Longitude": 20.0639
}
},
{
"Name": "Žabari",
"PostCode": "12374",
"Location": {
"Latitude": 44.3561,
"Longitude": 21.215
}
},
{
"Name": "Zablaće",
"PostCode": "32223",
"Location": {
"Latitude": 43.8456,
"Longitude": 20.4469
}
},
{
"Name": "Zabojnica",
"PostCode": "34244",
"Location": {
"Latitude": 43.9935,
"Longitude": 20.7546
}
},
{
"Name": "Zabrežje",
"PostCode": "11505",
"Location": {
"Latitude": 44.6825,
"Longitude": 20.2025
}
},
{
"Name": "Zagajica",
"PostCode": "26344",
"Location": {
"Latitude": 44.9822,
"Longitude": 21.2288
}
},
{
"Name": "Žagubica",
"PostCode": "12320",
"Location": {
"Latitude": 44.1969,
"Longitude": 21.7884
}
},
{
"Name": "Zajača",
"PostCode": "15315",
"Location": {
"Latitude": 44.4568,
"Longitude": 19.2443
}
},
{
"Name": "Zaječar",
"PostCode": "19000",
"Location": {
"Latitude": 43.9036,
"Longitude": 22.2641
}
},
{
"Name": "Zaplanjska Toponica",
"PostCode": "18244",
"Location": {
"Latitude": 43.1604,
"Longitude": 21.9239
}
},
{
"Name": "Zasavica",
"PostCode": "22201",
"Location": {
"Latitude": 44.9705,
"Longitude": 19.5311
}
},
{
"Name": "Zavlaka",
"PostCode": "15312",
"Location": {
"Latitude": 44.4565,
"Longitude": 19.4835
}
},
{
"Name": "Zdravinje",
"PostCode": "37203",
"Location": {
"Latitude": 43.4982,
"Longitude": 21.446
}
},
{
"Name": "Zemun",
"PostCode": "11080",
"Location": {
"Latitude": 44.8458,
"Longitude": 20.4012
}
},
{
"Name": "Žiča",
"PostCode": "36221",
"Location": {
"Latitude": 43.6944,
"Longitude": 20.6542
}
},
{
"Name": "Žirovnica",
"PostCode": "34229",
"Location": {
"Latitude": 44.1179,
"Longitude": 21.0261
}
},
{
"Name": "Žitište",
"PostCode": "23210",
"Location": {
"Latitude": 45.485,
"Longitude": 20.5497
}
},
{
"Name": "Žitkovac",
"PostCode": "18210",
"Location": {
"Latitude": 43.5114,
"Longitude": 21.6923
}
},
{
"Name": "Žitni Potok",
"PostCode": "18407",
"Location": {
"Latitude": 43.0902,
"Longitude": 21.5748
}
},
{
"Name": "Žitorađa",
"PostCode": "18412",
"Location": {
"Latitude": 43.19,
"Longitude": 21.7131
}
},
{
"Name": "Zlatari",
"PostCode": "37228",
"Location": {
"Latitude": 43.3869,
"Longitude": 21.1581
}
},
{
"Name": "Zlatibor",
"PostCode": "31315",
"Location": {
"Latitude": 43.729,
"Longitude": 19.7003
}
},
{
"Name": "Zlatica",
"PostCode": "23255",
"Location": {
"Latitude": 45.3862,
"Longitude": 20.5827
}
},
{
"Name": "Zlodol",
"PostCode": "31253",
"Location": {
"Latitude": 43.9338,
"Longitude": 19.6729
}
},
{
"Name": "Zlot",
"PostCode": "19215",
"Location": {
"Latitude": 44.0085,
"Longitude": 21.9855
}
},
{
"Name": "Zmajevo",
"PostCode": "21213",
"Location": {
"Latitude": 45.4541,
"Longitude": 19.6905
}
},
{
"Name": "Zminjak",
"PostCode": "15352",
"Location": {
"Latitude": 44.7571,
"Longitude": 19.4707
}
},
{
"Name": "Zrenjanin",
"PostCode": "23101",
"Location": {
"Latitude": 45.3836,
"Longitude": 20.3819
}
},
{
"Name": "Žuč",
"PostCode": "18438",
"Location": {
"Latitude": 43.2007,
"Longitude": 21.1568
}
},
{
"Name": "Zuce",
"PostCode": "11225",
"Location": {
"Latitude": 44.6981,
"Longitude": 20.5552
}
},
{
"Name": "Zvezdan",
"PostCode": "19227",
"Location": {
"Latitude": 43.9009,
"Longitude": 22.2143
}
},
{
"Name": "Zvonce",
"PostCode": "18333",
"Location": {
"Latitude": 42.9329,
"Longitude": 22.5797
}
}
]
}
]
}
]
}
]